{
  "alberi-gemelli-siamesi": {
    "name": "Alberi \"gemelli siamesi\"",
    "slug": "alberi-gemelli-siamesi",
    "category": "SCENIC_POINT",
    "region": "Alps",
    "country": "Europe",
    "lat": 44.9140442,
    "lng": 7.2202277,
    "nearest_airport": "TRN",
    "description": "Auto-imported SCENIC_POINT. Altitude: N/Am"
  },
  "albero-secolare-faggio": {
    "name": "Albero secolare (faggio)",
    "slug": "albero-secolare-faggio",
    "category": "SCENIC_POINT",
    "region": "Alps",
    "country": "Europe",
    "lat": 44.1911704,
    "lng": 7.5797116,
    "nearest_airport": "NCE",
    "description": "Auto-imported SCENIC_POINT. Altitude: N/Am"
  },
  "albert-schell-kanzel": {
    "name": "Albert-Schell-Kanzel",
    "slug": "albert-schell-kanzel",
    "category": "SCENIC_POINT",
    "region": "Alps",
    "country": "Europe",
    "lat": 47.2313651,
    "lng": 12.2662618,
    "nearest_airport": "INN",
    "description": "Auto-imported SCENIC_POINT. Altitude: N/Am"
  },
  "albispass": {
    "name": "Albispass",
    "slug": "albispass",
    "category": "MOUNTAIN_PASS",
    "region": "Alps",
    "country": "Europe",
    "lat": 47.276007,
    "lng": 8.5211431,
    "nearest_airport": "ZRH",
    "description": "Auto-imported MOUNTAIN_PASS. Altitude: 790m"
  },
  "albispass-77": {
    "name": "Albispass",
    "slug": "albispass-77",
    "category": "MOUNTAIN_PASS",
    "region": "Alps",
    "country": "",
    "lat": 47.276007,
    "lng": 8.5211431,
    "nearest_airport": "",
    "description": "Verified Location."
  },
  "alblittjochl": {
    "name": "Alblittjöchl",
    "slug": "alblittjochl",
    "category": "MOUNTAIN_PASS",
    "region": "Alps",
    "country": "Europe",
    "lat": 47.2311124,
    "lng": 10.5167558,
    "nearest_airport": "INN",
    "description": "Auto-imported MOUNTAIN_PASS. Altitude: 2281m"
  },
  "alblittjochl-824": {
    "name": "Alblittjöchl",
    "slug": "alblittjochl-824",
    "category": "MOUNTAIN_PASS",
    "region": "Alps",
    "country": "",
    "lat": 47.2311124,
    "lng": 10.5167558,
    "nearest_airport": "",
    "description": "Verified Location."
  },
  "albtalschanze": {
    "name": "Albtalschanze",
    "slug": "albtalschanze",
    "category": "SCENIC_POINT",
    "region": "Alps",
    "country": "Europe",
    "lat": 47.7321948,
    "lng": 8.1484656,
    "nearest_airport": "ZRH",
    "description": "Auto-imported SCENIC_POINT. Altitude: N/Am"
  },
  "albulapass": {
    "name": "Albulapass",
    "slug": "albulapass",
    "category": "MOUNTAIN_PASS",
    "region": "Alps",
    "country": "Europe",
    "lat": 46.5822515,
    "lng": 9.8376821,
    "nearest_airport": "MXP",
    "description": "Auto-imported MOUNTAIN_PASS. Altitude: 2312m"
  },
  "albulapass-1116": {
    "name": "Albulapass",
    "slug": "albulapass-1116",
    "category": "MOUNTAIN_PASS",
    "region": "Alps",
    "country": "",
    "lat": 46.5822515,
    "lng": 9.8376821,
    "nearest_airport": "",
    "description": "Verified Location."
  },
  "alemannenschanze-turm": {
    "name": "Alemannenschanze Turm",
    "slug": "alemannenschanze-turm",
    "category": "SCENIC_POINT",
    "region": "Alps",
    "country": "Europe",
    "lat": 47.5814031,
    "lng": 9.9254752,
    "nearest_airport": "ZRH",
    "description": "Auto-imported SCENIC_POINT. Altitude: N/Am"
  },
  "aletschbord": {
    "name": "Aletschbord",
    "slug": "aletschbord",
    "category": "SCENIC_POINT",
    "region": "Alps",
    "country": "Europe",
    "lat": 46.3811795,
    "lng": 7.9918719,
    "nearest_airport": "MXP",
    "description": "Auto-imported SCENIC_POINT. Altitude: N/Am"
  },
  "alewindebool": {
    "name": "Alewindebööl",
    "slug": "alewindebool",
    "category": "SCENIC_POINT",
    "region": "Alps",
    "country": "Europe",
    "lat": 47.3832423,
    "lng": 8.9514903,
    "nearest_airport": "ZRH",
    "description": "Auto-imported SCENIC_POINT. Altitude: 950m"
  },
  "alix": {
    "name": "Alix",
    "slug": "alix",
    "category": "SCENIC_POINT",
    "region": "Alps",
    "country": "Europe",
    "lat": 46.7939515,
    "lng": 9.2823559,
    "nearest_airport": "ZRH",
    "description": "Auto-imported SCENIC_POINT. Altitude: N/Am"
  },
  "alix-plattform": {
    "name": "Alix Plattform",
    "slug": "alix-plattform",
    "category": "SCENIC_POINT",
    "region": "Alps",
    "country": "Europe",
    "lat": 46.7938644,
    "lng": 9.2821932,
    "nearest_airport": "ZRH",
    "description": "Auto-imported SCENIC_POINT. Altitude: N/Am"
  },
  "allensbacher-hinkelstein": {
    "name": "Allensbacher Hinkelstein",
    "slug": "allensbacher-hinkelstein",
    "category": "SCENIC_POINT",
    "region": "Alps",
    "country": "Europe",
    "lat": 47.7117825,
    "lng": 9.073664,
    "nearest_airport": "ZRH",
    "description": "Auto-imported SCENIC_POINT. Altitude: N/Am"
  },
  "allgauwlicka": {
    "name": "Ällgäuwlicka",
    "slug": "allgauwlicka",
    "category": "MOUNTAIN_PASS",
    "region": "Alps",
    "country": "Europe",
    "lat": 46.7660537,
    "lng": 7.9703108,
    "nearest_airport": "ZRH",
    "description": "Auto-imported MOUNTAIN_PASS. Altitude: 1918m"
  },
  "almajurjoch": {
    "name": "Almajurjoch",
    "slug": "almajurjoch",
    "category": "MOUNTAIN_PASS",
    "region": "Alps",
    "country": "Europe",
    "lat": 47.161403,
    "lng": 10.2792573,
    "nearest_airport": "INN",
    "description": "Auto-imported MOUNTAIN_PASS. Altitude: 2237m"
  },
  "almajurjoch-3279": {
    "name": "Almajurjoch",
    "slug": "almajurjoch-3279",
    "category": "MOUNTAIN_PASS",
    "region": "Alps",
    "country": "",
    "lat": 47.161403,
    "lng": 10.2792573,
    "nearest_airport": "",
    "description": "Verified Location."
  },
  "almerisch": {
    "name": "Almerisch",
    "slug": "almerisch",
    "category": "SCENIC_POINT",
    "region": "Alps",
    "country": "Europe",
    "lat": 47.5115208,
    "lng": 11.1458167,
    "nearest_airport": "INN",
    "description": "Auto-imported SCENIC_POINT. Altitude: N/Am"
  },
  "almkogel": {
    "name": "Almkogel",
    "slug": "almkogel",
    "category": "SCENIC_POINT",
    "region": "Alps",
    "country": "Europe",
    "lat": 47.8057132,
    "lng": 13.3655225,
    "nearest_airport": "SZG",
    "description": "Auto-imported SCENIC_POINT. Altitude: 1030m"
  },
  "alois-edlinger-ruhe": {
    "name": "Alois-Edlinger Ruhe",
    "slug": "alois-edlinger-ruhe",
    "category": "SCENIC_POINT",
    "region": "Alps",
    "country": "Europe",
    "lat": 47.3651544,
    "lng": 15.0673987,
    "nearest_airport": "VIE",
    "description": "Auto-imported SCENIC_POINT. Altitude: N/Am"
  },
  "alp-grum": {
    "name": "Alp Grüm",
    "slug": "alp-grum",
    "category": "SCENIC_POINT",
    "region": "Alps",
    "country": "Europe",
    "lat": 46.3740649,
    "lng": 10.0316715,
    "nearest_airport": "MXP",
    "description": "Auto-imported SCENIC_POINT. Altitude: 2091m"
  },
  "alpe-belvedere": {
    "name": "Alpe Belvedere",
    "slug": "alpe-belvedere",
    "category": "SCENIC_POINT",
    "region": "Alps",
    "country": "Europe",
    "lat": 45.8920141,
    "lng": 8.2903339,
    "nearest_airport": "MXP",
    "description": "Auto-imported SCENIC_POINT. Altitude: N/Am"
  },
  "alpe-confinale": {
    "name": "Alpe Confinale",
    "slug": "alpe-confinale",
    "category": "SCENIC_POINT",
    "region": "Alps",
    "country": "Europe",
    "lat": 46.4438586,
    "lng": 10.4678935,
    "nearest_airport": "INN",
    "description": "Auto-imported SCENIC_POINT. Altitude: N/Am"
  },
  "alpe-foirosa": {
    "name": "Alpe Foirosa",
    "slug": "alpe-foirosa",
    "category": "SCENIC_POINT",
    "region": "Alps",
    "country": "Europe",
    "lat": 44.7141737,
    "lng": 7.2317124,
    "nearest_airport": "TRN",
    "description": "Auto-imported SCENIC_POINT. Altitude: N/Am"
  },
  "alpe-frid": {
    "name": "Alpe Frid",
    "slug": "alpe-frid",
    "category": "SCENIC_POINT",
    "region": "Alps",
    "country": "Europe",
    "lat": 46.3937946,
    "lng": 8.1614449,
    "nearest_airport": "MXP",
    "description": "Auto-imported SCENIC_POINT. Altitude: N/Am"
  },
  "alpe-hinterer-geissberg": {
    "name": "Alpe Hinterer Geißberg",
    "slug": "alpe-hinterer-geissberg",
    "category": "SCENIC_POINT",
    "region": "Alps",
    "country": "Europe",
    "lat": 47.4152921,
    "lng": 10.2176335,
    "nearest_airport": "INN",
    "description": "Auto-imported SCENIC_POINT. Altitude: 1372m"
  },
  "alpeiner-scharte": {
    "name": "Alpeiner Scharte",
    "slug": "alpeiner-scharte",
    "category": "MOUNTAIN_PASS",
    "region": "Alps",
    "country": "Europe",
    "lat": 47.0373783,
    "lng": 11.6497329,
    "nearest_airport": "INN",
    "description": "Auto-imported MOUNTAIN_PASS. Altitude: 2959m"
  },
  "alpeiner-scharte-1749": {
    "name": "Alpeiner Scharte",
    "slug": "alpeiner-scharte-1749",
    "category": "MOUNTAIN_PASS",
    "region": "Alps",
    "country": "",
    "lat": 47.0373783,
    "lng": 11.6497329,
    "nearest_airport": "",
    "description": "Verified Location."
  },
  "alpelsattel": {
    "name": "Alpelsattel",
    "slug": "alpelsattel",
    "category": "MOUNTAIN_PASS",
    "region": "Alps",
    "country": "Europe",
    "lat": 47.3574422,
    "lng": 10.3567613,
    "nearest_airport": "INN",
    "description": "Auto-imported MOUNTAIN_PASS. Altitude: 1780m"
  },
  "alpelsattel-85": {
    "name": "Alpelsattel",
    "slug": "alpelsattel-85",
    "category": "MOUNTAIN_PASS",
    "region": "Alps",
    "country": "",
    "lat": 47.3574422,
    "lng": 10.3567613,
    "nearest_airport": "",
    "description": "Verified Location."
  },
  "alpeltispitz": {
    "name": "Älpeltispitz",
    "slug": "alpeltispitz",
    "category": "SCENIC_POINT",
    "region": "Alps",
    "country": "Europe",
    "lat": 46.884597,
    "lng": 9.9261032,
    "nearest_airport": "INN",
    "description": "Auto-imported SCENIC_POINT. Altitude: 2686m"
  },
  "alpen-panorama-mitten-im-see": {
    "name": "Alpen Panorama mitten im See",
    "slug": "alpen-panorama-mitten-im-see",
    "category": "SCENIC_POINT",
    "region": "Alps",
    "country": "Europe",
    "lat": 47.3605958,
    "lng": 8.6810633,
    "nearest_airport": "ZRH",
    "description": "Auto-imported SCENIC_POINT. Altitude: N/Am"
  },
  "alpenblick": {
    "name": "Alpenblick",
    "slug": "alpenblick",
    "category": "SCENIC_POINT",
    "region": "Alps",
    "country": "Europe",
    "lat": 47.8133371,
    "lng": 8.6153799,
    "nearest_airport": "ZRH",
    "description": "Auto-imported SCENIC_POINT. Altitude: 750m"
  },
  "alpenpanorama": {
    "name": "Alpenpanorama",
    "slug": "alpenpanorama",
    "category": "SCENIC_POINT",
    "region": "Alps",
    "country": "Europe",
    "lat": 47.6756948,
    "lng": 7.9989075,
    "nearest_airport": "ZRH",
    "description": "Auto-imported SCENIC_POINT. Altitude: N/Am"
  },
  "alpenpanorama-aussichtspunkt": {
    "name": "Alpenpanorama Aussichtspunkt",
    "slug": "alpenpanorama-aussichtspunkt",
    "category": "SCENIC_POINT",
    "region": "Alps",
    "country": "Europe",
    "lat": 47.7445385,
    "lng": 8.0728425,
    "nearest_airport": "ZRH",
    "description": "Auto-imported SCENIC_POINT. Altitude: N/Am"
  },
  "alpenpanorama-horbach": {
    "name": "Alpenpanorama Horbach",
    "slug": "alpenpanorama-horbach",
    "category": "SCENIC_POINT",
    "region": "Alps",
    "country": "Europe",
    "lat": 47.735491,
    "lng": 8.1089796,
    "nearest_airport": "ZRH",
    "description": "Auto-imported SCENIC_POINT. Altitude: 1000m"
  },
  "alpenpanorama-loreto-kapelle-wolfegg": {
    "name": "Alpenpanorama Loreto - Kapelle Wolfegg",
    "slug": "alpenpanorama-loreto-kapelle-wolfegg",
    "category": "SCENIC_POINT",
    "region": "Alps",
    "country": "Europe",
    "lat": 47.8150028,
    "lng": 9.8000416,
    "nearest_airport": "ZRH",
    "description": "Auto-imported SCENIC_POINT. Altitude: N/Am"
  },
  "alpenpanorama-rotzingen-827-m-u-nn": {
    "name": "Alpenpanorama Rotzingen 827 m ü. NN",
    "slug": "alpenpanorama-rotzingen-827-m-u-nn",
    "category": "SCENIC_POINT",
    "region": "Alps",
    "country": "Europe",
    "lat": 47.6690108,
    "lng": 8.0775731,
    "nearest_airport": "ZRH",
    "description": "Alpenzeiger"
  },
  "alpenpanorama-schwarz": {
    "name": "Alpenpanorama Schwarz",
    "slug": "alpenpanorama-schwarz",
    "category": "SCENIC_POINT",
    "region": "Alps",
    "country": "Europe",
    "lat": 47.7323128,
    "lng": 10.7120379,
    "nearest_airport": "INN",
    "description": "Auto-imported SCENIC_POINT. Altitude: N/Am"
  },
  "alpenpanorama-vom-chiemgau-bis-garmisch": {
    "name": "Alpenpanorama - vom Chiemgau bis Garmisch",
    "slug": "alpenpanorama-vom-chiemgau-bis-garmisch",
    "category": "SCENIC_POINT",
    "region": "Alps",
    "country": "Europe",
    "lat": 47.9356339,
    "lng": 12.2904079,
    "nearest_airport": "SZG",
    "description": "Fotopanorama der sichtbaren Berge"
  },
  "alpenpanorama-wolpadingen": {
    "name": "Alpenpanorama Wolpadingen",
    "slug": "alpenpanorama-wolpadingen",
    "category": "SCENIC_POINT",
    "region": "Alps",
    "country": "Europe",
    "lat": 47.7026517,
    "lng": 8.1034226,
    "nearest_airport": "ZRH",
    "description": "Auto-imported SCENIC_POINT. Altitude: 935m"
  },
  "alpenpanorma-segeten": {
    "name": "Alpenpanorma Segeten",
    "slug": "alpenpanorma-segeten",
    "category": "SCENIC_POINT",
    "region": "Alps",
    "country": "Europe",
    "lat": 47.6620431,
    "lng": 8.0308025,
    "nearest_airport": "ZRH",
    "description": "Auto-imported SCENIC_POINT. Altitude: N/Am"
  },
  "alpensteinbock": {
    "name": "Alpensteinbock",
    "slug": "alpensteinbock",
    "category": "SCENIC_POINT",
    "region": "Alps",
    "country": "Europe",
    "lat": 47.6321192,
    "lng": 8.2189998,
    "nearest_airport": "ZRH",
    "description": "Auto-imported SCENIC_POINT. Altitude: N/Am"
  },
  "alpenzeiger": {
    "name": "Alpenzeiger",
    "slug": "alpenzeiger",
    "category": "SCENIC_POINT",
    "region": "Alps",
    "country": "Europe",
    "lat": 47.7070768,
    "lng": 8.7210347,
    "nearest_airport": "ZRH",
    "description": "Auto-imported SCENIC_POINT. Altitude: N/Am"
  },
  "alpenzeiger-hohflue": {
    "name": "Alpenzeiger Hohflue",
    "slug": "alpenzeiger-hohflue",
    "category": "SCENIC_POINT",
    "region": "Alps",
    "country": "Europe",
    "lat": 47.6927302,
    "lng": 8.6163521,
    "nearest_airport": "ZRH",
    "description": "Auto-imported SCENIC_POINT. Altitude: N/Am"
  },
  "alperschonjoch": {
    "name": "Alperschonjoch",
    "slug": "alperschonjoch",
    "category": "MOUNTAIN_PASS",
    "region": "Alps",
    "country": "Europe",
    "lat": 47.17966,
    "lng": 10.385495,
    "nearest_airport": "INN",
    "description": "Auto-imported MOUNTAIN_PASS. Altitude: 2301m"
  },
  "alperschonjoch-384": {
    "name": "Alperschonjoch",
    "slug": "alperschonjoch-384",
    "category": "MOUNTAIN_PASS",
    "region": "Alps",
    "country": "",
    "lat": 47.17966,
    "lng": 10.385495,
    "nearest_airport": "",
    "description": "Verified Location."
  },
  "alpkreuz": {
    "name": "Alpkreuz",
    "slug": "alpkreuz",
    "category": "SCENIC_POINT",
    "region": "Alps",
    "country": "Europe",
    "lat": 47.3665975,
    "lng": 10.210846,
    "nearest_airport": "INN",
    "description": "Auto-imported SCENIC_POINT. Altitude: N/Am"
  },
  "alpl": {
    "name": "Alpl",
    "slug": "alpl",
    "category": "MOUNTAIN_PASS",
    "region": "Alps",
    "country": "Europe",
    "lat": 47.5006315,
    "lng": 15.6453052,
    "nearest_airport": "VIE",
    "description": "Auto-imported MOUNTAIN_PASS. Altitude: 1091m"
  },
  "alpl-1922": {
    "name": "Alpl",
    "slug": "alpl-1922",
    "category": "MOUNTAIN_PASS",
    "region": "Alps",
    "country": "",
    "lat": 47.5006315,
    "lng": 15.6453052,
    "nearest_airport": "",
    "description": "Verified Location."
  },
  "alpleck": {
    "name": "Alpleck",
    "slug": "alpleck",
    "category": "MOUNTAIN_PASS",
    "region": "Alps",
    "country": "Europe",
    "lat": 47.7411559,
    "lng": 15.8592619,
    "nearest_airport": "VIE",
    "description": "Auto-imported MOUNTAIN_PASS. Altitude: 1270m"
  },
  "alpreider-bichl": {
    "name": "Alpreider Bichl",
    "slug": "alpreider-bichl",
    "category": "SCENIC_POINT",
    "region": "Alps",
    "country": "Europe",
    "lat": 46.600452,
    "lng": 11.1027333,
    "nearest_airport": "INN",
    "description": "Auto-imported SCENIC_POINT. Altitude: N/Am"
  },
  "alpschelengrat": {
    "name": "Alpschelengrat",
    "slug": "alpschelengrat",
    "category": "MOUNTAIN_PASS",
    "region": "Alps",
    "country": "Europe",
    "lat": 46.4859864,
    "lng": 7.6333584,
    "nearest_airport": "GVA",
    "description": "Auto-imported MOUNTAIN_PASS. Altitude: N/Am"
  },
  "alpschelenhubel": {
    "name": "Alpschelenhubel",
    "slug": "alpschelenhubel",
    "category": "SCENIC_POINT",
    "region": "Alps",
    "country": "Europe",
    "lat": 46.4868274,
    "lng": 7.6448824,
    "nearest_airport": "GVA",
    "description": "Auto-imported SCENIC_POINT. Altitude: N/Am"
  },
  "alpseeblick": {
    "name": "Alpseeblick",
    "slug": "alpseeblick",
    "category": "SCENIC_POINT",
    "region": "Alps",
    "country": "Europe",
    "lat": 47.5807144,
    "lng": 10.1437029,
    "nearest_airport": "INN",
    "description": "Auto-imported SCENIC_POINT. Altitude: N/Am"
  },
  "alpspitz": {
    "name": "Alpspitz",
    "slug": "alpspitz",
    "category": "SCENIC_POINT",
    "region": "Alps",
    "country": "Europe",
    "lat": 47.59785,
    "lng": 10.49605,
    "nearest_airport": "INN",
    "description": "Auto-imported SCENIC_POINT. Altitude: 1575m"
  },
  "alpspitz-2204": {
    "name": "Alpspitz",
    "slug": "alpspitz-2204",
    "category": "SCENIC_POINT",
    "region": "Alps",
    "country": "",
    "lat": 47.59785,
    "lng": 10.49605,
    "nearest_airport": "",
    "description": "Verified Location."
  },
  "alpspix": {
    "name": "AlpspiX",
    "slug": "alpspix",
    "category": "SCENIC_POINT",
    "region": "Alps",
    "country": "Europe",
    "lat": 47.4394615,
    "lng": 11.0501753,
    "nearest_airport": "INN",
    "description": "Auto-imported SCENIC_POINT. Altitude: N/Am"
  },
  "alpwegkopf": {
    "name": "Alpwegkopf",
    "slug": "alpwegkopf",
    "category": "SCENIC_POINT",
    "region": "Alps",
    "country": "Europe",
    "lat": 47.273772,
    "lng": 9.71562,
    "nearest_airport": "ZRH",
    "description": "Auto-imported SCENIC_POINT. Altitude: 1437m"
  },
  "alta-valsassina": {
    "name": "Alta Valsassina",
    "slug": "alta-valsassina",
    "category": "SCENIC_POINT",
    "region": "Alps",
    "country": "Europe",
    "lat": 46.0469956,
    "lng": 9.3764571,
    "nearest_airport": "MXP",
    "description": "Auto-imported SCENIC_POINT. Altitude: N/Am"
  },
  "alte-bettlerkuche": {
    "name": "Alte Bettlerküche",
    "slug": "alte-bettlerkuche",
    "category": "MOUNTAIN_PASS",
    "region": "Alps",
    "country": "Europe",
    "lat": 47.2749128,
    "lng": 7.6015353,
    "nearest_airport": "ZRH",
    "description": "Auto-imported MOUNTAIN_PASS. Altitude: 1090m"
  },
  "alte-gemmi": {
    "name": "Alte Gemmi",
    "slug": "alte-gemmi",
    "category": "MOUNTAIN_PASS",
    "region": "Alps",
    "country": "Europe",
    "lat": 46.4049399,
    "lng": 7.6437494,
    "nearest_airport": "GVA",
    "description": "Auto-imported MOUNTAIN_PASS. Altitude: 2724m"
  },
  "alte-gemmi-2815": {
    "name": "Alte Gemmi",
    "slug": "alte-gemmi-2815",
    "category": "MOUNTAIN_PASS",
    "region": "Alps",
    "country": "",
    "lat": 46.4049399,
    "lng": 7.6437494,
    "nearest_airport": "",
    "description": "Verified Location."
  },
  "alte-schutte": {
    "name": "Alte Schutte",
    "slug": "alte-schutte",
    "category": "SCENIC_POINT",
    "region": "Alps",
    "country": "Europe",
    "lat": 47.9335486,
    "lng": 7.6887453,
    "nearest_airport": "ZRH",
    "description": "Auto-imported SCENIC_POINT. Altitude: N/Am"
  },
  "alte-wasserreserve": {
    "name": "Alte Wasserreserve",
    "slug": "alte-wasserreserve",
    "category": "SCENIC_POINT",
    "region": "Alps",
    "country": "Europe",
    "lat": 47.7372967,
    "lng": 10.6953536,
    "nearest_airport": "INN",
    "description": "Auto-imported SCENIC_POINT. Altitude: N/Am"
  },
  "alteiner-furggli": {
    "name": "Alteiner Fürggli",
    "slug": "alteiner-furggli",
    "category": "MOUNTAIN_PASS",
    "region": "Alps",
    "country": "Europe",
    "lat": 46.7481798,
    "lng": 9.7148394,
    "nearest_airport": "ZRH",
    "description": "Auto-imported MOUNTAIN_PASS. Altitude: 2491m"
  },
  "alteiner-furggli-3130": {
    "name": "Alteiner Fürggli",
    "slug": "alteiner-furggli-3130",
    "category": "MOUNTAIN_PASS",
    "region": "Alps",
    "country": "",
    "lat": 46.7481798,
    "lng": 9.7148394,
    "nearest_airport": "",
    "description": "Verified Location."
  },
  "alter-gaichtpass": {
    "name": "Alter Gaichtpass",
    "slug": "alter-gaichtpass",
    "category": "MOUNTAIN_PASS",
    "region": "Alps",
    "country": "Europe",
    "lat": 47.461365,
    "lng": 10.618576,
    "nearest_airport": "INN",
    "description": "Auto-imported MOUNTAIN_PASS. Altitude: 1123m"
  },
  "alter-mann": {
    "name": "Alter Mann",
    "slug": "alter-mann",
    "category": "SCENIC_POINT",
    "region": "Alps",
    "country": "Europe",
    "lat": 47.788788,
    "lng": 7.6757259,
    "nearest_airport": "ZRH",
    "description": "Auto-imported SCENIC_POINT. Altitude: N/Am"
  },
  "alter-wachturm": {
    "name": "Alter Wachturm",
    "slug": "alter-wachturm",
    "category": "SCENIC_POINT",
    "region": "Alps",
    "country": "Europe",
    "lat": 47.1121928,
    "lng": 15.4009723,
    "nearest_airport": "VIE",
    "description": "Auto-imported SCENIC_POINT. Altitude: N/Am"
  },
  "altes-kirchlein-witikon": {
    "name": "altes Kirchlein Witikon",
    "slug": "altes-kirchlein-witikon",
    "category": "SCENIC_POINT",
    "region": "Alps",
    "country": "Europe",
    "lat": 47.357441,
    "lng": 8.5945044,
    "nearest_airport": "ZRH",
    "description": "Auto-imported SCENIC_POINT. Altitude: N/Am"
  },
  "altjoch": {
    "name": "Altjoch",
    "slug": "altjoch",
    "category": "MOUNTAIN_PASS",
    "region": "Alps",
    "country": "Europe",
    "lat": 47.4834304,
    "lng": 11.5048776,
    "nearest_airport": "INN",
    "description": "Auto-imported MOUNTAIN_PASS. Altitude: 1871m"
  },
  "altmannsattel": {
    "name": "Altmannsattel",
    "slug": "altmannsattel",
    "category": "MOUNTAIN_PASS",
    "region": "Alps",
    "country": "Europe",
    "lat": 47.2401642,
    "lng": 9.3702396,
    "nearest_airport": "ZRH",
    "description": "Auto-imported MOUNTAIN_PASS. Altitude: 2368m"
  },
  "altmannsattel-1398": {
    "name": "Altmannsattel",
    "slug": "altmannsattel-1398",
    "category": "MOUNTAIN_PASS",
    "region": "Alps",
    "country": "",
    "lat": 47.2401642,
    "lng": 9.3702396,
    "nearest_airport": "",
    "description": "Verified Location."
  },
  "alto-di-quarazzana": {
    "name": "Alto di Quarazzana",
    "slug": "alto-di-quarazzana",
    "category": "MOUNTAIN_PASS",
    "region": "Alps",
    "country": "Europe",
    "lat": 44.2617799,
    "lng": 10.1023455,
    "nearest_airport": "MXP",
    "description": "Auto-imported MOUNTAIN_PASS. Altitude: 647m"
  },
  "alto-garda-vallagarina": {
    "name": "Alto Garda - Vallagarina",
    "slug": "alto-garda-vallagarina",
    "category": "SCENIC_POINT",
    "region": "Alps",
    "country": "Europe",
    "lat": 45.8126289,
    "lng": 10.8906743,
    "nearest_airport": "VCE",
    "description": "Auto-imported SCENIC_POINT. Altitude: N/Am"
  },
  "altopiano-della-gradina": {
    "name": "Altopiano della Gradina",
    "slug": "altopiano-della-gradina",
    "category": "SCENIC_POINT",
    "region": "Alps",
    "country": "Europe",
    "lat": 43.5485569,
    "lng": 13.5750376,
    "nearest_airport": "VCE",
    "description": "Auto-imported SCENIC_POINT. Altitude: N/Am"
  },
  "altvogelbach-fels": {
    "name": "Altvogelbach-Fels",
    "slug": "altvogelbach-fels",
    "category": "SCENIC_POINT",
    "region": "Alps",
    "country": "Europe",
    "lat": 47.7862041,
    "lng": 7.6977496,
    "nearest_airport": "ZRH",
    "description": "Auto-imported SCENIC_POINT. Altitude: 850m"
  }
}