{
  "au-chanais": {
    "name": "Au Chanais",
    "slug": "au-chanais",
    "category": "SCENIC_POINT",
    "region": "Alps",
    "country": "Europe",
    "lat": 46.3480485,
    "lng": 5.6478949,
    "nearest_airport": "GVA",
    "description": "Auto-imported SCENIC_POINT. Altitude: N/Am"
  },
  "au-dessus-de-leau": {
    "name": "Au dessus de l'eau",
    "slug": "au-dessus-de-leau",
    "category": "SCENIC_POINT",
    "region": "Alps",
    "country": "Europe",
    "lat": 46.2034422,
    "lng": 6.1314926,
    "nearest_airport": "GVA",
    "description": "Auto-imported SCENIC_POINT. Altitude: N/Am"
  },
  "aubachfall": {
    "name": "Aubachfall",
    "slug": "aubachfall",
    "category": "SCENIC_POINT",
    "region": "Alps",
    "country": "Europe",
    "lat": 47.5979538,
    "lng": 13.2978135,
    "nearest_airport": "SZG",
    "description": "Auto-imported SCENIC_POINT. Altitude: N/Am"
  },
  "auberg": {
    "name": "Auberg",
    "slug": "auberg",
    "category": "SCENIC_POINT",
    "region": "Alps",
    "country": "Europe",
    "lat": 47.7860821,
    "lng": 13.5005343,
    "nearest_airport": "SZG",
    "description": "Auto-imported SCENIC_POINT. Altitude: N/Am"
  },
  "aubichlaussicht": {
    "name": "Aubichlaussicht",
    "slug": "aubichlaussicht",
    "category": "SCENIC_POINT",
    "region": "Alps",
    "country": "Europe",
    "lat": 47.6840167,
    "lng": 11.003442,
    "nearest_airport": "INN",
    "description": "Auto-imported SCENIC_POINT. Altitude: 861m"
  },
  "auenfeldsattel": {
    "name": "Auenfeldsattel",
    "slug": "auenfeldsattel",
    "category": "MOUNTAIN_PASS",
    "region": "Alps",
    "country": "Europe",
    "lat": 47.2393479,
    "lng": 10.1368044,
    "nearest_airport": "INN",
    "description": "Auto-imported MOUNTAIN_PASS. Altitude: 1710m"
  },
  "auerhahnwandlblick": {
    "name": "Auerhahnwandlblick",
    "slug": "auerhahnwandlblick",
    "category": "SCENIC_POINT",
    "region": "Alps",
    "country": "Europe",
    "lat": 47.7461913,
    "lng": 12.4010027,
    "nearest_airport": "SZG",
    "description": "Auto-imported SCENIC_POINT. Altitude: N/Am"
  },
  "auf-dem-buhl": {
    "name": "auf dem Bühl",
    "slug": "auf-dem-buhl",
    "category": "SCENIC_POINT",
    "region": "Alps",
    "country": "Europe",
    "lat": 46.6585116,
    "lng": 7.7259878,
    "nearest_airport": "ZRH",
    "description": "Auto-imported SCENIC_POINT. Altitude: N/Am"
  },
  "auf-dem-gelenk": {
    "name": "Auf dem Gelenk",
    "slug": "auf-dem-gelenk",
    "category": "SCENIC_POINT",
    "region": "Alps",
    "country": "Europe",
    "lat": 46.4922533,
    "lng": 10.6794632,
    "nearest_airport": "INN",
    "description": "Auto-imported SCENIC_POINT. Altitude: 2450m"
  },
  "auf-dem-homberg": {
    "name": "Auf dem Homberg",
    "slug": "auf-dem-homberg",
    "category": "SCENIC_POINT",
    "region": "Alps",
    "country": "Europe",
    "lat": 47.8652706,
    "lng": 8.6756533,
    "nearest_airport": "ZRH",
    "description": "Auto-imported SCENIC_POINT. Altitude: N/Am"
  },
  "auf-der-nassleithe": {
    "name": "Auf der Naßleithe",
    "slug": "auf-der-nassleithe",
    "category": "SCENIC_POINT",
    "region": "Alps",
    "country": "Europe",
    "lat": 47.7350287,
    "lng": 10.6948464,
    "nearest_airport": "INN",
    "description": "Auto-imported SCENIC_POINT. Altitude: N/Am"
  },
  "auf-der-platte": {
    "name": "Auf der Platte",
    "slug": "auf-der-platte",
    "category": "SCENIC_POINT",
    "region": "Alps",
    "country": "Europe",
    "lat": 47.2577201,
    "lng": 12.4635238,
    "nearest_airport": "SZG",
    "description": "Auto-imported SCENIC_POINT. Altitude: 1788m"
  },
  "aufm-knobel": {
    "name": "Aufm Knöbel",
    "slug": "aufm-knobel",
    "category": "SCENIC_POINT",
    "region": "Alps",
    "country": "Europe",
    "lat": 47.8328327,
    "lng": 10.786553,
    "nearest_airport": "INN",
    "description": "Auto-imported SCENIC_POINT. Altitude: 866.98m"
  },
  "augenblicke": {
    "name": "Augenblicke",
    "slug": "augenblicke",
    "category": "SCENIC_POINT",
    "region": "Alps",
    "country": "Europe",
    "lat": 47.4747134,
    "lng": 10.6471501,
    "nearest_airport": "INN",
    "description": "Auto-imported SCENIC_POINT. Altitude: N/Am"
  },
  "augstbordpass": {
    "name": "Augstbordpass",
    "slug": "augstbordpass",
    "category": "MOUNTAIN_PASS",
    "region": "Alps",
    "country": "Europe",
    "lat": 46.208754,
    "lng": 7.7531945,
    "nearest_airport": "MXP",
    "description": "Auto-imported MOUNTAIN_PASS. Altitude: 2893m"
  },
  "augstbordpass-1763": {
    "name": "Augstbordpass",
    "slug": "augstbordpass-1763",
    "category": "MOUNTAIN_PASS",
    "region": "Alps",
    "country": "",
    "lat": 46.208754,
    "lng": 7.7531945,
    "nearest_airport": "",
    "description": "Verified Location."
  },
  "auhofalm-sattel": {
    "name": "Auhofalm-Sattel",
    "slug": "auhofalm-sattel",
    "category": "MOUNTAIN_PASS",
    "region": "Alps",
    "country": "Europe",
    "lat": 47.2911199,
    "lng": 13.2622276,
    "nearest_airport": "SZG",
    "description": "Auto-imported MOUNTAIN_PASS. Altitude: 1695m"
  },
  "aulemer-kreuz": {
    "name": "Äulemer Kreuz",
    "slug": "aulemer-kreuz",
    "category": "MOUNTAIN_PASS",
    "region": "Alps",
    "country": "Europe",
    "lat": 47.8270731,
    "lng": 8.0877916,
    "nearest_airport": "ZRH",
    "description": "Auto-imported MOUNTAIN_PASS. Altitude: 1138m"
  },
  "aulemer-kreuz-3189": {
    "name": "Äulemer Kreuz",
    "slug": "aulemer-kreuz-3189",
    "category": "MOUNTAIN_PASS",
    "region": "Alps",
    "country": "",
    "lat": 47.8270731,
    "lng": 8.0877916,
    "nearest_airport": "",
    "description": "Verified Location."
  },
  "aunberg-gemeinschaft": {
    "name": "Aunberg-Gemeinschaft",
    "slug": "aunberg-gemeinschaft",
    "category": "SCENIC_POINT",
    "region": "Alps",
    "country": "Europe",
    "lat": 46.8035958,
    "lng": 15.9490684,
    "nearest_airport": "VIE",
    "description": "Auto-imported SCENIC_POINT. Altitude: N/Am"
  },
  "aurachkar-rast": {
    "name": "Aurachkar Rast",
    "slug": "aurachkar-rast",
    "category": "SCENIC_POINT",
    "region": "Alps",
    "country": "Europe",
    "lat": 47.8313456,
    "lng": 13.5905006,
    "nearest_airport": "SZG",
    "description": "Auto-imported SCENIC_POINT. Altitude: N/Am"
  },
  "ausblick": {
    "name": "Ausblick",
    "slug": "ausblick",
    "category": "SCENIC_POINT",
    "region": "Alps",
    "country": "Europe",
    "lat": 47.2684301,
    "lng": 11.8444641,
    "nearest_airport": "INN",
    "description": "Auto-imported SCENIC_POINT. Altitude: N/Am"
  },
  "ausblick-auf-den-uhrturm": {
    "name": "Ausblick auf den Uhrturm",
    "slug": "ausblick-auf-den-uhrturm",
    "category": "SCENIC_POINT",
    "region": "Alps",
    "country": "Europe",
    "lat": 47.0852223,
    "lng": 15.446606,
    "nearest_airport": "VIE",
    "description": "Auto-imported SCENIC_POINT. Altitude: N/Am"
  },
  "ausblick-auf-hochkonig": {
    "name": "Ausblick auf Hochkönig",
    "slug": "ausblick-auf-hochkonig",
    "category": "SCENIC_POINT",
    "region": "Alps",
    "country": "Europe",
    "lat": 47.3914919,
    "lng": 12.8910568,
    "nearest_airport": "SZG",
    "description": "Auto-imported SCENIC_POINT. Altitude: N/Am"
  },
  "ausblick-bachmannkapelle": {
    "name": "Ausblick Bachmannkapelle",
    "slug": "ausblick-bachmannkapelle",
    "category": "SCENIC_POINT",
    "region": "Alps",
    "country": "Europe",
    "lat": 47.6177234,
    "lng": 12.9494126,
    "nearest_airport": "SZG",
    "description": "Auto-imported SCENIC_POINT. Altitude: N/Am"
  },
  "ausblick-granier-wasserfall": {
    "name": "Ausblick Granier Wasserfall",
    "slug": "ausblick-granier-wasserfall",
    "category": "SCENIC_POINT",
    "region": "Alps",
    "country": "Europe",
    "lat": 47.2133105,
    "lng": 13.6584293,
    "nearest_airport": "SZG",
    "description": "Auto-imported SCENIC_POINT. Altitude: N/Am"
  },
  "ausblick-leonhardstein": {
    "name": "Ausblick Leonhardstein",
    "slug": "ausblick-leonhardstein",
    "category": "SCENIC_POINT",
    "region": "Alps",
    "country": "Europe",
    "lat": 47.640282,
    "lng": 11.7009399,
    "nearest_airport": "INN",
    "description": "Auto-imported SCENIC_POINT. Altitude: N/Am"
  },
  "ausblick-richtung-oichtental-und-michaelbeuern": {
    "name": "Ausblick Richtung Oichtental und Michaelbeuern",
    "slug": "ausblick-richtung-oichtental-und-michaelbeuern",
    "category": "SCENIC_POINT",
    "region": "Alps",
    "country": "Europe",
    "lat": 47.9932868,
    "lng": 13.0336475,
    "nearest_airport": "SZG",
    "description": "Auto-imported SCENIC_POINT. Altitude: N/Am"
  },
  "ausblick-vom-zosenberg-2": {
    "name": "Ausblick vom Zösenberg 2",
    "slug": "ausblick-vom-zosenberg-2",
    "category": "SCENIC_POINT",
    "region": "Alps",
    "country": "Europe",
    "lat": 47.1358983,
    "lng": 15.4500256,
    "nearest_airport": "VIE",
    "description": "Auto-imported SCENIC_POINT. Altitude: N/Am"
  },
  "ausblick-zum-mondsee": {
    "name": "Ausblick zum Mondsee",
    "slug": "ausblick-zum-mondsee",
    "category": "SCENIC_POINT",
    "region": "Alps",
    "country": "Europe",
    "lat": 47.8000063,
    "lng": 13.3534667,
    "nearest_airport": "SZG",
    "description": "Auto-imported SCENIC_POINT. Altitude: N/Am"
  },
  "ausblick-zur-felsenhutte": {
    "name": "Ausblick zur Felsenhütte",
    "slug": "ausblick-zur-felsenhutte",
    "category": "SCENIC_POINT",
    "region": "Alps",
    "country": "Europe",
    "lat": 47.6737241,
    "lng": 7.9332274,
    "nearest_airport": "ZRH",
    "description": "Auto-imported SCENIC_POINT. Altitude: N/Am"
  },
  "ausicht-stuibenfall": {
    "name": "Ausicht Stuibenfall",
    "slug": "ausicht-stuibenfall",
    "category": "SCENIC_POINT",
    "region": "Alps",
    "country": "Europe",
    "lat": 47.123455,
    "lng": 10.9479598,
    "nearest_airport": "INN",
    "description": "Auto-imported SCENIC_POINT. Altitude: N/Am"
  },
  "ausichtspunkt-eschacher-weiher-und-voralpen": {
    "name": "Ausichtspunkt Eschacher Weiher und Voralpen",
    "slug": "ausichtspunkt-eschacher-weiher-und-voralpen",
    "category": "SCENIC_POINT",
    "region": "Alps",
    "country": "Europe",
    "lat": 47.7000869,
    "lng": 10.1899463,
    "nearest_airport": "INN",
    "description": "Auto-imported SCENIC_POINT. Altitude: N/Am"
  },
  "ausichtspunkt-schulhausplatz": {
    "name": "Ausichtspunkt Schulhausplatz",
    "slug": "ausichtspunkt-schulhausplatz",
    "category": "SCENIC_POINT",
    "region": "Alps",
    "country": "Europe",
    "lat": 47.2357656,
    "lng": 8.1815823,
    "nearest_airport": "ZRH",
    "description": "Auto-imported SCENIC_POINT. Altitude: N/Am"
  },
  "aussere-gelenkscharte": {
    "name": "Außere Gelenkscharte",
    "slug": "aussere-gelenkscharte",
    "category": "MOUNTAIN_PASS",
    "region": "Alps",
    "country": "Europe",
    "lat": 46.9762548,
    "lng": 11.8427371,
    "nearest_airport": "INN",
    "description": "Auto-imported MOUNTAIN_PASS. Altitude: 2714m"
  },
  "aussere-gelenkscharte-2431": {
    "name": "Außere Gelenkscharte",
    "slug": "aussere-gelenkscharte-2431",
    "category": "MOUNTAIN_PASS",
    "region": "Alps",
    "country": "",
    "lat": 46.9762548,
    "lng": 11.8427371,
    "nearest_airport": "",
    "description": "Verified Location."
  },
  "aussicht": {
    "name": "Aussicht",
    "slug": "aussicht",
    "category": "SCENIC_POINT",
    "region": "Alps",
    "country": "Europe",
    "lat": 47.7335579,
    "lng": 16.0147203,
    "nearest_airport": "VIE",
    "description": "Auto-imported SCENIC_POINT. Altitude: N/Am"
  },
  "aussicht-am-gatterl": {
    "name": "Aussicht am Gatterl",
    "slug": "aussicht-am-gatterl",
    "category": "SCENIC_POINT",
    "region": "Alps",
    "country": "Europe",
    "lat": 47.289491,
    "lng": 11.3053216,
    "nearest_airport": "INN",
    "description": "Auto-imported SCENIC_POINT. Altitude: N/Am"
  },
  "aussicht-am-vogelstein": {
    "name": "Aussicht am Vogelstein",
    "slug": "aussicht-am-vogelstein",
    "category": "SCENIC_POINT",
    "region": "Alps",
    "country": "Europe",
    "lat": 47.5801885,
    "lng": 13.0242026,
    "nearest_airport": "SZG",
    "description": "Auto-imported SCENIC_POINT. Altitude: N/Am"
  },
  "aussicht-auf-berner-alpen": {
    "name": "Aussicht auf Berner Alpen",
    "slug": "aussicht-auf-berner-alpen",
    "category": "SCENIC_POINT",
    "region": "Alps",
    "country": "Europe",
    "lat": 46.8134926,
    "lng": 7.4781282,
    "nearest_airport": "ZRH",
    "description": "Auto-imported SCENIC_POINT. Altitude: N/Am"
  },
  "aussicht-auf-berner-oberland": {
    "name": "Aussicht auf Berner Oberland",
    "slug": "aussicht-auf-berner-oberland",
    "category": "SCENIC_POINT",
    "region": "Alps",
    "country": "Europe",
    "lat": 46.8226119,
    "lng": 7.4488798,
    "nearest_airport": "ZRH",
    "description": "Auto-imported SCENIC_POINT. Altitude: N/Am"
  },
  "aussicht-auf-den-kalterer-see-vista-sul-lago-di-caldaro": {
    "name": "Aussicht auf den Kalterer See - Vista sul Lago di Caldaro",
    "slug": "aussicht-auf-den-kalterer-see-vista-sul-lago-di-caldaro",
    "category": "SCENIC_POINT",
    "region": "Alps",
    "country": "Europe",
    "lat": 46.3816979,
    "lng": 11.2420148,
    "nearest_airport": "INN",
    "description": "Auto-imported SCENIC_POINT. Altitude: N/Am"
  },
  "aussicht-auf-grundlsee": {
    "name": "Aussicht auf Grundlsee",
    "slug": "aussicht-auf-grundlsee",
    "category": "SCENIC_POINT",
    "region": "Alps",
    "country": "Europe",
    "lat": 47.6410375,
    "lng": 13.8210146,
    "nearest_airport": "SZG",
    "description": "Auto-imported SCENIC_POINT. Altitude: N/Am"
  },
  "aussicht-auf-watzmann-und-berchtesgaden": {
    "name": "Aussicht auf Watzmann und Berchtesgaden",
    "slug": "aussicht-auf-watzmann-und-berchtesgaden",
    "category": "SCENIC_POINT",
    "region": "Alps",
    "country": "Europe",
    "lat": 47.6211151,
    "lng": 13.0191469,
    "nearest_airport": "SZG",
    "description": "Auto-imported SCENIC_POINT. Altitude: N/Am"
  },
  "aussicht-aufs-seetal": {
    "name": "Aussicht aufs Seetal",
    "slug": "aussicht-aufs-seetal",
    "category": "SCENIC_POINT",
    "region": "Alps",
    "country": "Europe",
    "lat": 47.296364,
    "lng": 8.1855149,
    "nearest_airport": "ZRH",
    "description": "Auto-imported SCENIC_POINT. Altitude: N/Am"
  },
  "aussicht-dachserfall": {
    "name": "Aussicht Dachserfall",
    "slug": "aussicht-dachserfall",
    "category": "SCENIC_POINT",
    "region": "Alps",
    "country": "Europe",
    "lat": 47.5441399,
    "lng": 13.3315968,
    "nearest_airport": "SZG",
    "description": "Auto-imported SCENIC_POINT. Altitude: N/Am"
  },
  "aussicht-ifenblick": {
    "name": "Aussicht Ifenblick",
    "slug": "aussicht-ifenblick",
    "category": "SCENIC_POINT",
    "region": "Alps",
    "country": "Europe",
    "lat": 47.5148835,
    "lng": 10.3907391,
    "nearest_airport": "INN",
    "description": "Auto-imported SCENIC_POINT. Altitude: 1220m"
  },
  "aussicht-kanzel": {
    "name": "Aussicht Kanzel",
    "slug": "aussicht-kanzel",
    "category": "SCENIC_POINT",
    "region": "Alps",
    "country": "Europe",
    "lat": 47.380193,
    "lng": 10.2524125,
    "nearest_airport": "INN",
    "description": "Auto-imported SCENIC_POINT. Altitude: N/Am"
  },
  "aussicht-kopfle": {
    "name": "Aussicht Köpfle",
    "slug": "aussicht-kopfle",
    "category": "SCENIC_POINT",
    "region": "Alps",
    "country": "Europe",
    "lat": 47.4767474,
    "lng": 10.4199074,
    "nearest_airport": "INN",
    "description": "Auto-imported SCENIC_POINT. Altitude: 1089m"
  },
  "aussicht-mit-2-banklein": {
    "name": "Aussicht mit 2 Bänklein",
    "slug": "aussicht-mit-2-banklein",
    "category": "SCENIC_POINT",
    "region": "Alps",
    "country": "Europe",
    "lat": 47.1934563,
    "lng": 8.3173267,
    "nearest_airport": "ZRH",
    "description": "Auto-imported SCENIC_POINT. Altitude: N/Am"
  },
  "aussicht-ohne-grund": {
    "name": "Aussicht ohne Grund",
    "slug": "aussicht-ohne-grund",
    "category": "SCENIC_POINT",
    "region": "Alps",
    "country": "Europe",
    "lat": 47.5488424,
    "lng": 10.5700182,
    "nearest_airport": "INN",
    "description": "Auto-imported SCENIC_POINT. Altitude: N/Am"
  },
  "aussicht-schafreuter": {
    "name": "Aussicht Schafreuter",
    "slug": "aussicht-schafreuter",
    "category": "SCENIC_POINT",
    "region": "Alps",
    "country": "Europe",
    "lat": 47.5090221,
    "lng": 11.4876422,
    "nearest_airport": "INN",
    "description": "Auto-imported SCENIC_POINT. Altitude: N/Am"
  },
  "aussicht-sud": {
    "name": "Aussicht Süd",
    "slug": "aussicht-sud",
    "category": "SCENIC_POINT",
    "region": "Alps",
    "country": "Europe",
    "lat": 46.6298434,
    "lng": 14.2186718,
    "nearest_airport": "SZG",
    "description": "Auto-imported SCENIC_POINT. Altitude: N/Am"
  },
  "aussicht-uber-das-reschental": {
    "name": "Aussicht über das reschental",
    "slug": "aussicht-uber-das-reschental",
    "category": "SCENIC_POINT",
    "region": "Alps",
    "country": "Europe",
    "lat": 46.8632792,
    "lng": 10.4925642,
    "nearest_airport": "INN",
    "description": "Auto-imported SCENIC_POINT. Altitude: N/Am"
  },
  "aussicht-vom-kollischberg": {
    "name": "Aussicht vom Kollischberg",
    "slug": "aussicht-vom-kollischberg",
    "category": "SCENIC_POINT",
    "region": "Alps",
    "country": "Europe",
    "lat": 46.9056879,
    "lng": 15.5004865,
    "nearest_airport": "VIE",
    "description": "Auto-imported SCENIC_POINT. Altitude: N/Am"
  },
  "aussicht-vom-zosenberg-2": {
    "name": "Aussicht vom Zösenberg 2",
    "slug": "aussicht-vom-zosenberg-2",
    "category": "SCENIC_POINT",
    "region": "Alps",
    "country": "Europe",
    "lat": 47.1369439,
    "lng": 15.4504107,
    "nearest_airport": "VIE",
    "description": "Auto-imported SCENIC_POINT. Altitude: N/Am"
  },
  "aussicht-von-der-chaltenegg": {
    "name": "Aussicht von der Chaltenegg",
    "slug": "aussicht-von-der-chaltenegg",
    "category": "SCENIC_POINT",
    "region": "Alps",
    "country": "Europe",
    "lat": 47.0990745,
    "lng": 7.8048327,
    "nearest_airport": "ZRH",
    "description": "Auto-imported SCENIC_POINT. Altitude: N/Am"
  },
  "aussicht-west": {
    "name": "Aussicht West",
    "slug": "aussicht-west",
    "category": "SCENIC_POINT",
    "region": "Alps",
    "country": "Europe",
    "lat": 46.6319182,
    "lng": 14.1812344,
    "nearest_airport": "SZG",
    "description": "Auto-imported SCENIC_POINT. Altitude: N/Am"
  },
  "aussicht-wohrerkopfl": {
    "name": "Aussicht Wöhrerköpfl",
    "slug": "aussicht-wohrerkopfl",
    "category": "SCENIC_POINT",
    "region": "Alps",
    "country": "Europe",
    "lat": 47.5597376,
    "lng": 12.1484541,
    "nearest_airport": "INN",
    "description": "Auto-imported SCENIC_POINT. Altitude: 766m"
  },
  "aussichtfloss": {
    "name": "Aussichtfloss",
    "slug": "aussichtfloss",
    "category": "SCENIC_POINT",
    "region": "Alps",
    "country": "Europe",
    "lat": 47.7096547,
    "lng": 10.8086315,
    "nearest_airport": "INN",
    "description": "Auto-imported SCENIC_POINT. Altitude: N/Am"
  },
  "aussichtshutte-anreit": {
    "name": "Aussichtshütte Anreit",
    "slug": "aussichtshutte-anreit",
    "category": "SCENIC_POINT",
    "region": "Alps",
    "country": "Europe",
    "lat": 47.1597882,
    "lng": 10.5951941,
    "nearest_airport": "INN",
    "description": "Auto-imported SCENIC_POINT. Altitude: N/Am"
  },
  "aussichtskanzel": {
    "name": "Aussichtskanzel",
    "slug": "aussichtskanzel",
    "category": "SCENIC_POINT",
    "region": "Alps",
    "country": "Europe",
    "lat": 47.7126552,
    "lng": 12.8981581,
    "nearest_airport": "SZG",
    "description": "Auto-imported SCENIC_POINT. Altitude: 760m"
  },
  "aussichtskanzel-grossbachfall": {
    "name": "Aussichtskanzel Großbachfall",
    "slug": "aussichtskanzel-grossbachfall",
    "category": "SCENIC_POINT",
    "region": "Alps",
    "country": "Europe",
    "lat": 47.0091371,
    "lng": 12.298362,
    "nearest_airport": "INN",
    "description": "Auto-imported SCENIC_POINT. Altitude: N/Am"
  },
  "aussichtskanzel-pulpito-prospettico": {
    "name": "Aussichtskanzel - Pulpito prospettico",
    "slug": "aussichtskanzel-pulpito-prospettico",
    "category": "SCENIC_POINT",
    "region": "Alps",
    "country": "Europe",
    "lat": 46.4816804,
    "lng": 10.6819937,
    "nearest_airport": "INN",
    "description": "Auto-imported SCENIC_POINT. Altitude: N/Am"
  },
  "aussichtskanzel-zur-vogelbeobachtung": {
    "name": "Aussichtskanzel zur Vogelbeobachtung",
    "slug": "aussichtskanzel-zur-vogelbeobachtung",
    "category": "SCENIC_POINT",
    "region": "Alps",
    "country": "Europe",
    "lat": 47.6084901,
    "lng": 11.0501236,
    "nearest_airport": "INN",
    "description": "Auto-imported SCENIC_POINT. Altitude: N/Am"
  },
  "aussichtspanorama-am-hopfenpfad": {
    "name": "Aussichtspanorama am Hopfenpfad",
    "slug": "aussichtspanorama-am-hopfenpfad",
    "category": "SCENIC_POINT",
    "region": "Alps",
    "country": "Europe",
    "lat": 47.6865625,
    "lng": 9.6068178,
    "nearest_airport": "ZRH",
    "description": "Auto-imported SCENIC_POINT. Altitude: N/Am"
  },
  "aussichtspilz-rieden": {
    "name": "Aussichtspilz Rieden",
    "slug": "aussichtspilz-rieden",
    "category": "SCENIC_POINT",
    "region": "Alps",
    "country": "Europe",
    "lat": 47.6195533,
    "lng": 10.7079242,
    "nearest_airport": "INN",
    "description": "Auto-imported SCENIC_POINT. Altitude: N/Am"
  },
  "aussichtspkt-unterhalb-vogelhornle": {
    "name": "Aussichtspkt. unterhalb Vogelhörnle",
    "slug": "aussichtspkt-unterhalb-vogelhornle",
    "category": "SCENIC_POINT",
    "region": "Alps",
    "country": "Europe",
    "lat": 47.4810636,
    "lng": 10.5435523,
    "nearest_airport": "INN",
    "description": "Auto-imported SCENIC_POINT. Altitude: N/Am"
  },
  "aussichtsplateau": {
    "name": "Aussichtsplateau",
    "slug": "aussichtsplateau",
    "category": "SCENIC_POINT",
    "region": "Alps",
    "country": "Europe",
    "lat": 46.5931267,
    "lng": 13.7121393,
    "nearest_airport": "SZG",
    "description": "Auto-imported SCENIC_POINT. Altitude: 1732m"
  },
  "aussichtsplateau-wasserfall": {
    "name": "Aussichtsplateau Wasserfall",
    "slug": "aussichtsplateau-wasserfall",
    "category": "SCENIC_POINT",
    "region": "Alps",
    "country": "Europe",
    "lat": 47.1353321,
    "lng": 10.0945886,
    "nearest_airport": "INN",
    "description": "Auto-imported SCENIC_POINT. Altitude: N/Am"
  },
  "aussichtsplatform": {
    "name": "Aussichtsplatform",
    "slug": "aussichtsplatform",
    "category": "SCENIC_POINT",
    "region": "Alps",
    "country": "Europe",
    "lat": 47.0539311,
    "lng": 8.3273087,
    "nearest_airport": "ZRH",
    "description": "Auto-imported SCENIC_POINT. Altitude: N/Am"
  },
  "aussichtsplatform-eriskircher-ried": {
    "name": "Aussichtsplatform Eriskircher Ried",
    "slug": "aussichtsplatform-eriskircher-ried",
    "category": "SCENIC_POINT",
    "region": "Alps",
    "country": "Europe",
    "lat": 47.6330963,
    "lng": 9.5165136,
    "nearest_airport": "ZRH",
    "description": "Auto-imported SCENIC_POINT. Altitude: N/Am"
  },
  "aussichtsplatform-massenburg": {
    "name": "Aussichtsplatform Maßenburg",
    "slug": "aussichtsplatform-massenburg",
    "category": "SCENIC_POINT",
    "region": "Alps",
    "country": "Europe",
    "lat": 47.3756282,
    "lng": 15.0962861,
    "nearest_airport": "VIE",
    "description": "Auto-imported SCENIC_POINT. Altitude: N/Am"
  },
  "aussichtsplattform": {
    "name": "Aussichtsplattform",
    "slug": "aussichtsplattform",
    "category": "SCENIC_POINT",
    "region": "Alps",
    "country": "Europe",
    "lat": 47.9300591,
    "lng": 8.4948718,
    "nearest_airport": "ZRH",
    "description": "Auto-imported SCENIC_POINT. Altitude: N/Am"
  },
  "aussichtsplattform-adlerhorst": {
    "name": "Aussichtsplattform Adlerhorst",
    "slug": "aussichtsplattform-adlerhorst",
    "category": "SCENIC_POINT",
    "region": "Alps",
    "country": "Europe",
    "lat": 47.205913,
    "lng": 10.7565039,
    "nearest_airport": "INN",
    "description": "Auto-imported SCENIC_POINT. Altitude: N/Am"
  },
  "aussichtsplattform-am-brandl": {
    "name": "Aussichtsplattform am Brandl",
    "slug": "aussichtsplattform-am-brandl",
    "category": "SCENIC_POINT",
    "region": "Alps",
    "country": "Europe",
    "lat": 46.721833,
    "lng": 14.9678667,
    "nearest_airport": "SZG",
    "description": "Auto-imported SCENIC_POINT. Altitude: N/Am"
  },
  "aussichtsplattform-auf-bunker": {
    "name": "Aussichtsplattform auf Bunker",
    "slug": "aussichtsplattform-auf-bunker",
    "category": "SCENIC_POINT",
    "region": "Alps",
    "country": "Europe",
    "lat": 47.596631,
    "lng": 8.595466,
    "nearest_airport": "ZRH",
    "description": "Auto-imported SCENIC_POINT. Altitude: N/Am"
  },
  "aussichtsplattform-bad-aussee": {
    "name": "Aussichtsplattform Bad Aussee",
    "slug": "aussichtsplattform-bad-aussee",
    "category": "SCENIC_POINT",
    "region": "Alps",
    "country": "Europe",
    "lat": 47.6258077,
    "lng": 13.7882815,
    "nearest_airport": "SZG",
    "description": "Auto-imported SCENIC_POINT. Altitude: N/Am"
  },
  "aussichtsplattform-blattform": {
    "name": "Aussichtsplattform Blattform",
    "slug": "aussichtsplattform-blattform",
    "category": "SCENIC_POINT",
    "region": "Alps",
    "country": "Europe",
    "lat": 47.4182837,
    "lng": 11.8675652,
    "nearest_airport": "INN",
    "description": "Auto-imported SCENIC_POINT. Altitude: N/Am"
  },
  "aussichtsplattform-buchenberg": {
    "name": "Aussichtsplattform Buchenberg",
    "slug": "aussichtsplattform-buchenberg",
    "category": "SCENIC_POINT",
    "region": "Alps",
    "country": "Europe",
    "lat": 47.9461568,
    "lng": 14.7744448,
    "nearest_airport": "SZG",
    "description": "Auto-imported SCENIC_POINT. Altitude: N/Am"
  },
  "aussichtsplattform-burgerwald-1": {
    "name": "Aussichtsplattform Bürgerwald 1",
    "slug": "aussichtsplattform-burgerwald-1",
    "category": "SCENIC_POINT",
    "region": "Alps",
    "country": "Europe",
    "lat": 47.1991098,
    "lng": 14.4690907,
    "nearest_airport": "SZG",
    "description": "Auto-imported SCENIC_POINT. Altitude: N/Am"
  },
  "aussichtsplattform-chieming": {
    "name": "Aussichtsplattform Chieming",
    "slug": "aussichtsplattform-chieming",
    "category": "SCENIC_POINT",
    "region": "Alps",
    "country": "Europe",
    "lat": 47.8961409,
    "lng": 12.5272665,
    "nearest_airport": "SZG",
    "description": "Auto-imported SCENIC_POINT. Altitude: N/Am"
  },
  "aussichtsplattform-drauenland": {
    "name": "Aussichtsplattform DrAUENland",
    "slug": "aussichtsplattform-drauenland",
    "category": "SCENIC_POINT",
    "region": "Alps",
    "country": "Europe",
    "lat": 46.7330448,
    "lng": 13.0819731,
    "nearest_airport": "SZG",
    "description": "Auto-imported SCENIC_POINT. Altitude: N/Am"
  },
  "aussichtsplattform-dreilanderblick": {
    "name": "Aussichtsplattform Dreiländerblick",
    "slug": "aussichtsplattform-dreilanderblick",
    "category": "SCENIC_POINT",
    "region": "Alps",
    "country": "Europe",
    "lat": 46.8570545,
    "lng": 10.693778,
    "nearest_airport": "INN",
    "description": "Auto-imported SCENIC_POINT. Altitude: N/Am"
  },
  "aussichtsplattform-eibenschlucht": {
    "name": "Aussichtsplattform Eibenschlucht",
    "slug": "aussichtsplattform-eibenschlucht",
    "category": "SCENIC_POINT",
    "region": "Alps",
    "country": "Europe",
    "lat": 47.6879037,
    "lng": 12.393437,
    "nearest_airport": "SZG",
    "description": "Auto-imported SCENIC_POINT. Altitude: N/Am"
  },
  "aussichtsplattform-felsenholz": {
    "name": "Aussichtsplattform Felsenholz",
    "slug": "aussichtsplattform-felsenholz",
    "category": "SCENIC_POINT",
    "region": "Alps",
    "country": "Europe",
    "lat": 47.5128989,
    "lng": 9.2481743,
    "nearest_airport": "ZRH",
    "description": "Auto-imported SCENIC_POINT. Altitude: N/Am"
  },
  "aussichtsplattform-glocknerblick": {
    "name": "Aussichtsplattform Glocknerblick",
    "slug": "aussichtsplattform-glocknerblick",
    "category": "SCENIC_POINT",
    "region": "Alps",
    "country": "Europe",
    "lat": 47.1094857,
    "lng": 13.0987342,
    "nearest_airport": "SZG",
    "description": "Auto-imported SCENIC_POINT. Altitude: N/Am"
  },
  "aussichtsplattform-hochmoor": {
    "name": "Aussichtsplattform Hochmoor",
    "slug": "aussichtsplattform-hochmoor",
    "category": "SCENIC_POINT",
    "region": "Alps",
    "country": "Europe",
    "lat": 47.9712596,
    "lng": 12.2751579,
    "nearest_airport": "MUC",
    "description": "Auto-imported SCENIC_POINT. Altitude: N/Am"
  },
  "aussichtsplattform-hundsche-weiher": {
    "name": "Aussichtsplattform Hundsche Weiher",
    "slug": "aussichtsplattform-hundsche-weiher",
    "category": "SCENIC_POINT",
    "region": "Alps",
    "country": "Europe",
    "lat": 47.9063502,
    "lng": 9.4047794,
    "nearest_airport": "ZRH",
    "description": "Auto-imported SCENIC_POINT. Altitude: N/Am"
  },
  "aussichtsplattform-karwendelblick": {
    "name": "Aussichtsplattform Karwendelblick",
    "slug": "aussichtsplattform-karwendelblick",
    "category": "SCENIC_POINT",
    "region": "Alps",
    "country": "Europe",
    "lat": 47.1468521,
    "lng": 11.397768,
    "nearest_airport": "INN",
    "description": "Auto-imported SCENIC_POINT. Altitude: N/Am"
  },
  "aussichtsplattform-kleines-spiesshorn": {
    "name": "Aussichtsplattform Kleines Spießhorn",
    "slug": "aussichtsplattform-kleines-spiesshorn",
    "category": "SCENIC_POINT",
    "region": "Alps",
    "country": "Europe",
    "lat": 47.8252459,
    "lng": 8.037221,
    "nearest_airport": "ZRH",
    "description": "Der Aussichtsplatz Am Kleinen Spießhorn bietet ein beeindruckendes Panorama. Ein großes Holzpodest mit Himmelsliege lädt zum Verweilen ein."
  },
  "aussichtsplattform-kogelweg": {
    "name": "Aussichtsplattform Kogelweg",
    "slug": "aussichtsplattform-kogelweg",
    "category": "SCENIC_POINT",
    "region": "Alps",
    "country": "Europe",
    "lat": 47.20885,
    "lng": 10.7129773,
    "nearest_airport": "INN",
    "description": "Auto-imported SCENIC_POINT. Altitude: N/Am"
  },
  "aussichtsplattform-kugelwald": {
    "name": "Aussichtsplattform Kugelwald",
    "slug": "aussichtsplattform-kugelwald",
    "category": "SCENIC_POINT",
    "region": "Alps",
    "country": "Europe",
    "lat": 47.2431534,
    "lng": 11.5443242,
    "nearest_airport": "INN",
    "description": "Auto-imported SCENIC_POINT. Altitude: N/Am"
  },
  "aussichtsplattform-langetaler-wasserfall": {
    "name": "Aussichtsplattform Langetaler Wasserfall",
    "slug": "aussichtsplattform-langetaler-wasserfall",
    "category": "SCENIC_POINT",
    "region": "Alps",
    "country": "Europe",
    "lat": 47.0227382,
    "lng": 11.2208521,
    "nearest_airport": "INN",
    "description": "Auto-imported SCENIC_POINT. Altitude: N/Am"
  },
  "aussichtsplattform-mit-blick-auf-den": {
    "name": "Aussichtsplattform mit Blick auf den",
    "slug": "aussichtsplattform-mit-blick-auf-den",
    "category": "SCENIC_POINT",
    "region": "Alps",
    "country": "Europe",
    "lat": 47.1279787,
    "lng": 10.2739472,
    "nearest_airport": "INN",
    "description": "Auto-imported SCENIC_POINT. Altitude: N/Am"
  },
  "aussichtsplattform-moleturm": {
    "name": "Aussichtsplattform Moleturm",
    "slug": "aussichtsplattform-moleturm",
    "category": "SCENIC_POINT",
    "region": "Alps",
    "country": "Europe",
    "lat": 47.6486161,
    "lng": 9.4820736,
    "nearest_airport": "ZRH",
    "description": "Auto-imported SCENIC_POINT. Altitude: N/Am"
  },
  "aussichtsplattform-pfaffensprung": {
    "name": "Aussichtsplattform Pfaffensprung",
    "slug": "aussichtsplattform-pfaffensprung",
    "category": "SCENIC_POINT",
    "region": "Alps",
    "country": "Europe",
    "lat": 46.7151472,
    "lng": 8.6121704,
    "nearest_airport": "ZRH",
    "description": "Auto-imported SCENIC_POINT. Altitude: N/Am"
  },
  "aussichtsplattform-ruetz-katarakt": {
    "name": "Aussichtsplattform Ruetz Katarakt",
    "slug": "aussichtsplattform-ruetz-katarakt",
    "category": "SCENIC_POINT",
    "region": "Alps",
    "country": "Europe",
    "lat": 47.0289461,
    "lng": 11.2202073,
    "nearest_airport": "INN",
    "description": "Auto-imported SCENIC_POINT. Altitude: N/Am"
  },
  "aussichtsplattform-stilluptal": {
    "name": "Aussichtsplattform Stilluptal",
    "slug": "aussichtsplattform-stilluptal",
    "category": "SCENIC_POINT",
    "region": "Alps",
    "country": "Europe",
    "lat": 47.1365757,
    "lng": 11.8728536,
    "nearest_airport": "INN",
    "description": "Auto-imported SCENIC_POINT. Altitude: N/Am"
  },
  "aussichtsplattform-stubaiblick": {
    "name": "Aussichtsplattform Stubaiblick",
    "slug": "aussichtsplattform-stubaiblick",
    "category": "SCENIC_POINT",
    "region": "Alps",
    "country": "Europe",
    "lat": 47.1481352,
    "lng": 11.3096911,
    "nearest_airport": "INN",
    "description": "Auto-imported SCENIC_POINT. Altitude: N/Am"
  },
  "aussichtsplattform-tiefenbachklamm": {
    "name": "Aussichtsplattform Tiefenbachklamm",
    "slug": "aussichtsplattform-tiefenbachklamm",
    "category": "SCENIC_POINT",
    "region": "Alps",
    "country": "Europe",
    "lat": 47.4909222,
    "lng": 11.8733791,
    "nearest_airport": "INN",
    "description": "Auto-imported SCENIC_POINT. Altitude: N/Am"
  },
  "aussichtsplattform-tuftlalm": {
    "name": "Aussichtsplattform Tuftlalm",
    "slug": "aussichtsplattform-tuftlalm",
    "category": "SCENIC_POINT",
    "region": "Alps",
    "country": "Europe",
    "lat": 47.414899,
    "lng": 10.8852994,
    "nearest_airport": "INN",
    "description": "Auto-imported SCENIC_POINT. Altitude: N/Am"
  },
  "aussichtsplattform-vogelsee": {
    "name": "Aussichtsplattform Vogelsee",
    "slug": "aussichtsplattform-vogelsee",
    "category": "SCENIC_POINT",
    "region": "Alps",
    "country": "Europe",
    "lat": 47.8936017,
    "lng": 9.395331,
    "nearest_airport": "ZRH",
    "description": "Auto-imported SCENIC_POINT. Altitude: N/Am"
  },
  "aussichtsplattform-windeggwitthoh": {
    "name": "Aussichtsplattform Windegg/Witthoh",
    "slug": "aussichtsplattform-windeggwitthoh",
    "category": "SCENIC_POINT",
    "region": "Alps",
    "country": "Europe",
    "lat": 47.9340271,
    "lng": 8.823311,
    "nearest_airport": "ZRH",
    "description": "Auto-imported SCENIC_POINT. Altitude: N/Am"
  },
  "aussichtsplatz": {
    "name": "Aussichtsplatz",
    "slug": "aussichtsplatz",
    "category": "SCENIC_POINT",
    "region": "Alps",
    "country": "Europe",
    "lat": 47.6103711,
    "lng": 10.6713101,
    "nearest_airport": "INN",
    "description": "Auto-imported SCENIC_POINT. Altitude: N/Am"
  },
  "aussichtsplatz-heumahdgupf": {
    "name": "Aussichtsplatz Heumahdgupf",
    "slug": "aussichtsplatz-heumahdgupf",
    "category": "SCENIC_POINT",
    "region": "Alps",
    "country": "Europe",
    "lat": 47.8149656,
    "lng": 13.7126917,
    "nearest_airport": "SZG",
    "description": "Auto-imported SCENIC_POINT. Altitude: N/Am"
  },
  "aussichtsplatz-hl-peregrinus": {
    "name": "Aussichtsplatz hl. Peregrinus",
    "slug": "aussichtsplatz-hl-peregrinus",
    "category": "SCENIC_POINT",
    "region": "Alps",
    "country": "Europe",
    "lat": 47.8729538,
    "lng": 15.8700154,
    "nearest_airport": "VIE",
    "description": "Auto-imported SCENIC_POINT. Altitude: N/Am"
  },
  "aussichtsplatz-pledigupf": {
    "name": "Aussichtsplatz Pledigupf",
    "slug": "aussichtsplatz-pledigupf",
    "category": "SCENIC_POINT",
    "region": "Alps",
    "country": "Europe",
    "lat": 47.8167035,
    "lng": 13.7169873,
    "nearest_airport": "SZG",
    "description": "Auto-imported SCENIC_POINT. Altitude: N/Am"
  },
  "aussichtsplatz-schluchtenblick": {
    "name": "Aussichtsplatz \"Schluchtenblick\"",
    "slug": "aussichtsplatz-schluchtenblick",
    "category": "SCENIC_POINT",
    "region": "Alps",
    "country": "Europe",
    "lat": 47.598624,
    "lng": 11.3036381,
    "nearest_airport": "INN",
    "description": "Auto-imported SCENIC_POINT. Altitude: N/Am"
  },
  "aussichtsplatz-spitzlsteinalm": {
    "name": "Aussichtsplatz Spitzlsteinalm",
    "slug": "aussichtsplatz-spitzlsteinalm",
    "category": "SCENIC_POINT",
    "region": "Alps",
    "country": "Europe",
    "lat": 47.8147262,
    "lng": 13.8125241,
    "nearest_airport": "SZG",
    "description": "Auto-imported SCENIC_POINT. Altitude: N/Am"
  },
  "aussichtsplatz-st-ulrich": {
    "name": "Aussichtsplatz St. Ulrich",
    "slug": "aussichtsplatz-st-ulrich",
    "category": "SCENIC_POINT",
    "region": "Alps",
    "country": "Europe",
    "lat": 47.7646158,
    "lng": 9.1674622,
    "nearest_airport": "ZRH",
    "description": "Auto-imported SCENIC_POINT. Altitude: N/Am"
  },
  "aussichtsplatz-steyrtalblick": {
    "name": "Aussichtsplatz Steyrtalblick",
    "slug": "aussichtsplatz-steyrtalblick",
    "category": "SCENIC_POINT",
    "region": "Alps",
    "country": "Europe",
    "lat": 47.9743971,
    "lng": 14.2288157,
    "nearest_airport": "SZG",
    "description": "Auto-imported SCENIC_POINT. Altitude: N/Am"
  },
  "aussichtsplatzl-fahrnaugupf": {
    "name": "Aussichtsplatzl Fahrnaugupf",
    "slug": "aussichtsplatzl-fahrnaugupf",
    "category": "SCENIC_POINT",
    "region": "Alps",
    "country": "Europe",
    "lat": 47.8381049,
    "lng": 13.7588819,
    "nearest_airport": "SZG",
    "description": "Auto-imported SCENIC_POINT. Altitude: 1207m"
  },
  "aussichtspodest-verlandungszone": {
    "name": "Aussichtspodest Verlandungszone",
    "slug": "aussichtspodest-verlandungszone",
    "category": "SCENIC_POINT",
    "region": "Alps",
    "country": "Europe",
    "lat": 47.9905194,
    "lng": 12.2830692,
    "nearest_airport": "MUC",
    "description": "Auto-imported SCENIC_POINT. Altitude: N/Am"
  },
  "aussichtspunkt": {
    "name": "Aussichtspunkt",
    "slug": "aussichtspunkt",
    "category": "SCENIC_POINT",
    "region": "Alps",
    "country": "Europe",
    "lat": 47.7438546,
    "lng": 15.7935243,
    "nearest_airport": "VIE",
    "description": "Auto-imported SCENIC_POINT. Altitude: N/Am"
  },
  "aussichtspunkt-aellfluh": {
    "name": "Aussichtspunkt Aellfluh",
    "slug": "aussichtspunkt-aellfluh",
    "category": "SCENIC_POINT",
    "region": "Alps",
    "country": "Europe",
    "lat": 46.6350255,
    "lng": 8.0263828,
    "nearest_airport": "ZRH",
    "description": "Auto-imported SCENIC_POINT. Altitude: N/Am"
  },
  "aussichtspunkt-aiblerkogel": {
    "name": "Aussichtspunkt Aiblerkogel",
    "slug": "aussichtspunkt-aiblerkogel",
    "category": "SCENIC_POINT",
    "region": "Alps",
    "country": "Europe",
    "lat": 46.6828693,
    "lng": 15.2137705,
    "nearest_airport": "VIE",
    "description": "Auto-imported SCENIC_POINT. Altitude: N/Am"
  },
  "aussichtspunkt-alpenpanorama": {
    "name": "Aussichtspunkt Alpenpanorama",
    "slug": "aussichtspunkt-alpenpanorama",
    "category": "SCENIC_POINT",
    "region": "Alps",
    "country": "Europe",
    "lat": 47.9431646,
    "lng": 12.313672,
    "nearest_airport": "SZG",
    "description": "Aussichtspunbkt mit Panoramabildern der zu sehenden Berge"
  },
  "aussichtspunkt-altenburg-belvedere-di-castelvecchio": {
    "name": "Aussichtspunkt Altenburg - Belvedere di Castelvecchio",
    "slug": "aussichtspunkt-altenburg-belvedere-di-castelvecchio",
    "category": "SCENIC_POINT",
    "region": "Alps",
    "country": "Europe",
    "lat": 46.3778533,
    "lng": 11.2402657,
    "nearest_airport": "INN",
    "description": "Auto-imported SCENIC_POINT. Altitude: N/Am"
  },
  "aussichtspunkt-am-eichholz": {
    "name": "Aussichtspunkt Am Eichholz",
    "slug": "aussichtspunkt-am-eichholz",
    "category": "SCENIC_POINT",
    "region": "Alps",
    "country": "Europe",
    "lat": 47.6766309,
    "lng": 11.2094691,
    "nearest_airport": "INN",
    "description": "Auto-imported SCENIC_POINT. Altitude: N/Am"
  },
  "aussichtspunkt-am-heimatrundweg": {
    "name": "Aussichtspunkt am Heimatrundweg",
    "slug": "aussichtspunkt-am-heimatrundweg",
    "category": "SCENIC_POINT",
    "region": "Alps",
    "country": "Europe",
    "lat": 47.3613549,
    "lng": 12.5684964,
    "nearest_airport": "SZG",
    "description": "Auto-imported SCENIC_POINT. Altitude: N/Am"
  },
  "aussichtspunkt-am-mooslahnerkopf": {
    "name": "Aussichtspunkt am Mooslahnerkopf",
    "slug": "aussichtspunkt-am-mooslahnerkopf",
    "category": "SCENIC_POINT",
    "region": "Alps",
    "country": "Europe",
    "lat": 47.6395876,
    "lng": 13.0366034,
    "nearest_airport": "SZG",
    "description": "Auto-imported SCENIC_POINT. Altitude: N/Am"
  },
  "aussichtspunkt-am-rad-und-gehweg-grossarltal": {
    "name": "Aussichtspunkt am Rad - und Gehweg Großarltal",
    "slug": "aussichtspunkt-am-rad-und-gehweg-grossarltal",
    "category": "SCENIC_POINT",
    "region": "Alps",
    "country": "Europe",
    "lat": 47.2714939,
    "lng": 13.2106472,
    "nearest_airport": "SZG",
    "description": "Auto-imported SCENIC_POINT. Altitude: N/Am"
  },
  "aussichtspunkt-arigscheis-2256-m": {
    "name": "Aussichtspunkt Arigscheis, 2.256 m",
    "slug": "aussichtspunkt-arigscheis-2256-m",
    "category": "SCENIC_POINT",
    "region": "Alps",
    "country": "Europe",
    "lat": 46.07267,
    "lng": 7.7629427,
    "nearest_airport": "MXP",
    "description": "Auto-imported SCENIC_POINT. Altitude: N/Am"
  },
  "aussichtspunkt-auf-das-sudportal-katzenbergtunnel": {
    "name": "Aussichtspunkt auf das Südportal Katzenbergtunnel",
    "slug": "aussichtspunkt-auf-das-sudportal-katzenbergtunnel",
    "category": "SCENIC_POINT",
    "region": "Alps",
    "country": "Europe",
    "lat": 47.6595677,
    "lng": 7.5753638,
    "nearest_airport": "ZRH",
    "description": "Auto-imported SCENIC_POINT. Altitude: N/Am"
  },
  "aussichtspunkt-auf-neues-kraftwerk-rheinfelden": {
    "name": "Aussichtspunkt auf neues Kraftwerk Rheinfelden",
    "slug": "aussichtspunkt-auf-neues-kraftwerk-rheinfelden",
    "category": "SCENIC_POINT",
    "region": "Alps",
    "country": "Europe",
    "lat": 47.567062,
    "lng": 7.8118258,
    "nearest_airport": "ZRH",
    "description": "Auto-imported SCENIC_POINT. Altitude: N/Am"
  },
  "aussichtspunkt-bad-kohlgrub": {
    "name": "Aussichtspunkt Bad Kohlgrub",
    "slug": "aussichtspunkt-bad-kohlgrub",
    "category": "SCENIC_POINT",
    "region": "Alps",
    "country": "Europe",
    "lat": 47.6597805,
    "lng": 11.0416414,
    "nearest_airport": "INN",
    "description": "Auto-imported SCENIC_POINT. Altitude: N/Am"
  },
  "aussichtspunkt-bargis": {
    "name": "Aussichtspunkt Bargis",
    "slug": "aussichtspunkt-bargis",
    "category": "SCENIC_POINT",
    "region": "Alps",
    "country": "Europe",
    "lat": 46.8524096,
    "lng": 9.325188,
    "nearest_airport": "ZRH",
    "description": "Auto-imported SCENIC_POINT. Altitude: N/Am"
  },
  "aussichtspunkt-bisten": {
    "name": "Aussichtspunkt Bisten",
    "slug": "aussichtspunkt-bisten",
    "category": "SCENIC_POINT",
    "region": "Alps",
    "country": "Europe",
    "lat": 47.8980885,
    "lng": 8.0764691,
    "nearest_airport": "ZRH",
    "description": "Not much to see due to the trees, but it is oficially marked"
  },
  "aussichtspunkt-bodensee": {
    "name": "Aussichtspunkt Bodensee",
    "slug": "aussichtspunkt-bodensee",
    "category": "SCENIC_POINT",
    "region": "Alps",
    "country": "Europe",
    "lat": 47.5470354,
    "lng": 9.7703266,
    "nearest_airport": "ZRH",
    "description": "Auto-imported SCENIC_POINT. Altitude: N/Am"
  },
  "aussichtspunkt-bunker": {
    "name": "Aussichtspunkt «Bunker»",
    "slug": "aussichtspunkt-bunker",
    "category": "SCENIC_POINT",
    "region": "Alps",
    "country": "Europe",
    "lat": 47.593413,
    "lng": 8.1650128,
    "nearest_airport": "ZRH",
    "description": "Auto-imported SCENIC_POINT. Altitude: N/Am"
  },
  "aussichtspunkt-crap-carschenna": {
    "name": "Aussichtspunkt Crap Carschenna",
    "slug": "aussichtspunkt-crap-carschenna",
    "category": "SCENIC_POINT",
    "region": "Alps",
    "country": "Europe",
    "lat": 46.693295,
    "lng": 9.4576523,
    "nearest_airport": "ZRH",
    "description": "Auto-imported SCENIC_POINT. Altitude: N/Am"
  },
  "aussichtspunkt-fuchsschwanz": {
    "name": "Aussichtspunkt Fuchsschwanz",
    "slug": "aussichtspunkt-fuchsschwanz",
    "category": "SCENIC_POINT",
    "region": "Alps",
    "country": "Europe",
    "lat": 47.0626346,
    "lng": 10.0222289,
    "nearest_airport": "INN",
    "description": "Auto-imported SCENIC_POINT. Altitude: N/Am"
  },
  "aussichtspunkt-glinzgieck": {
    "name": "Aussichtspunkt Glinzgieck",
    "slug": "aussichtspunkt-glinzgieck",
    "category": "SCENIC_POINT",
    "region": "Alps",
    "country": "Europe",
    "lat": 47.1539009,
    "lng": 9.7424127,
    "nearest_airport": "ZRH",
    "description": "Auto-imported SCENIC_POINT. Altitude: N/Am"
  },
  "aussichtspunkt-gretelfelsen": {
    "name": "Aussichtspunkt \"Gretelfelsen\"",
    "slug": "aussichtspunkt-gretelfelsen",
    "category": "SCENIC_POINT",
    "region": "Alps",
    "country": "Europe",
    "lat": 47.6513732,
    "lng": 16.1336396,
    "nearest_airport": "VIE",
    "description": "Auto-imported SCENIC_POINT. Altitude: N/Am"
  },
  "aussichtspunkt-guckalm-gesperrt-verbotszone": {
    "name": "Aussichtspunkt Guckalm *gesperrt! - Verbotszone!",
    "slug": "aussichtspunkt-guckalm-gesperrt-verbotszone",
    "category": "SCENIC_POINT",
    "region": "Alps",
    "country": "Europe",
    "lat": 46.817416,
    "lng": 13.4642769,
    "nearest_airport": "SZG",
    "description": "Auto-imported SCENIC_POINT. Altitude: N/Am"
  },
  "aussichtspunkt-guggershorn": {
    "name": "Aussichtspunkt Guggershorn",
    "slug": "aussichtspunkt-guggershorn",
    "category": "SCENIC_POINT",
    "region": "Alps",
    "country": "Europe",
    "lat": 46.7698866,
    "lng": 7.3339359,
    "nearest_airport": "GVA",
    "description": "Auto-imported SCENIC_POINT. Altitude: N/Am"
  },
  "aussichtspunkt-haarmoos": {
    "name": "Aussichtspunkt Haarmoos",
    "slug": "aussichtspunkt-haarmoos",
    "category": "SCENIC_POINT",
    "region": "Alps",
    "country": "Europe",
    "lat": 47.9066695,
    "lng": 12.9017094,
    "nearest_airport": "SZG",
    "description": "Auto-imported SCENIC_POINT. Altitude: N/Am"
  },
  "aussichtspunkt-habrastl": {
    "name": "Aussichtspunkt Habrastl",
    "slug": "aussichtspunkt-habrastl",
    "category": "SCENIC_POINT",
    "region": "Alps",
    "country": "Europe",
    "lat": 46.7868128,
    "lng": 13.1556828,
    "nearest_airport": "SZG",
    "description": "Auto-imported SCENIC_POINT. Altitude: N/Am"
  },
  "aussichtspunkt-herzig": {
    "name": "Aussichtspunkt Herzig",
    "slug": "aussichtspunkt-herzig",
    "category": "SCENIC_POINT",
    "region": "Alps",
    "country": "Europe",
    "lat": 47.0649502,
    "lng": 8.5460786,
    "nearest_airport": "ZRH",
    "description": "Auto-imported SCENIC_POINT. Altitude: N/Am"
  },
  "aussichtspunkt-hinterkogel": {
    "name": "Aussichtspunkt Hinterkogel",
    "slug": "aussichtspunkt-hinterkogel",
    "category": "SCENIC_POINT",
    "region": "Alps",
    "country": "Europe",
    "lat": 47.3975583,
    "lng": 11.8596611,
    "nearest_airport": "INN",
    "description": "Auto-imported SCENIC_POINT. Altitude: N/Am"
  },
  "aussichtspunkt-hirschberg": {
    "name": "Aussichtspunkt Hirschberg",
    "slug": "aussichtspunkt-hirschberg",
    "category": "SCENIC_POINT",
    "region": "Alps",
    "country": "Europe",
    "lat": 47.517246,
    "lng": 10.3765764,
    "nearest_airport": "INN",
    "description": "Auto-imported SCENIC_POINT. Altitude: N/Am"
  },
  "aussichtspunkt-huhnersteig": {
    "name": "Aussichtspunkt Hühnersteig",
    "slug": "aussichtspunkt-huhnersteig",
    "category": "SCENIC_POINT",
    "region": "Alps",
    "country": "Europe",
    "lat": 47.737097,
    "lng": 16.008874,
    "nearest_airport": "VIE",
    "description": "Auto-imported SCENIC_POINT. Altitude: N/Am"
  },
  "aussichtspunkt-jenner": {
    "name": "Aussichtspunkt Jenner",
    "slug": "aussichtspunkt-jenner",
    "category": "SCENIC_POINT",
    "region": "Alps",
    "country": "Europe",
    "lat": 47.575295,
    "lng": 13.0197433,
    "nearest_airport": "SZG",
    "description": "Auto-imported SCENIC_POINT. Altitude: N/Am"
  },
  "aussichtspunkt-kanzel-am-oberjoch-pass-1100m": {
    "name": "Aussichtspunkt Kanzel am Oberjoch - Paß 1100m",
    "slug": "aussichtspunkt-kanzel-am-oberjoch-pass-1100m",
    "category": "SCENIC_POINT",
    "region": "Alps",
    "country": "Europe",
    "lat": 47.5106904,
    "lng": 10.3903624,
    "nearest_airport": "INN",
    "description": "Auto-imported SCENIC_POINT. Altitude: N/Am"
  },
  "aussichtspunkt-kanzele": {
    "name": "Aussichtspunkt Känzele",
    "slug": "aussichtspunkt-kanzele",
    "category": "SCENIC_POINT",
    "region": "Alps",
    "country": "Europe",
    "lat": 47.3771676,
    "lng": 9.9086584,
    "nearest_airport": "ZRH",
    "description": "Auto-imported SCENIC_POINT. Altitude: N/Am"
  },
  "aussichtspunkt-kanzeli-thusis": {
    "name": "Aussichtspunkt Känzeli Thusis",
    "slug": "aussichtspunkt-kanzeli-thusis",
    "category": "SCENIC_POINT",
    "region": "Alps",
    "country": "Europe",
    "lat": 46.6897839,
    "lng": 9.438814,
    "nearest_airport": "ZRH",
    "description": "Auto-imported SCENIC_POINT. Altitude: N/Am"
  },
  "aussichtspunkt-kanzeltobel": {
    "name": "Aussichtspunkt Kanzeltobel",
    "slug": "aussichtspunkt-kanzeltobel",
    "category": "SCENIC_POINT",
    "region": "Alps",
    "country": "Europe",
    "lat": 46.9367553,
    "lng": 10.4939887,
    "nearest_airport": "INN",
    "description": "Auto-imported SCENIC_POINT. Altitude: N/Am"
  },
  "aussichtspunkt-kapf": {
    "name": "Aussichtspunkt Kapf",
    "slug": "aussichtspunkt-kapf",
    "category": "SCENIC_POINT",
    "region": "Alps",
    "country": "Europe",
    "lat": 47.5273348,
    "lng": 10.319652,
    "nearest_airport": "INN",
    "description": "Auto-imported SCENIC_POINT. Altitude: N/Am"
  },
  "aussichtspunkt-kastenberg": {
    "name": "Aussichtspunkt Kastenberg",
    "slug": "aussichtspunkt-kastenberg",
    "category": "SCENIC_POINT",
    "region": "Alps",
    "country": "Europe",
    "lat": 47.4949779,
    "lng": 9.348784,
    "nearest_airport": "ZRH",
    "description": "Auto-imported SCENIC_POINT. Altitude: N/Am"
  },
  "aussichtspunkt-katschtalkehre": {
    "name": "Aussichtspunkt Katschtalkehre",
    "slug": "aussichtspunkt-katschtalkehre",
    "category": "SCENIC_POINT",
    "region": "Alps",
    "country": "Europe",
    "lat": 47.2588216,
    "lng": 14.0810009,
    "nearest_airport": "SZG",
    "description": "Auto-imported SCENIC_POINT. Altitude: 1550m"
  },
  "aussichtspunkt-kienberg": {
    "name": "Aussichtspunkt Kienberg",
    "slug": "aussichtspunkt-kienberg",
    "category": "SCENIC_POINT",
    "region": "Alps",
    "country": "Europe",
    "lat": 47.5723028,
    "lng": 10.5462271,
    "nearest_airport": "INN",
    "description": "Auto-imported SCENIC_POINT. Altitude: 1273m"
  },
  "aussichtspunkt-kinsau": {
    "name": "Aussichtspunkt Kinsau",
    "slug": "aussichtspunkt-kinsau",
    "category": "SCENIC_POINT",
    "region": "Alps",
    "country": "Europe",
    "lat": 47.8766837,
    "lng": 10.9124177,
    "nearest_airport": "INN",
    "description": "Auto-imported SCENIC_POINT. Altitude: N/Am"
  },
  "aussichtspunkt-kitzelberg": {
    "name": "Aussichtspunkt Kitzelberg",
    "slug": "aussichtspunkt-kitzelberg",
    "category": "SCENIC_POINT",
    "region": "Alps",
    "country": "Europe",
    "lat": 46.5983419,
    "lng": 14.5634489,
    "nearest_airport": "SZG",
    "description": "Auto-imported SCENIC_POINT. Altitude: N/Am"
  },
  "aussichtspunkt-laufen-oberndorf-ostermiething-moosdorf-usw": {
    "name": "Aussichtspunkt (Laufen, Oberndorf, Ostermiething, Moosdorf usw)",
    "slug": "aussichtspunkt-laufen-oberndorf-ostermiething-moosdorf-usw",
    "category": "SCENIC_POINT",
    "region": "Alps",
    "country": "Europe",
    "lat": 47.9328657,
    "lng": 13.0056797,
    "nearest_airport": "SZG",
    "description": "Auto-imported SCENIC_POINT. Altitude: N/Am"
  },
  "aussichtspunkt-liebenau": {
    "name": "Aussichtspunkt Liebenau",
    "slug": "aussichtspunkt-liebenau",
    "category": "SCENIC_POINT",
    "region": "Alps",
    "country": "Europe",
    "lat": 47.7000243,
    "lng": 9.6129043,
    "nearest_airport": "ZRH",
    "description": "Auto-imported SCENIC_POINT. Altitude: 551m"
  },
  "aussichtspunkt-lindenbuck": {
    "name": "Aussichtspunkt Lindenbuck",
    "slug": "aussichtspunkt-lindenbuck",
    "category": "SCENIC_POINT",
    "region": "Alps",
    "country": "Europe",
    "lat": 47.6258449,
    "lng": 8.2089138,
    "nearest_airport": "ZRH",
    "description": "Auto-imported SCENIC_POINT. Altitude: N/Am"
  },
  "aussichtspunkt-lugaus": {
    "name": "Aussichtspunkt Lugaus",
    "slug": "aussichtspunkt-lugaus",
    "category": "SCENIC_POINT",
    "region": "Alps",
    "country": "Europe",
    "lat": 47.5124242,
    "lng": 10.3468211,
    "nearest_airport": "INN",
    "description": "Auto-imported SCENIC_POINT. Altitude: N/Am"
  },
  "aussichtspunkt-maiernigg": {
    "name": "Aussichtspunkt Maiernigg",
    "slug": "aussichtspunkt-maiernigg",
    "category": "SCENIC_POINT",
    "region": "Alps",
    "country": "Europe",
    "lat": 46.6079505,
    "lng": 14.2389419,
    "nearest_airport": "SZG",
    "description": "Auto-imported SCENIC_POINT. Altitude: N/Am"
  },
  "aussichtspunkt-maria-hilf-kapelle": {
    "name": "Aussichtspunkt Maria Hilf Kapelle",
    "slug": "aussichtspunkt-maria-hilf-kapelle",
    "category": "SCENIC_POINT",
    "region": "Alps",
    "country": "Europe",
    "lat": 46.9803119,
    "lng": 8.664742,
    "nearest_airport": "ZRH",
    "description": "Auto-imported SCENIC_POINT. Altitude: N/Am"
  },
  "aussichtspunkt-mettenberg": {
    "name": "Aussichtspunkt Mettenberg",
    "slug": "aussichtspunkt-mettenberg",
    "category": "SCENIC_POINT",
    "region": "Alps",
    "country": "Europe",
    "lat": 47.4259159,
    "lng": 7.8572305,
    "nearest_airport": "ZRH",
    "description": "Auto-imported SCENIC_POINT. Altitude: N/Am"
  },
  "aussichtspunkt-mit-3-banken": {
    "name": "Aussichtspunkt mit 3 Bänken",
    "slug": "aussichtspunkt-mit-3-banken",
    "category": "SCENIC_POINT",
    "region": "Alps",
    "country": "Europe",
    "lat": 47.1754667,
    "lng": 9.8038504,
    "nearest_airport": "ZRH",
    "description": "Auto-imported SCENIC_POINT. Altitude: N/Am"
  },
  "aussichtspunkt-mit-zwei-banken": {
    "name": "Aussichtspunkt mit zwei Bänken",
    "slug": "aussichtspunkt-mit-zwei-banken",
    "category": "SCENIC_POINT",
    "region": "Alps",
    "country": "Europe",
    "lat": 47.1280301,
    "lng": 9.8520112,
    "nearest_airport": "ZRH",
    "description": "Auto-imported SCENIC_POINT. Altitude: N/Am"
  },
  "aussichtspunkt-neuberg": {
    "name": "Aussichtspunkt Neuberg",
    "slug": "aussichtspunkt-neuberg",
    "category": "SCENIC_POINT",
    "region": "Alps",
    "country": "Europe",
    "lat": 46.9591545,
    "lng": 15.7309433,
    "nearest_airport": "VIE",
    "description": "Auto-imported SCENIC_POINT. Altitude: N/Am"
  },
  "aussichtspunkt-nusche": {
    "name": "Aussichtspunkt Nusche",
    "slug": "aussichtspunkt-nusche",
    "category": "SCENIC_POINT",
    "region": "Alps",
    "country": "Europe",
    "lat": 47.5098645,
    "lng": 10.3619844,
    "nearest_airport": "INN",
    "description": "Auto-imported SCENIC_POINT. Altitude: N/Am"
  },
  "aussichtspunkt-obersee": {
    "name": "Aussichtspunkt Obersee",
    "slug": "aussichtspunkt-obersee",
    "category": "SCENIC_POINT",
    "region": "Alps",
    "country": "Europe",
    "lat": 47.5077034,
    "lng": 13.0187909,
    "nearest_airport": "SZG",
    "description": "Auto-imported SCENIC_POINT. Altitude: N/Am"
  },
  "aussichtspunkt-obervintl-punto-panoramico-vandoies-di-sopra": {
    "name": "Aussichtspunkt Obervintl - Punto panoramico Vandoies di Sopra",
    "slug": "aussichtspunkt-obervintl-punto-panoramico-vandoies-di-sopra",
    "category": "SCENIC_POINT",
    "region": "Alps",
    "country": "Europe",
    "lat": 46.8137332,
    "lng": 11.7648244,
    "nearest_airport": "INN",
    "description": "Auto-imported SCENIC_POINT. Altitude: N/Am"
  },
  "aussichtspunkt-oberzell": {
    "name": "Aussichtspunkt Oberzell",
    "slug": "aussichtspunkt-oberzell",
    "category": "SCENIC_POINT",
    "region": "Alps",
    "country": "Europe",
    "lat": 47.8724941,
    "lng": 10.7524734,
    "nearest_airport": "INN",
    "description": "Auto-imported SCENIC_POINT. Altitude: N/Am"
  },
  "aussichtspunkt-ochsenbrundl": {
    "name": "Aussichtspunkt Ochsenbründl",
    "slug": "aussichtspunkt-ochsenbrundl",
    "category": "SCENIC_POINT",
    "region": "Alps",
    "country": "Europe",
    "lat": 47.3292452,
    "lng": 11.0087428,
    "nearest_airport": "INN",
    "description": "Auto-imported SCENIC_POINT. Altitude: N/Am"
  },
  "aussichtspunkt-piz-munschuns": {
    "name": "Aussichtspunkt Piz Munschuns",
    "slug": "aussichtspunkt-piz-munschuns",
    "category": "SCENIC_POINT",
    "region": "Alps",
    "country": "Europe",
    "lat": 46.974229,
    "lng": 10.3752455,
    "nearest_airport": "INN",
    "description": "Auto-imported SCENIC_POINT. Altitude: N/Am"
  },
  "aussichtspunkt-pochtenfall": {
    "name": "Aussichtspunkt Pochtenfall",
    "slug": "aussichtspunkt-pochtenfall",
    "category": "SCENIC_POINT",
    "region": "Alps",
    "country": "Europe",
    "lat": 46.6213388,
    "lng": 7.7698449,
    "nearest_airport": "ZRH",
    "description": "Auto-imported SCENIC_POINT. Altitude: N/Am"
  },
  "aussichtspunkt-rehetobel": {
    "name": "Aussichtspunkt Rehetobel",
    "slug": "aussichtspunkt-rehetobel",
    "category": "SCENIC_POINT",
    "region": "Alps",
    "country": "Europe",
    "lat": 47.4205311,
    "lng": 9.4663759,
    "nearest_airport": "ZRH",
    "description": "Auto-imported SCENIC_POINT. Altitude: N/Am"
  },
  "aussichtspunkt-reservoir": {
    "name": "Aussichtspunkt Reservoir",
    "slug": "aussichtspunkt-reservoir",
    "category": "SCENIC_POINT",
    "region": "Alps",
    "country": "Europe",
    "lat": 47.3674893,
    "lng": 9.3435136,
    "nearest_airport": "ZRH",
    "description": "Auto-imported SCENIC_POINT. Altitude: 863m"
  },
  "aussichtspunkt-rheinfallstrasse": {
    "name": "Aussichtspunkt Rheinfallstrasse",
    "slug": "aussichtspunkt-rheinfallstrasse",
    "category": "SCENIC_POINT",
    "region": "Alps",
    "country": "Europe",
    "lat": 47.6801806,
    "lng": 8.6126542,
    "nearest_airport": "ZRH",
    "description": "Auto-imported SCENIC_POINT. Altitude: N/Am"
  },
  "aussichtspunkt-rheinweg": {
    "name": "Aussichtspunkt Rheinweg",
    "slug": "aussichtspunkt-rheinweg",
    "category": "SCENIC_POINT",
    "region": "Alps",
    "country": "Europe",
    "lat": 47.6781927,
    "lng": 8.6170014,
    "nearest_airport": "ZRH",
    "description": "Auto-imported SCENIC_POINT. Altitude: N/Am"
  },
  "aussichtspunkt-rote-wand": {
    "name": "Aussichtspunkt Rote Wand",
    "slug": "aussichtspunkt-rote-wand",
    "category": "SCENIC_POINT",
    "region": "Alps",
    "country": "Europe",
    "lat": 47.5407284,
    "lng": 13.4912216,
    "nearest_airport": "SZG",
    "description": "Auto-imported SCENIC_POINT. Altitude: N/Am"
  },
  "aussichtspunkt-rotturm": {
    "name": "Aussichtspunkt Rotturm",
    "slug": "aussichtspunkt-rotturm",
    "category": "SCENIC_POINT",
    "region": "Alps",
    "country": "Europe",
    "lat": 46.949536,
    "lng": 14.4032241,
    "nearest_airport": "SZG",
    "description": "Auto-imported SCENIC_POINT. Altitude: N/Am"
  },
  "aussichtspunkt-ruggisberg": {
    "name": "Aussichtspunkt Ruggisberg",
    "slug": "aussichtspunkt-ruggisberg",
    "category": "SCENIC_POINT",
    "region": "Alps",
    "country": "Europe",
    "lat": 47.4893978,
    "lng": 9.3718097,
    "nearest_airport": "ZRH",
    "description": "Auto-imported SCENIC_POINT. Altitude: N/Am"
  },
  "aussichtspunkt-ruti": {
    "name": "Aussichtspunkt Rüti",
    "slug": "aussichtspunkt-ruti",
    "category": "SCENIC_POINT",
    "region": "Alps",
    "country": "Europe",
    "lat": 47.4945782,
    "lng": 9.3770097,
    "nearest_airport": "ZRH",
    "description": "Auto-imported SCENIC_POINT. Altitude: N/Am"
  },
  "aussichtspunkt-salmaser-hohe": {
    "name": "Aussichtspunkt Salmaser Höhe",
    "slug": "aussichtspunkt-salmaser-hohe",
    "category": "SCENIC_POINT",
    "region": "Alps",
    "country": "Europe",
    "lat": 47.5698982,
    "lng": 10.0891617,
    "nearest_airport": "INN",
    "description": "Auto-imported SCENIC_POINT. Altitude: 1242m"
  },
  "aussichtspunkt-sardona": {
    "name": "Aussichtspunkt Sardona",
    "slug": "aussichtspunkt-sardona",
    "category": "SCENIC_POINT",
    "region": "Alps",
    "country": "Europe",
    "lat": 46.7983159,
    "lng": 9.4319394,
    "nearest_airport": "ZRH",
    "description": "Auto-imported SCENIC_POINT. Altitude: N/Am"
  },
  "aussichtspunkt-schaber": {
    "name": "Aussichtspunkt Schaber",
    "slug": "aussichtspunkt-schaber",
    "category": "SCENIC_POINT",
    "region": "Alps",
    "country": "Europe",
    "lat": 47.0591266,
    "lng": 7.8015126,
    "nearest_airport": "ZRH",
    "description": "Auto-imported SCENIC_POINT. Altitude: N/Am"
  },
  "aussichtspunkt-schattenburg": {
    "name": "Aussichtspunkt Schattenburg",
    "slug": "aussichtspunkt-schattenburg",
    "category": "SCENIC_POINT",
    "region": "Alps",
    "country": "Europe",
    "lat": 47.2366386,
    "lng": 9.5998886,
    "nearest_airport": "ZRH",
    "description": "Auto-imported SCENIC_POINT. Altitude: N/Am"
  },
  "aussichtspunkt-schatzbohl": {
    "name": "Aussichtspunkt Schatzböhl",
    "slug": "aussichtspunkt-schatzbohl",
    "category": "SCENIC_POINT",
    "region": "Alps",
    "country": "Europe",
    "lat": 47.3902915,
    "lng": 8.9052216,
    "nearest_airport": "ZRH",
    "description": "Auto-imported SCENIC_POINT. Altitude: N/Am"
  },
  "aussichtspunkt-schrock": {
    "name": "Aussichtspunkt Schröck",
    "slug": "aussichtspunkt-schrock",
    "category": "SCENIC_POINT",
    "region": "Alps",
    "country": "Europe",
    "lat": 47.638391,
    "lng": 13.2804275,
    "nearest_airport": "SZG",
    "description": "Auto-imported SCENIC_POINT. Altitude: N/Am"
  },
  "aussichtspunkt-skywalk": {
    "name": "Aussichtspunkt Skywalk",
    "slug": "aussichtspunkt-skywalk",
    "category": "SCENIC_POINT",
    "region": "Alps",
    "country": "Europe",
    "lat": 47.564305,
    "lng": 9.8265551,
    "nearest_airport": "ZRH",
    "description": "Auto-imported SCENIC_POINT. Altitude: N/Am"
  },
  "aussichtspunkt-sogn-luregn-paspels": {
    "name": "Aussichtspunkt Sogn Luregn, Paspels",
    "slug": "aussichtspunkt-sogn-luregn-paspels",
    "category": "SCENIC_POINT",
    "region": "Alps",
    "country": "Europe",
    "lat": 46.7567986,
    "lng": 9.4374135,
    "nearest_airport": "ZRH",
    "description": "Auto-imported SCENIC_POINT. Altitude: N/Am"
  },
  "aussichtspunkt-sool": {
    "name": "Aussichtspunkt Sool",
    "slug": "aussichtspunkt-sool",
    "category": "SCENIC_POINT",
    "region": "Alps",
    "country": "Europe",
    "lat": 47.1311066,
    "lng": 9.031011,
    "nearest_airport": "ZRH",
    "description": "Auto-imported SCENIC_POINT. Altitude: N/Am"
  },
  "aussichtspunkt-spitzkofele-punto-dosservazione-spitzkofele": {
    "name": "Aussichtspunkt Spitzköfele - Punto d'osservazione Spitzköfele",
    "slug": "aussichtspunkt-spitzkofele-punto-dosservazione-spitzkofele",
    "category": "SCENIC_POINT",
    "region": "Alps",
    "country": "Europe",
    "lat": 46.479376,
    "lng": 11.449678,
    "nearest_airport": "INN",
    "description": "Auto-imported SCENIC_POINT. Altitude: N/Am"
  },
  "aussichtspunkt-tangerner-alm": {
    "name": "Aussichtspunkt Tangerner Alm",
    "slug": "aussichtspunkt-tangerner-alm",
    "category": "SCENIC_POINT",
    "region": "Alps",
    "country": "Europe",
    "lat": 46.8416795,
    "lng": 13.553521,
    "nearest_airport": "SZG",
    "description": "View of the Lake Millstatt, the Drava Valley and the surrounding mountains."
  },
  "aussichtspunkt-uber-maisinger-schlucht": {
    "name": "Aussichtspunkt über Maisinger Schlucht",
    "slug": "aussichtspunkt-uber-maisinger-schlucht",
    "category": "SCENIC_POINT",
    "region": "Alps",
    "country": "Europe",
    "lat": 47.9942501,
    "lng": 11.3115447,
    "nearest_airport": "MUC",
    "description": "Auto-imported SCENIC_POINT. Altitude: N/Am"
  },
  "aussichtspunkt-unterraderach": {
    "name": "Aussichtspunkt Unterraderach",
    "slug": "aussichtspunkt-unterraderach",
    "category": "SCENIC_POINT",
    "region": "Alps",
    "country": "Europe",
    "lat": 47.6875859,
    "lng": 9.4407351,
    "nearest_airport": "ZRH",
    "description": "Auto-imported SCENIC_POINT. Altitude: N/Am"
  },
  "aussichtspunkt-veitsburg": {
    "name": "Aussichtspunkt Veitsburg",
    "slug": "aussichtspunkt-veitsburg",
    "category": "SCENIC_POINT",
    "region": "Alps",
    "country": "Europe",
    "lat": 47.7783081,
    "lng": 9.6164085,
    "nearest_airport": "ZRH",
    "description": "Auto-imported SCENIC_POINT. Altitude: N/Am"
  },
  "aussichtspunkt-weisser-pavillon": {
    "name": "Aussichtspunkt Weißer Pavillon",
    "slug": "aussichtspunkt-weisser-pavillon",
    "category": "SCENIC_POINT",
    "region": "Alps",
    "country": "Europe",
    "lat": 47.7717737,
    "lng": 9.1373476,
    "nearest_airport": "ZRH",
    "description": "Auto-imported SCENIC_POINT. Altitude: N/Am"
  },
  "aussichtspunkt-weissjackl": {
    "name": "Aussichtspunkt Weißjackl",
    "slug": "aussichtspunkt-weissjackl",
    "category": "SCENIC_POINT",
    "region": "Alps",
    "country": "Europe",
    "lat": 47.7028539,
    "lng": 16.1776354,
    "nearest_airport": "VIE",
    "description": "Auto-imported SCENIC_POINT. Altitude: 571m"
  },
  "aussichtspunkt-wetterkreuz": {
    "name": "Aussichtspunkt Wetterkreuz",
    "slug": "aussichtspunkt-wetterkreuz",
    "category": "SCENIC_POINT",
    "region": "Alps",
    "country": "Europe",
    "lat": 47.2922503,
    "lng": 11.1628548,
    "nearest_airport": "INN",
    "description": "Auto-imported SCENIC_POINT. Altitude: N/Am"
  },
  "aussichtspunkt-widdumer-weiher": {
    "name": "Aussichtspunkt Widdumer Weiher\"",
    "slug": "aussichtspunkt-widdumer-weiher",
    "category": "SCENIC_POINT",
    "region": "Alps",
    "country": "Europe",
    "lat": 47.6303607,
    "lng": 10.3014198,
    "nearest_airport": "INN",
    "description": "Auto-imported SCENIC_POINT. Altitude: N/Am"
  },
  "aussichtspunkt-wiesner-viadukt-nord": {
    "name": "Aussichtspunkt Wiesner Viadukt Nord",
    "slug": "aussichtspunkt-wiesner-viadukt-nord",
    "category": "SCENIC_POINT",
    "region": "Alps",
    "country": "Europe",
    "lat": 46.6956615,
    "lng": 9.7134075,
    "nearest_airport": "ZRH",
    "description": "Auto-imported SCENIC_POINT. Altitude: N/Am"
  },
  "aussichtspunkt-wiesner-viadukt-sud": {
    "name": "Aussichtspunkt Wiesner Viadukt Süd",
    "slug": "aussichtspunkt-wiesner-viadukt-sud",
    "category": "SCENIC_POINT",
    "region": "Alps",
    "country": "Europe",
    "lat": 46.6934344,
    "lng": 9.7123669,
    "nearest_airport": "ZRH",
    "description": "Aussichtspunkt Wiesner Viadukt Süd"
  },
  "aussichtspunkt-windegg": {
    "name": "Aussichtspunkt Windegg",
    "slug": "aussichtspunkt-windegg",
    "category": "SCENIC_POINT",
    "region": "Alps",
    "country": "Europe",
    "lat": 46.9618004,
    "lng": 9.4849993,
    "nearest_airport": "ZRH",
    "description": "Auto-imported SCENIC_POINT. Altitude: N/Am"
  },
  "aussichtspunkt-zum-wasserfall": {
    "name": "Aussichtspunkt zum Wasserfall",
    "slug": "aussichtspunkt-zum-wasserfall",
    "category": "SCENIC_POINT",
    "region": "Alps",
    "country": "Europe",
    "lat": 47.1142825,
    "lng": 9.8740675,
    "nearest_airport": "ZRH",
    "description": "Auto-imported SCENIC_POINT. Altitude: N/Am"
  },
  "aussichtspunkt-zur-imne": {
    "name": "Aussichtspunkt Zur \"Imne\"",
    "slug": "aussichtspunkt-zur-imne",
    "category": "SCENIC_POINT",
    "region": "Alps",
    "country": "Europe",
    "lat": 47.5129396,
    "lng": 10.3646263,
    "nearest_airport": "INN",
    "description": "Auto-imported SCENIC_POINT. Altitude: N/Am"
  },
  "aussichtspunkt-zwurms": {
    "name": "Aussichtspunkt Zwurms",
    "slug": "aussichtspunkt-zwurms",
    "category": "SCENIC_POINT",
    "region": "Alps",
    "country": "Europe",
    "lat": 47.3303297,
    "lng": 9.6539504,
    "nearest_airport": "ZRH",
    "description": "Auto-imported SCENIC_POINT. Altitude: N/Am"
  },
  "aussichtsstand": {
    "name": "Aussichtsstand",
    "slug": "aussichtsstand",
    "category": "SCENIC_POINT",
    "region": "Alps",
    "country": "Europe",
    "lat": 47.7898256,
    "lng": 15.913825,
    "nearest_airport": "VIE",
    "description": "Auto-imported SCENIC_POINT. Altitude: N/Am"
  },
  "aussichtsstand-eichbuhl": {
    "name": "Aussichtsstand Eichbühl",
    "slug": "aussichtsstand-eichbuhl",
    "category": "SCENIC_POINT",
    "region": "Alps",
    "country": "Europe",
    "lat": 47.9913512,
    "lng": 8.8094777,
    "nearest_airport": "ZRH",
    "description": "Auto-imported SCENIC_POINT. Altitude: N/Am"
  },
  "aussichtsterrase-nauders-zirm": {
    "name": "Aussichtsterrase Nauders-Zirm",
    "slug": "aussichtsterrase-nauders-zirm",
    "category": "SCENIC_POINT",
    "region": "Alps",
    "country": "Europe",
    "lat": 46.8516392,
    "lng": 10.5451915,
    "nearest_airport": "INN",
    "description": "Auto-imported SCENIC_POINT. Altitude: N/Am"
  },
  "aussichtsterrasse": {
    "name": "Aussichtsterrasse",
    "slug": "aussichtsterrasse",
    "category": "SCENIC_POINT",
    "region": "Alps",
    "country": "Europe",
    "lat": 47.239144,
    "lng": 10.7635761,
    "nearest_airport": "INN",
    "description": "Auto-imported SCENIC_POINT. Altitude: N/Am"
  },
  "aussichtsterrasse-steyrdurchbruch": {
    "name": "Aussichtsterrasse Steyrdurchbruch",
    "slug": "aussichtsterrasse-steyrdurchbruch",
    "category": "SCENIC_POINT",
    "region": "Alps",
    "country": "Europe",
    "lat": 47.8658984,
    "lng": 14.1982657,
    "nearest_airport": "SZG",
    "description": "Auto-imported SCENIC_POINT. Altitude: N/Am"
  },
  "aussichtsterrasse-steyrdurchbruch-1284": {
    "name": "Aussichtsterrasse Steyrdurchbruch",
    "slug": "aussichtsterrasse-steyrdurchbruch-1284",
    "category": "SCENIC_POINT",
    "region": "Alps",
    "country": "",
    "lat": 47.8658984,
    "lng": 14.1982657,
    "nearest_airport": "",
    "description": "Verified Location."
  },
  "aussichtsturm": {
    "name": "Aussichtsturm",
    "slug": "aussichtsturm",
    "category": "SCENIC_POINT",
    "region": "Alps",
    "country": "Europe",
    "lat": 47.869167,
    "lng": 10.1773471,
    "nearest_airport": "INN",
    "description": "Auto-imported SCENIC_POINT. Altitude: N/Am"
  },
  "aussichtsturm-2631": {
    "name": "Aussichtsturm",
    "slug": "aussichtsturm-2631",
    "category": "SCENIC_POINT",
    "region": "Alps",
    "country": "",
    "lat": 47.7589204,
    "lng": 9.7118357,
    "nearest_airport": "",
    "description": "Verified Location."
  },
  "aussichtsturm-am-wolfsee": {
    "name": "Aussichtsturm am Wolfsee",
    "slug": "aussichtsturm-am-wolfsee",
    "category": "SCENIC_POINT",
    "region": "Alps",
    "country": "Europe",
    "lat": 47.0591055,
    "lng": 10.6316671,
    "nearest_airport": "INN",
    "description": "Auto-imported SCENIC_POINT. Altitude: N/Am"
  },
  "aussichtsturm-bergfriedberg": {
    "name": "Aussichtsturm BERG:FRIED:BERG",
    "slug": "aussichtsturm-bergfriedberg",
    "category": "SCENIC_POINT",
    "region": "Alps",
    "country": "Europe",
    "lat": 47.4438772,
    "lng": 16.0547763,
    "nearest_airport": "VIE",
    "description": "Auto-imported SCENIC_POINT. Altitude: N/Am"
  },
  "aussichtsturm-burgli-schloss": {
    "name": "Aussichtsturm Bürgli-Schloß",
    "slug": "aussichtsturm-burgli-schloss",
    "category": "SCENIC_POINT",
    "region": "Alps",
    "country": "Europe",
    "lat": 47.7027635,
    "lng": 8.7480445,
    "nearest_airport": "ZRH",
    "description": "Auto-imported SCENIC_POINT. Altitude: N/Am"
  },
  "aussichtsturm-chuderhusi": {
    "name": "Aussichtsturm Chuderhüsi",
    "slug": "aussichtsturm-chuderhusi",
    "category": "SCENIC_POINT",
    "region": "Alps",
    "country": "Europe",
    "lat": 46.8685734,
    "lng": 7.7184033,
    "nearest_airport": "ZRH",
    "description": "Auto-imported SCENIC_POINT. Altitude: N/Am"
  },
  "aussichtsturm-chuderhusi-704": {
    "name": "Aussichtsturm Chuderhüsi",
    "slug": "aussichtsturm-chuderhusi-704",
    "category": "SCENIC_POINT",
    "region": "Alps",
    "country": "",
    "lat": 46.8685734,
    "lng": 7.7184033,
    "nearest_airport": "",
    "description": "Verified Location."
  },
  "aussichtsturm-fur-kinder": {
    "name": "Aussichtsturm für Kinder",
    "slug": "aussichtsturm-fur-kinder",
    "category": "SCENIC_POINT",
    "region": "Alps",
    "country": "Europe",
    "lat": 47.1079586,
    "lng": 11.6729126,
    "nearest_airport": "INN",
    "description": "Auto-imported SCENIC_POINT. Altitude: N/Am"
  },
  "aussichtsturm-garber": {
    "name": "Aussichtsturm Garber",
    "slug": "aussichtsturm-garber",
    "category": "SCENIC_POINT",
    "region": "Alps",
    "country": "Europe",
    "lat": 46.696085,
    "lng": 15.2184074,
    "nearest_airport": "VIE",
    "description": "Auto-imported SCENIC_POINT. Altitude: N/Am"
  },
  "aussichtsturm-hardwald": {
    "name": "Aussichtsturm Hardwald",
    "slug": "aussichtsturm-hardwald",
    "category": "SCENIC_POINT",
    "region": "Alps",
    "country": "Europe",
    "lat": 47.4360711,
    "lng": 8.6002231,
    "nearest_airport": "ZRH",
    "description": "Auto-imported SCENIC_POINT. Altitude: N/Am"
  },
  "aussichtsturm-hochsten": {
    "name": "Aussichtsturm Höchsten",
    "slug": "aussichtsturm-hochsten",
    "category": "SCENIC_POINT",
    "region": "Alps",
    "country": "Europe",
    "lat": 47.8189945,
    "lng": 9.4023998,
    "nearest_airport": "ZRH",
    "description": "Auto-imported SCENIC_POINT. Altitude: N/Am"
  },
  "aussichtsturm-hohe-wand": {
    "name": "Aussichtsturm Hohe Wand",
    "slug": "aussichtsturm-hohe-wand",
    "category": "SCENIC_POINT",
    "region": "Alps",
    "country": "Europe",
    "lat": 47.8383519,
    "lng": 16.0187325,
    "nearest_airport": "VIE",
    "description": "Auto-imported SCENIC_POINT. Altitude: 1035m"
  },
  "aussichtsturm-hohenhewen": {
    "name": "Aussichtsturm Hohenhewen",
    "slug": "aussichtsturm-hohenhewen",
    "category": "SCENIC_POINT",
    "region": "Alps",
    "country": "Europe",
    "lat": 47.8362771,
    "lng": 8.7471059,
    "nearest_airport": "ZRH",
    "description": "Auto-imported SCENIC_POINT. Altitude: 846m"
  },
  "aussichtsturm-hollkopf": {
    "name": "Aussichtsturm Höllkopf",
    "slug": "aussichtsturm-hollkopf",
    "category": "SCENIC_POINT",
    "region": "Alps",
    "country": "Europe",
    "lat": 47.4731248,
    "lng": 10.7943877,
    "nearest_airport": "INN",
    "description": "Auto-imported SCENIC_POINT. Altitude: N/Am"
  },
  "aussichtsturm-pfannenstiel-alter-bachtelturm": {
    "name": "Aussichtsturm Pfannenstiel (Alter Bachtelturm)",
    "slug": "aussichtsturm-pfannenstiel-alter-bachtelturm",
    "category": "SCENIC_POINT",
    "region": "Alps",
    "country": "Europe",
    "lat": 47.2907129,
    "lng": 8.6733614,
    "nearest_airport": "ZRH",
    "description": "Auto-imported SCENIC_POINT. Altitude: N/Am"
  },
  "aussichtsturm-pfannenstiel-alter-bachtelturm-35": {
    "name": "Aussichtsturm Pfannenstiel (Alter Bachtelturm)",
    "slug": "aussichtsturm-pfannenstiel-alter-bachtelturm-35",
    "category": "SCENIC_POINT",
    "region": "Alps",
    "country": "",
    "lat": 47.2907129,
    "lng": 8.6733614,
    "nearest_airport": "",
    "description": "Verified Location."
  },
  "aussichtsturm-ulmizberg": {
    "name": "Aussichtsturm Ulmizberg",
    "slug": "aussichtsturm-ulmizberg",
    "category": "SCENIC_POINT",
    "region": "Alps",
    "country": "Europe",
    "lat": 46.9005428,
    "lng": 7.434055,
    "nearest_airport": "ZRH",
    "description": "Auto-imported SCENIC_POINT. Altitude: N/Am"
  },
  "aussichtsturm-ulmizberg-207": {
    "name": "Aussichtsturm Ulmizberg",
    "slug": "aussichtsturm-ulmizberg-207",
    "category": "SCENIC_POINT",
    "region": "Alps",
    "country": "",
    "lat": 46.9005428,
    "lng": 7.434055,
    "nearest_airport": "",
    "description": "Verified Location."
  },
  "aussichtsturm-wiesen-lanzenkirchen": {
    "name": "Aussichtsturm Wiesen-Lanzenkirchen",
    "slug": "aussichtsturm-wiesen-lanzenkirchen",
    "category": "SCENIC_POINT",
    "region": "Alps",
    "country": "Europe",
    "lat": 47.7238706,
    "lng": 16.2911518,
    "nearest_airport": "VIE",
    "description": "Auto-imported SCENIC_POINT. Altitude: N/Am"
  },
  "aussichtswarte": {
    "name": "Aussichtswarte",
    "slug": "aussichtswarte",
    "category": "SCENIC_POINT",
    "region": "Alps",
    "country": "Europe",
    "lat": 47.1651095,
    "lng": 10.5947554,
    "nearest_airport": "INN",
    "description": "Auto-imported SCENIC_POINT. Altitude: N/Am"
  },
  "aussichtswarte-aschau": {
    "name": "Aussichtswarte Aschau",
    "slug": "aussichtswarte-aschau",
    "category": "SCENIC_POINT",
    "region": "Alps",
    "country": "Europe",
    "lat": 47.4027981,
    "lng": 16.1954819,
    "nearest_airport": "VIE",
    "description": "Auto-imported SCENIC_POINT. Altitude: N/Am"
  },
  "aussichtswarte-bellavista": {
    "name": "Aussichtswarte - Bellavista",
    "slug": "aussichtswarte-bellavista",
    "category": "SCENIC_POINT",
    "region": "Alps",
    "country": "Europe",
    "lat": 46.7519356,
    "lng": 12.1317877,
    "nearest_airport": "INN",
    "description": "Auto-imported SCENIC_POINT. Altitude: N/Am"
  },
  "aussichtswarte-oberkogler": {
    "name": "Aussichtswarte Oberkogler",
    "slug": "aussichtswarte-oberkogler",
    "category": "SCENIC_POINT",
    "region": "Alps",
    "country": "Europe",
    "lat": 47.5687141,
    "lng": 14.1774042,
    "nearest_airport": "SZG",
    "description": "Auto-imported SCENIC_POINT. Altitude: N/Am"
  },
  "aussichtswarte-st-anna": {
    "name": "Aussichtswarte St. Anna",
    "slug": "aussichtswarte-st-anna",
    "category": "SCENIC_POINT",
    "region": "Alps",
    "country": "Europe",
    "lat": 47.0327897,
    "lng": 14.7039476,
    "nearest_airport": "SZG",
    "description": "Auto-imported SCENIC_POINT. Altitude: N/Am"
  },
  "ausssichtswarte-ruine-pflindsberg": {
    "name": "Ausssichtswarte Ruine Pflindsberg",
    "slug": "ausssichtswarte-ruine-pflindsberg",
    "category": "SCENIC_POINT",
    "region": "Alps",
    "country": "Europe",
    "lat": 47.637419,
    "lng": 13.7421537,
    "nearest_airport": "SZG",
    "description": "Auto-imported SCENIC_POINT. Altitude: N/Am"
  },
  "aux-larits": {
    "name": "Aux larits",
    "slug": "aux-larits",
    "category": "SCENIC_POINT",
    "region": "Alps",
    "country": "Europe",
    "lat": 46.5445126,
    "lng": 6.5045172,
    "nearest_airport": "GVA",
    "description": "Auto-imported SCENIC_POINT. Altitude: 470m"
  }
}