{
  "ciabot-nerca": {
    "name": "Ciabot Nerca",
    "slug": "ciabot-nerca",
    "category": "SCENIC_POINT",
    "region": "Alps",
    "country": "Europe",
    "lat": 44.8364732,
    "lng": 8.2048746,
    "nearest_airport": "TRN",
    "description": "Auto-imported SCENIC_POINT. Altitude: N/Am"
  },
  "cian-bombarda": {
    "name": "Cian Bombarda",
    "slug": "cian-bombarda",
    "category": "MOUNTAIN_PASS",
    "region": "Alps",
    "country": "Europe",
    "lat": 44.392351,
    "lng": 8.3800311,
    "nearest_airport": "TRN",
    "description": "Auto-imported MOUNTAIN_PASS. Altitude: 815m"
  },
  "cima-alta": {
    "name": "Cima Alta",
    "slug": "cima-alta",
    "category": "SCENIC_POINT",
    "region": "Alps",
    "country": "Europe",
    "lat": 45.7731111,
    "lng": 11.3128377,
    "nearest_airport": "VCE",
    "description": "Auto-imported SCENIC_POINT. Altitude: 1629m"
  },
  "cima-castel": {
    "name": "Cima Castel",
    "slug": "cima-castel",
    "category": "SCENIC_POINT",
    "region": "Alps",
    "country": "Europe",
    "lat": 45.850051,
    "lng": 11.8167079,
    "nearest_airport": "VCE",
    "description": "Auto-imported SCENIC_POINT. Altitude: N/Am"
  },
  "cima-celva": {
    "name": "Cima Celva",
    "slug": "cima-celva",
    "category": "SCENIC_POINT",
    "region": "Alps",
    "country": "Europe",
    "lat": 46.073892,
    "lng": 11.1840592,
    "nearest_airport": "VCE",
    "description": "Auto-imported SCENIC_POINT. Altitude: 998m"
  },
  "cima-colletta": {
    "name": "Cima Colletta",
    "slug": "cima-colletta",
    "category": "SCENIC_POINT",
    "region": "Alps",
    "country": "Europe",
    "lat": 46.036813,
    "lng": 8.8483232,
    "nearest_airport": "MXP",
    "description": "Auto-imported SCENIC_POINT. Altitude: N/Am"
  },
  "cima-dante": {
    "name": "Cima Dante",
    "slug": "cima-dante",
    "category": "MOUNTAIN_PASS",
    "region": "Alps",
    "country": "Europe",
    "lat": 44.0454814,
    "lng": 12.2133845,
    "nearest_airport": "VCE",
    "description": "Auto-imported MOUNTAIN_PASS. Altitude: 394m"
  },
  "cima-delluomo": {
    "name": "Cima dell'Uomo",
    "slug": "cima-delluomo",
    "category": "SCENIC_POINT",
    "region": "Alps",
    "country": "Europe",
    "lat": 46.2329701,
    "lng": 8.9382027,
    "nearest_airport": "MXP",
    "description": "Auto-imported SCENIC_POINT. Altitude: 2389m"
  },
  "cima-delluomo-2241": {
    "name": "Cima dell'Uomo",
    "slug": "cima-delluomo-2241",
    "category": "SCENIC_POINT",
    "region": "Alps",
    "country": "",
    "lat": 46.2329701,
    "lng": 8.9382027,
    "nearest_airport": "",
    "description": "Verified Location."
  },
  "cima-di-fiorina": {
    "name": "Cima di Fiorina",
    "slug": "cima-di-fiorina",
    "category": "SCENIC_POINT",
    "region": "Alps",
    "country": "Europe",
    "lat": 46.0626362,
    "lng": 9.0728528,
    "nearest_airport": "MXP",
    "description": "Auto-imported SCENIC_POINT. Altitude: 1810m"
  },
  "cima-di-fiorina-3160": {
    "name": "Cima di Fiorina",
    "slug": "cima-di-fiorina-3160",
    "category": "SCENIC_POINT",
    "region": "Alps",
    "country": "",
    "lat": 46.0626362,
    "lng": 9.0728528,
    "nearest_airport": "",
    "description": "Verified Location."
  },
  "cima-di-gioia": {
    "name": "Cima di Gioia",
    "slug": "cima-di-gioia",
    "category": "SCENIC_POINT",
    "region": "Alps",
    "country": "Europe",
    "lat": 44.0801583,
    "lng": 10.1586022,
    "nearest_airport": "MXP",
    "description": "Auto-imported SCENIC_POINT. Altitude: 839m"
  },
  "cima-di-lan": {
    "name": "Cima di Lan",
    "slug": "cima-di-lan",
    "category": "SCENIC_POINT",
    "region": "Alps",
    "country": "Europe",
    "lat": 46.0117109,
    "lng": 11.754583,
    "nearest_airport": "VCE",
    "description": "Auto-imported SCENIC_POINT. Altitude: N/Am"
  },
  "cima-di-morissolo": {
    "name": "Cima di Morissolo",
    "slug": "cima-di-morissolo",
    "category": "SCENIC_POINT",
    "region": "Alps",
    "country": "Europe",
    "lat": 46.0215317,
    "lng": 8.6455783,
    "nearest_airport": "MXP",
    "description": "Auto-imported SCENIC_POINT. Altitude: 1311m"
  },
  "cima-di-val-loga-centrale": {
    "name": "Cima di Val Loga Centrale",
    "slug": "cima-di-val-loga-centrale",
    "category": "SCENIC_POINT",
    "region": "Alps",
    "country": "Europe",
    "lat": 46.4747198,
    "lng": 9.2761361,
    "nearest_airport": "MXP",
    "description": "Auto-imported SCENIC_POINT. Altitude: 3005m"
  },
  "cima-di-val-loga-centrale-715": {
    "name": "Cima di Val Loga Centrale",
    "slug": "cima-di-val-loga-centrale-715",
    "category": "SCENIC_POINT",
    "region": "Alps",
    "country": "",
    "lat": 46.4747198,
    "lng": 9.2761361,
    "nearest_airport": "",
    "description": "Verified Location."
  },
  "cima-gallisterna": {
    "name": "Cima Gallisterna",
    "slug": "cima-gallisterna",
    "category": "SCENIC_POINT",
    "region": "Alps",
    "country": "Europe",
    "lat": 44.2805,
    "lng": 11.6841317,
    "nearest_airport": "VCE",
    "description": "Auto-imported SCENIC_POINT. Altitude: N/Am"
  },
  "cima-sappada": {
    "name": "Cima Sappada",
    "slug": "cima-sappada",
    "category": "MOUNTAIN_PASS",
    "region": "Alps",
    "country": "Europe",
    "lat": 46.5701766,
    "lng": 12.7212058,
    "nearest_airport": "VCE",
    "description": "Auto-imported MOUNTAIN_PASS. Altitude: 1292m"
  },
  "cima-sappada-60": {
    "name": "Cima Sappada",
    "slug": "cima-sappada-60",
    "category": "MOUNTAIN_PASS",
    "region": "Alps",
    "country": "",
    "lat": 46.5701766,
    "lng": 12.7212058,
    "nearest_airport": "",
    "description": "Verified Location."
  },
  "cime-de-castel-vieil": {
    "name": "Cime de Castel Vieil",
    "slug": "cime-de-castel-vieil",
    "category": "SCENIC_POINT",
    "region": "Alps",
    "country": "Europe",
    "lat": 44.0279436,
    "lng": 7.2947052,
    "nearest_airport": "NCE",
    "description": "Auto-imported SCENIC_POINT. Altitude: 1305m"
  },
  "cime-de-la-bonette": {
    "name": "Cime de la Bonette",
    "slug": "cime-de-la-bonette",
    "category": "SCENIC_POINT",
    "region": "Alps",
    "country": "Europe",
    "lat": 44.3216186,
    "lng": 6.8068886,
    "nearest_airport": "NCE",
    "description": "Auto-imported SCENIC_POINT. Altitude: 2860m"
  },
  "cime-de-la-bonette-2488": {
    "name": "Cime de la Bonette",
    "slug": "cime-de-la-bonette-2488",
    "category": "SCENIC_POINT",
    "region": "Alps",
    "country": "",
    "lat": 44.3216186,
    "lng": 6.8068886,
    "nearest_airport": "",
    "description": "Verified Location."
  },
  "cimetiere-colline-du-chateau": {
    "name": "Cimetière - colline du chateau",
    "slug": "cimetiere-colline-du-chateau",
    "category": "SCENIC_POINT",
    "region": "Alps",
    "country": "Europe",
    "lat": 43.6976015,
    "lng": 7.2796923,
    "nearest_airport": "NCE",
    "description": "Auto-imported SCENIC_POINT. Altitude: N/Am"
  },
  "cimetta": {
    "name": "Cimetta",
    "slug": "cimetta",
    "category": "SCENIC_POINT",
    "region": "Alps",
    "country": "Europe",
    "lat": 46.2008148,
    "lng": 8.7910473,
    "nearest_airport": "MXP",
    "description": "Auto-imported SCENIC_POINT. Altitude: 1671m"
  },
  "cimetta-1147": {
    "name": "Cimetta",
    "slug": "cimetta-1147",
    "category": "SCENIC_POINT",
    "region": "Alps",
    "country": "",
    "lat": 46.2008148,
    "lng": 8.7910473,
    "nearest_airport": "",
    "description": "Verified Location."
  },
  "cino": {
    "name": "Cino",
    "slug": "cino",
    "category": "SCENIC_POINT",
    "region": "Alps",
    "country": "Europe",
    "lat": 46.1579719,
    "lng": 9.4911446,
    "nearest_airport": "MXP",
    "description": "Auto-imported SCENIC_POINT. Altitude: 510m"
  },
  "cinque-terre-cornelia": {
    "name": "Cinque terre Cornelia",
    "slug": "cinque-terre-cornelia",
    "category": "SCENIC_POINT",
    "region": "Alps",
    "country": "Europe",
    "lat": 44.1195263,
    "lng": 9.7078542,
    "nearest_airport": "MXP",
    "description": "Auto-imported SCENIC_POINT. Altitude: N/Am"
  },
  "cirque-de-barries": {
    "name": "Cirque de Barriès",
    "slug": "cirque-de-barries",
    "category": "SCENIC_POINT",
    "region": "Alps",
    "country": "Europe",
    "lat": 43.913911,
    "lng": 5.5105094,
    "nearest_airport": "NCE",
    "description": "Auto-imported SCENIC_POINT. Altitude: N/Am"
  },
  "cirque-de-vaumale": {
    "name": "cirque de Vaumale",
    "slug": "cirque-de-vaumale",
    "category": "SCENIC_POINT",
    "region": "Alps",
    "country": "Europe",
    "lat": 43.7677452,
    "lng": 6.2745084,
    "nearest_airport": "NCE",
    "description": "Vue sur le grand canyon depuis la route de Comps (rive gauche du Verdon)"
  },
  "cirque-du-fer-a-cheval": {
    "name": "Cirque du Fer à Cheval",
    "slug": "cirque-du-fer-a-cheval",
    "category": "SCENIC_POINT",
    "region": "Alps",
    "country": "Europe",
    "lat": 46.0772524,
    "lng": 6.8405014,
    "nearest_airport": "GVA",
    "description": "Auto-imported SCENIC_POINT. Altitude: N/Am"
  },
  "ciuc": {
    "name": "Ciuc",
    "slug": "ciuc",
    "category": "SCENIC_POINT",
    "region": "Alps",
    "country": "Europe",
    "lat": 46.2399509,
    "lng": 13.1675997,
    "nearest_airport": "VCE",
    "description": "Auto-imported SCENIC_POINT. Altitude: N/Am"
  }
}