{
  "col-marcage": {
    "name": "Col Marcage",
    "slug": "col-marcage",
    "category": "MOUNTAIN_PASS",
    "region": "Alps",
    "country": "Europe",
    "lat": 45.7142177,
    "lng": 7.6542791,
    "nearest_airport": "TRN",
    "description": "Auto-imported MOUNTAIN_PASS. Altitude: 1077m"
  },
  "col-matacharre": {
    "name": "Col Matacharre",
    "slug": "col-matacharre",
    "category": "MOUNTAIN_PASS",
    "region": "Alps",
    "country": "Europe",
    "lat": 44.5979225,
    "lng": 5.9212073,
    "nearest_airport": "NCE",
    "description": "Auto-imported MOUNTAIN_PASS. Altitude: N/Am"
  },
  "col-mayt": {
    "name": "Col Mayt",
    "slug": "col-mayt",
    "category": "MOUNTAIN_PASS",
    "region": "Alps",
    "country": "Europe",
    "lat": 44.8543135,
    "lng": 6.955656,
    "nearest_airport": "TRN",
    "description": "Auto-imported MOUNTAIN_PASS. Altitude: 2706m"
  },
  "col-mayt-3456": {
    "name": "Col Mayt",
    "slug": "col-mayt-3456",
    "category": "MOUNTAIN_PASS",
    "region": "Alps",
    "country": "",
    "lat": 44.8543135,
    "lng": 6.955656,
    "nearest_airport": "",
    "description": "Verified Location."
  },
  "col-merciere": {
    "name": "Col Mercière",
    "slug": "col-merciere",
    "category": "MOUNTAIN_PASS",
    "region": "Alps",
    "country": "Europe",
    "lat": 44.1774906,
    "lng": 7.1842873,
    "nearest_airport": "NCE",
    "description": "Auto-imported MOUNTAIN_PASS. Altitude: 2342m"
  },
  "col-merciere-610": {
    "name": "Col Mercière",
    "slug": "col-merciere-610",
    "category": "MOUNTAIN_PASS",
    "region": "Alps",
    "country": "",
    "lat": 44.1774906,
    "lng": 7.1842873,
    "nearest_airport": "",
    "description": "Verified Location."
  },
  "col-mezien": {
    "name": "Col Mézien",
    "slug": "col-mezien",
    "category": "MOUNTAIN_PASS",
    "region": "Alps",
    "country": "Europe",
    "lat": 44.2055693,
    "lng": 5.9753767,
    "nearest_airport": "NCE",
    "description": "Auto-imported MOUNTAIN_PASS. Altitude: N/Am"
  },
  "col-montagnaya": {
    "name": "Col Montagnaya",
    "slug": "col-montagnaya",
    "category": "MOUNTAIN_PASS",
    "region": "Alps",
    "country": "Europe",
    "lat": 45.8515906,
    "lng": 7.4896487,
    "nearest_airport": "TRN",
    "description": "Auto-imported MOUNTAIN_PASS. Altitude: 2903m"
  },
  "col-montagnaya-3764": {
    "name": "Col Montagnaya",
    "slug": "col-montagnaya-3764",
    "category": "MOUNTAIN_PASS",
    "region": "Alps",
    "country": "",
    "lat": 45.8515906,
    "lng": 7.4896487,
    "nearest_airport": "",
    "description": "Verified Location."
  },
  "col-montjoie": {
    "name": "Col Montjoie",
    "slug": "col-montjoie",
    "category": "MOUNTAIN_PASS",
    "region": "Alps",
    "country": "Europe",
    "lat": 45.4332414,
    "lng": 6.3349055,
    "nearest_airport": "GVA",
    "description": "Auto-imported MOUNTAIN_PASS. Altitude: 2258m"
  },
  "col-montjoie-2846": {
    "name": "Col Montjoie",
    "slug": "col-montjoie-2846",
    "category": "MOUNTAIN_PASS",
    "region": "Alps",
    "country": "",
    "lat": 45.4332414,
    "lng": 6.3349055,
    "nearest_airport": "",
    "description": "Verified Location."
  },
  "col-moutsaillon": {
    "name": "Col Moutsaillon",
    "slug": "col-moutsaillon",
    "category": "MOUNTAIN_PASS",
    "region": "Alps",
    "country": "Europe",
    "lat": 45.6193286,
    "lng": 7.5162659,
    "nearest_airport": "TRN",
    "description": "Auto-imported MOUNTAIN_PASS. Altitude: 2847m"
  },
  "col-moutsaillon-2260": {
    "name": "Col Moutsaillon",
    "slug": "col-moutsaillon-2260",
    "category": "MOUNTAIN_PASS",
    "region": "Alps",
    "country": "",
    "lat": 45.6193286,
    "lng": 7.5162659,
    "nearest_airport": "",
    "description": "Verified Location."
  },
  "colma-ballano": {
    "name": "Colma Ballano",
    "slug": "colma-ballano",
    "category": "MOUNTAIN_PASS",
    "region": "Alps",
    "country": "Europe",
    "lat": 45.8282916,
    "lng": 8.3014393,
    "nearest_airport": "MXP",
    "description": "Auto-imported MOUNTAIN_PASS. Altitude: 1123m"
  },
  "colma-dei-cippiei": {
    "name": "Colma dei Cippiei",
    "slug": "colma-dei-cippiei",
    "category": "MOUNTAIN_PASS",
    "region": "Alps",
    "country": "Europe",
    "lat": 45.8926834,
    "lng": 9.2357965,
    "nearest_airport": "MXP",
    "description": "Auto-imported MOUNTAIN_PASS. Altitude: 1185m"
  },
  "colma-dei-prei": {
    "name": "Colma dei Prei",
    "slug": "colma-dei-prei",
    "category": "MOUNTAIN_PASS",
    "region": "Alps",
    "country": "Europe",
    "lat": 46.0337992,
    "lng": 8.1933527,
    "nearest_airport": "MXP",
    "description": "Auto-imported MOUNTAIN_PASS. Altitude: 1580m"
  },
  "colma-del-bosco": {
    "name": "Colma del Bosco",
    "slug": "colma-del-bosco",
    "category": "MOUNTAIN_PASS",
    "region": "Alps",
    "country": "Europe",
    "lat": 45.8990864,
    "lng": 9.2449768,
    "nearest_airport": "MXP",
    "description": "Auto-imported MOUNTAIN_PASS. Altitude: 1233m"
  },
  "colma-del-bugone": {
    "name": "Colma del Bugone",
    "slug": "colma-del-bugone",
    "category": "MOUNTAIN_PASS",
    "region": "Alps",
    "country": "Europe",
    "lat": 45.8748474,
    "lng": 9.086955,
    "nearest_airport": "MXP",
    "description": "Auto-imported MOUNTAIN_PASS. Altitude: 1110m"
  },
  "colma-del-crinco": {
    "name": "Colma del Crinco",
    "slug": "colma-del-crinco",
    "category": "MOUNTAIN_PASS",
    "region": "Alps",
    "country": "Europe",
    "lat": 45.884987,
    "lng": 9.1012885,
    "nearest_airport": "MXP",
    "description": "Auto-imported MOUNTAIN_PASS. Altitude: 1167m"
  },
  "colma-di-binate": {
    "name": "Colma di Binate",
    "slug": "colma-di-binate",
    "category": "MOUNTAIN_PASS",
    "region": "Alps",
    "country": "Europe",
    "lat": 45.9071385,
    "lng": 9.0976575,
    "nearest_airport": "MXP",
    "description": "Auto-imported MOUNTAIN_PASS. Altitude: 1133m"
  },
  "colma-di-lavaggio": {
    "name": "Colma di Lavaggio",
    "slug": "colma-di-lavaggio",
    "category": "MOUNTAIN_PASS",
    "region": "Alps",
    "country": "Europe",
    "lat": 45.8444646,
    "lng": 8.1593197,
    "nearest_airport": "MXP",
    "description": "Auto-imported MOUNTAIN_PASS. Altitude: 1518m"
  },
  "colma-di-sormano": {
    "name": "Colma di Sormano",
    "slug": "colma-di-sormano",
    "category": "MOUNTAIN_PASS",
    "region": "Alps",
    "country": "Europe",
    "lat": 45.8829576,
    "lng": 9.22901,
    "nearest_airport": "MXP",
    "description": "Auto-imported MOUNTAIN_PASS. Altitude: 1121m"
  },
  "colma-di-zana": {
    "name": "Colma di Zana",
    "slug": "colma-di-zana",
    "category": "MOUNTAIN_PASS",
    "region": "Alps",
    "country": "Europe",
    "lat": 46.2213369,
    "lng": 9.7856265,
    "nearest_airport": "MXP",
    "description": "Auto-imported MOUNTAIN_PASS. Altitude: 2416m"
  },
  "colma-di-zana-3721": {
    "name": "Colma di Zana",
    "slug": "colma-di-zana-3721",
    "category": "MOUNTAIN_PASS",
    "region": "Alps",
    "country": "",
    "lat": 46.2213369,
    "lng": 9.7856265,
    "nearest_airport": "",
    "description": "Verified Location."
  },
  "colma-galmanna": {
    "name": "Colma Galmanna",
    "slug": "colma-galmanna",
    "category": "MOUNTAIN_PASS",
    "region": "Alps",
    "country": "Europe",
    "lat": 45.8465957,
    "lng": 8.1537532,
    "nearest_airport": "MXP",
    "description": "Auto-imported MOUNTAIN_PASS. Altitude: 1452m"
  },
  "colma-murelli": {
    "name": "Colma Murelli",
    "slug": "colma-murelli",
    "category": "MOUNTAIN_PASS",
    "region": "Alps",
    "country": "Europe",
    "lat": 45.8903093,
    "lng": 9.1076597,
    "nearest_airport": "MXP",
    "description": "Auto-imported MOUNTAIN_PASS. Altitude: 1200m"
  },
  "colma-prabello": {
    "name": "Colma Prabello",
    "slug": "colma-prabello",
    "category": "MOUNTAIN_PASS",
    "region": "Alps",
    "country": "Europe",
    "lat": 45.9130724,
    "lng": 9.0732749,
    "nearest_airport": "MXP",
    "description": "Auto-imported MOUNTAIN_PASS. Altitude: 1201m"
  },
  "colmetta-del-bas": {
    "name": "Colmetta del Bas",
    "slug": "colmetta-del-bas",
    "category": "MOUNTAIN_PASS",
    "region": "Alps",
    "country": "Europe",
    "lat": 45.8933117,
    "lng": 8.0356422,
    "nearest_airport": "MXP",
    "description": "Auto-imported MOUNTAIN_PASS. Altitude: 2150m"
  },
  "colmetta-del-bas-2875": {
    "name": "Colmetta del Bas",
    "slug": "colmetta-del-bas-2875",
    "category": "MOUNTAIN_PASS",
    "region": "Alps",
    "country": "",
    "lat": 45.8933117,
    "lng": 8.0356422,
    "nearest_airport": "",
    "description": "Verified Location."
  },
  "colmetto-di-cevia": {
    "name": "Colmetto di Cevia",
    "slug": "colmetto-di-cevia",
    "category": "MOUNTAIN_PASS",
    "region": "Alps",
    "country": "Europe",
    "lat": 45.8889589,
    "lng": 8.2296099,
    "nearest_airport": "MXP",
    "description": "Auto-imported MOUNTAIN_PASS. Altitude: 1515m"
  }
}