{
  "crap-da-sevgein": {
    "name": "Crap da Sevgein",
    "slug": "crap-da-sevgein",
    "category": "SCENIC_POINT",
    "region": "Alps",
    "country": "Europe",
    "lat": 46.7596525,
    "lng": 9.2297271,
    "nearest_airport": "ZRH",
    "description": "Auto-imported SCENIC_POINT. Altitude: N/Am"
  },
  "crap-da-strias": {
    "name": "Crap da Strias",
    "slug": "crap-da-strias",
    "category": "SCENIC_POINT",
    "region": "Alps",
    "country": "Europe",
    "lat": 46.8106857,
    "lng": 9.2530526,
    "nearest_airport": "ZRH",
    "description": "Auto-imported SCENIC_POINT. Altitude: N/Am"
  },
  "crap-de-la-guardia": {
    "name": "Cràp de la Guardia",
    "slug": "crap-de-la-guardia",
    "category": "SCENIC_POINT",
    "region": "Alps",
    "country": "Europe",
    "lat": 46.1925474,
    "lng": 10.0107732,
    "nearest_airport": "MXP",
    "description": "Auto-imported SCENIC_POINT. Altitude: N/Am"
  },
  "crap-del-ges": {
    "name": "crap del Gés",
    "slug": "crap-del-ges",
    "category": "SCENIC_POINT",
    "region": "Alps",
    "country": "Europe",
    "lat": 46.4897628,
    "lng": 10.3466172,
    "nearest_airport": "INN",
    "description": "Auto-imported SCENIC_POINT. Altitude: N/Am"
  },
  "crap-la-tretscha": {
    "name": "Crap la Tretscha",
    "slug": "crap-la-tretscha",
    "category": "SCENIC_POINT",
    "region": "Alps",
    "country": "Europe",
    "lat": 46.6845279,
    "lng": 9.5499154,
    "nearest_airport": "ZRH",
    "description": "Auto-imported SCENIC_POINT. Altitude: 1411m"
  },
  "crap-signina": {
    "name": "Crap Signina",
    "slug": "crap-signina",
    "category": "SCENIC_POINT",
    "region": "Alps",
    "country": "Europe",
    "lat": 46.7972012,
    "lng": 9.2613853,
    "nearest_airport": "ZRH",
    "description": "Auto-imported SCENIC_POINT. Altitude: N/Am"
  },
  "crastota": {
    "name": "Crast'Ota",
    "slug": "crastota",
    "category": "SCENIC_POINT",
    "region": "Alps",
    "country": "Europe",
    "lat": 46.4955647,
    "lng": 9.9049509,
    "nearest_airport": "MXP",
    "description": "Auto-imported SCENIC_POINT. Altitude: N/Am"
  },
  "creblet": {
    "name": "Creblet",
    "slug": "creblet",
    "category": "MOUNTAIN_PASS",
    "region": "Alps",
    "country": "Europe",
    "lat": 46.1040219,
    "lng": 7.2654776,
    "nearest_airport": "GVA",
    "description": "Auto-imported MOUNTAIN_PASS. Altitude: N/Am"
  },
  "crep-checio-hohe-gaisl-croda-rossa-dampezzo": {
    "name": "Crep Checio - Hohe Gaisl - Croda Rossa d'Ampezzo",
    "slug": "crep-checio-hohe-gaisl-croda-rossa-dampezzo",
    "category": "SCENIC_POINT",
    "region": "Alps",
    "country": "Europe",
    "lat": 46.6340637,
    "lng": 12.1446665,
    "nearest_airport": "INN",
    "description": "Auto-imported SCENIC_POINT. Altitude: 3140m"
  },
  "crep-checio-hohe-gaisl-croda-rossa-dampezzo-2775": {
    "name": "Crep Checio - Hohe Gaisl - Croda Rossa d'Ampezzo",
    "slug": "crep-checio-hohe-gaisl-croda-rossa-dampezzo-2775",
    "category": "SCENIC_POINT",
    "region": "Alps",
    "country": "",
    "lat": 46.6340637,
    "lng": 12.1446665,
    "nearest_airport": "",
    "description": "Verified Location."
  },
  "crepa-de-kinada": {
    "name": "Crepa de Kinada",
    "slug": "crepa-de-kinada",
    "category": "SCENIC_POINT",
    "region": "Alps",
    "country": "Europe",
    "lat": 46.1040164,
    "lng": 10.9271535,
    "nearest_airport": "VCE",
    "description": "Auto-imported SCENIC_POINT. Altitude: N/Am"
  },
  "crest-la-crusch": {
    "name": "Crest la Crusch",
    "slug": "crest-la-crusch",
    "category": "SCENIC_POINT",
    "region": "Alps",
    "country": "Europe",
    "lat": 46.764699,
    "lng": 9.0677114,
    "nearest_airport": "ZRH",
    "description": "Auto-imported SCENIC_POINT. Altitude: N/Am"
  },
  "cresta-della-ceresa": {
    "name": "Cresta della Ceresa",
    "slug": "cresta-della-ceresa",
    "category": "SCENIC_POINT",
    "region": "Alps",
    "country": "Europe",
    "lat": 46.0027926,
    "lng": 8.6242259,
    "nearest_airport": "MXP",
    "description": "Auto-imported SCENIC_POINT. Altitude: N/Am"
  },
  "cresta-di-navene": {
    "name": "Cresta di Navene",
    "slug": "cresta-di-navene",
    "category": "SCENIC_POINT",
    "region": "Alps",
    "country": "Europe",
    "lat": 45.7958563,
    "lng": 10.8735621,
    "nearest_airport": "VCE",
    "description": "Auto-imported SCENIC_POINT. Altitude: 1510m"
  },
  "creste-del-megon": {
    "name": "Creste del Megón",
    "slug": "creste-del-megon",
    "category": "SCENIC_POINT",
    "region": "Alps",
    "country": "Europe",
    "lat": 46.4455018,
    "lng": 11.9489262,
    "nearest_airport": "INN",
    "description": "Auto-imported SCENIC_POINT. Altitude: N/Am"
  },
  "cret-brule": {
    "name": "Crêt Brulé",
    "slug": "cret-brule",
    "category": "SCENIC_POINT",
    "region": "Alps",
    "country": "Europe",
    "lat": 45.9282656,
    "lng": 6.391537,
    "nearest_airport": "GVA",
    "description": "Auto-imported SCENIC_POINT. Altitude: N/Am"
  },
  "cret-dal-louf": {
    "name": "Cret dal Louf",
    "slug": "cret-dal-louf",
    "category": "SCENIC_POINT",
    "region": "Alps",
    "country": "Europe",
    "lat": 46.1991198,
    "lng": 12.9999312,
    "nearest_airport": "VCE",
    "description": "Auto-imported SCENIC_POINT. Altitude: N/Am"
  },
  "cret-de-beauregard": {
    "name": "Cret de Beauregard",
    "slug": "cret-de-beauregard",
    "category": "SCENIC_POINT",
    "region": "Alps",
    "country": "Europe",
    "lat": 46.0451226,
    "lng": 5.7268539,
    "nearest_airport": "GVA",
    "description": "Auto-imported SCENIC_POINT. Altitude: N/Am"
  },
  "cret-de-chalam": {
    "name": "Crêt de Chalam",
    "slug": "cret-de-chalam",
    "category": "SCENIC_POINT",
    "region": "Alps",
    "country": "Europe",
    "lat": 46.2504565,
    "lng": 5.8614303,
    "nearest_airport": "GVA",
    "description": "Auto-imported SCENIC_POINT. Altitude: 1545m"
  },
  "cret-de-montriond": {
    "name": "Crêt de Montriond",
    "slug": "cret-de-montriond",
    "category": "SCENIC_POINT",
    "region": "Alps",
    "country": "Europe",
    "lat": 46.5140457,
    "lng": 6.6239653,
    "nearest_airport": "GVA",
    "description": "Auto-imported SCENIC_POINT. Altitude: 452m"
  },
  "cret-des-faines": {
    "name": "Crêt des Faînes",
    "slug": "cret-des-faines",
    "category": "SCENIC_POINT",
    "region": "Alps",
    "country": "Europe",
    "lat": 45.2705368,
    "lng": 6.396315,
    "nearest_airport": "TRN",
    "description": "Auto-imported SCENIC_POINT. Altitude: N/Am"
  },
  "cret-du-chable": {
    "name": "Crêt du Chable",
    "slug": "cret-du-chable",
    "category": "SCENIC_POINT",
    "region": "Alps",
    "country": "Europe",
    "lat": 46.1613325,
    "lng": 6.221147,
    "nearest_airport": "GVA",
    "description": "Auto-imported SCENIC_POINT. Altitude: N/Am"
  },
  "cret-pilastri": {
    "name": "Cret pilastri",
    "slug": "cret-pilastri",
    "category": "SCENIC_POINT",
    "region": "Alps",
    "country": "Europe",
    "lat": 46.1814384,
    "lng": 12.9580939,
    "nearest_airport": "VCE",
    "description": "Auto-imported SCENIC_POINT. Altitude: N/Am"
  },
  "crete-de-cambon": {
    "name": "Crête de Cambon",
    "slug": "crete-de-cambon",
    "category": "SCENIC_POINT",
    "region": "Alps",
    "country": "Europe",
    "lat": 44.0414777,
    "lng": 6.8580625,
    "nearest_airport": "NCE",
    "description": "Auto-imported SCENIC_POINT. Altitude: 1280m"
  },
  "crete-des-rochers-de-leglise": {
    "name": "Crête des rochers de l'église",
    "slug": "crete-des-rochers-de-leglise",
    "category": "SCENIC_POINT",
    "region": "Alps",
    "country": "Europe",
    "lat": 45.2899132,
    "lng": 5.6982818,
    "nearest_airport": "GVA",
    "description": "Auto-imported SCENIC_POINT. Altitude: N/Am"
  },
  "crete-dourbes": {
    "name": "Crète d'Ourbes",
    "slug": "crete-dourbes",
    "category": "SCENIC_POINT",
    "region": "Alps",
    "country": "Europe",
    "lat": 43.8223373,
    "lng": 6.244082,
    "nearest_airport": "NCE",
    "description": "Auto-imported SCENIC_POINT. Altitude: N/Am"
  },
  "crete-du-bras": {
    "name": "Crête du bras",
    "slug": "crete-du-bras",
    "category": "SCENIC_POINT",
    "region": "Alps",
    "country": "Europe",
    "lat": 45.0838701,
    "lng": 6.0427788,
    "nearest_airport": "TRN",
    "description": "Auto-imported SCENIC_POINT. Altitude: N/Am"
  },
  "crete-du-chardonnet": {
    "name": "Crête du Chardonnet",
    "slug": "crete-du-chardonnet",
    "category": "SCENIC_POINT",
    "region": "Alps",
    "country": "Europe",
    "lat": 45.0237743,
    "lng": 6.4951418,
    "nearest_airport": "TRN",
    "description": "Auto-imported SCENIC_POINT. Altitude: 2713m"
  },
  "creux-billard": {
    "name": "Creux Billard",
    "slug": "creux-billard",
    "category": "SCENIC_POINT",
    "region": "Alps",
    "country": "Europe",
    "lat": 46.9641396,
    "lng": 6.0126239,
    "nearest_airport": "GVA",
    "description": "Auto-imported SCENIC_POINT. Altitude: N/Am"
  },
  "creux-de-hauteroche": {
    "name": "Creux de Hauteroche",
    "slug": "creux-de-hauteroche",
    "category": "SCENIC_POINT",
    "region": "Alps",
    "country": "Europe",
    "lat": 47.2226802,
    "lng": 6.6779342,
    "nearest_airport": "GVA",
    "description": "Auto-imported SCENIC_POINT. Altitude: N/Am"
  },
  "creux-du-pre-bernard": {
    "name": "Creux du Pré-Bernard",
    "slug": "creux-du-pre-bernard",
    "category": "MOUNTAIN_PASS",
    "region": "Alps",
    "country": "Europe",
    "lat": 45.7250346,
    "lng": 6.0342354,
    "nearest_airport": "GVA",
    "description": "Auto-imported MOUNTAIN_PASS. Altitude: 1305m"
  },
  "creux-du-van": {
    "name": "Creux du Van",
    "slug": "creux-du-van",
    "category": "SCENIC_POINT",
    "region": "Alps",
    "country": "Europe",
    "lat": 46.9348465,
    "lng": 6.7205183,
    "nearest_airport": "GVA",
    "description": "Auto-imported SCENIC_POINT. Altitude: N/Am"
  },
  "creve-tete": {
    "name": "Crève-Tête",
    "slug": "creve-tete",
    "category": "SCENIC_POINT",
    "region": "Alps",
    "country": "Europe",
    "lat": 45.4507234,
    "lng": 6.4676617,
    "nearest_airport": "GVA",
    "description": "Auto-imported SCENIC_POINT. Altitude: 2342m"
  },
  "crine-di-bisantola": {
    "name": "Crine di Bisantola",
    "slug": "crine-di-bisantola",
    "category": "MOUNTAIN_PASS",
    "region": "Alps",
    "country": "Europe",
    "lat": 43.7580388,
    "lng": 10.5348103,
    "nearest_airport": "VCE",
    "description": "Auto-imported MOUNTAIN_PASS. Altitude: N/Am"
  },
  "cristo-re": {
    "name": "Cristo Re",
    "slug": "cristo-re",
    "category": "SCENIC_POINT",
    "region": "Alps",
    "country": "Europe",
    "lat": 45.4743973,
    "lng": 7.8721429,
    "nearest_airport": "TRN",
    "description": "Auto-imported SCENIC_POINT. Altitude: N/Am"
  },
  "crna-pec": {
    "name": "Črna peć",
    "slug": "crna-pec",
    "category": "SCENIC_POINT",
    "region": "Alps",
    "country": "Europe",
    "lat": 46.1914123,
    "lng": 16.0945085,
    "nearest_airport": "VIE",
    "description": "Auto-imported SCENIC_POINT. Altitude: N/Am"
  },
  "crna-prst": {
    "name": "Črna prst",
    "slug": "crna-prst",
    "category": "SCENIC_POINT",
    "region": "Alps",
    "country": "Europe",
    "lat": 46.2311573,
    "lng": 13.9316373,
    "nearest_airport": "VCE",
    "description": "Auto-imported SCENIC_POINT. Altitude: 1844m"
  },
  "crnivec": {
    "name": "Črnivec",
    "slug": "crnivec",
    "category": "MOUNTAIN_PASS",
    "region": "Alps",
    "country": "Europe",
    "lat": 46.2607111,
    "lng": 14.702272,
    "nearest_airport": "VCE",
    "description": "Auto-imported MOUNTAIN_PASS. Altitude: 902m"
  },
  "crnivec-1493": {
    "name": "Črnivec",
    "slug": "crnivec-1493",
    "category": "MOUNTAIN_PASS",
    "region": "Alps",
    "country": "",
    "lat": 46.2607111,
    "lng": 14.702272,
    "nearest_airport": "",
    "description": "Verified Location."
  },
  "croce": {
    "name": "Croce",
    "slug": "croce",
    "category": "SCENIC_POINT",
    "region": "Alps",
    "country": "Europe",
    "lat": 46.380859,
    "lng": 10.960103,
    "nearest_airport": "INN",
    "description": "Auto-imported SCENIC_POINT. Altitude: N/Am"
  },
  "croce-a-vaccoli": {
    "name": "Croce a Vaccoli",
    "slug": "croce-a-vaccoli",
    "category": "MOUNTAIN_PASS",
    "region": "Alps",
    "country": "Europe",
    "lat": 43.8002803,
    "lng": 10.4515849,
    "nearest_airport": "VCE",
    "description": "Auto-imported MOUNTAIN_PASS. Altitude: N/Am"
  },
  "croce-alla-calla": {
    "name": "Croce alla Calla",
    "slug": "croce-alla-calla",
    "category": "MOUNTAIN_PASS",
    "region": "Alps",
    "country": "Europe",
    "lat": 43.7141954,
    "lng": 11.9430486,
    "nearest_airport": "VCE",
    "description": "Auto-imported MOUNTAIN_PASS. Altitude: 1136m"
  },
  "croce-cde-maso-sberze": {
    "name": "Croce \"C.de Maso-Sberze\"",
    "slug": "croce-cde-maso-sberze",
    "category": "SCENIC_POINT",
    "region": "Alps",
    "country": "Europe",
    "lat": 45.7361515,
    "lng": 11.2947373,
    "nearest_airport": "VCE",
    "description": "Auto-imported SCENIC_POINT. Altitude: N/Am"
  },
  "croce-degli-alpini": {
    "name": "Croce degli Alpini",
    "slug": "croce-degli-alpini",
    "category": "SCENIC_POINT",
    "region": "Alps",
    "country": "Europe",
    "lat": 45.7771391,
    "lng": 9.918162,
    "nearest_airport": "MXP",
    "description": "Auto-imported SCENIC_POINT. Altitude: N/Am"
  },
  "croce-dei-pastori": {
    "name": "Croce dei Pastori",
    "slug": "croce-dei-pastori",
    "category": "SCENIC_POINT",
    "region": "Alps",
    "country": "Europe",
    "lat": 45.8319032,
    "lng": 9.9201589,
    "nearest_airport": "MXP",
    "description": "Auto-imported SCENIC_POINT. Altitude: N/Am"
  },
  "croce-del-gallo": {
    "name": "Croce del Gallo",
    "slug": "croce-del-gallo",
    "category": "SCENIC_POINT",
    "region": "Alps",
    "country": "Europe",
    "lat": 46.0350633,
    "lng": 9.3053576,
    "nearest_airport": "MXP",
    "description": "Auto-imported SCENIC_POINT. Altitude: 541m"
  },
  "croce-del-gosnel": {
    "name": "Croce del Gosnèl",
    "slug": "croce-del-gosnel",
    "category": "SCENIC_POINT",
    "region": "Alps",
    "country": "Europe",
    "lat": 45.679661,
    "lng": 9.9797529,
    "nearest_airport": "MXP",
    "description": "Auto-imported SCENIC_POINT. Altitude: N/Am"
  },
  "croce-del-puy": {
    "name": "Croce del Puy",
    "slug": "croce-del-puy",
    "category": "SCENIC_POINT",
    "region": "Alps",
    "country": "Europe",
    "lat": 44.5906733,
    "lng": 7.063594,
    "nearest_airport": "TRN",
    "description": "Auto-imported SCENIC_POINT. Altitude: N/Am"
  },
  "croce-del-sass-tavarac": {
    "name": "Croce del Sass Tavarac",
    "slug": "croce-del-sass-tavarac",
    "category": "SCENIC_POINT",
    "region": "Alps",
    "country": "Europe",
    "lat": 45.8303681,
    "lng": 9.2137036,
    "nearest_airport": "MXP",
    "description": "Auto-imported SCENIC_POINT. Altitude: N/Am"
  },
  "croce-del-teso": {
    "name": "Croce del Teso",
    "slug": "croce-del-teso",
    "category": "SCENIC_POINT",
    "region": "Alps",
    "country": "Europe",
    "lat": 45.6985346,
    "lng": 8.3744793,
    "nearest_airport": "MXP",
    "description": "Auto-imported SCENIC_POINT. Altitude: 741m"
  },
  "croce-della-pace": {
    "name": "Croce della Pace",
    "slug": "croce-della-pace",
    "category": "SCENIC_POINT",
    "region": "Alps",
    "country": "Europe",
    "lat": 46.2753408,
    "lng": 10.7937546,
    "nearest_airport": "INN",
    "description": "Auto-imported SCENIC_POINT. Altitude: 2520m"
  },
  "croce-della-retaia": {
    "name": "Croce della Retaia",
    "slug": "croce-della-retaia",
    "category": "SCENIC_POINT",
    "region": "Alps",
    "country": "Europe",
    "lat": 43.9066935,
    "lng": 11.1403925,
    "nearest_airport": "VCE",
    "description": "Auto-imported SCENIC_POINT. Altitude: 752m"
  },
  "croce-delle-serre": {
    "name": "Croce delle Serre",
    "slug": "croce-delle-serre",
    "category": "MOUNTAIN_PASS",
    "region": "Alps",
    "country": "Europe",
    "lat": 46.180724,
    "lng": 11.1653974,
    "nearest_airport": "VCE",
    "description": "Auto-imported MOUNTAIN_PASS. Altitude: 820m"
  },
  "croce-delluomo": {
    "name": "Croce dell'Uomo",
    "slug": "croce-delluomo",
    "category": "SCENIC_POINT",
    "region": "Alps",
    "country": "Europe",
    "lat": 45.8501417,
    "lng": 9.0558924,
    "nearest_airport": "MXP",
    "description": "Auto-imported SCENIC_POINT. Altitude: N/Am"
  },
  "croce-di-bacchereto": {
    "name": "Croce di Bacchereto",
    "slug": "croce-di-bacchereto",
    "category": "SCENIC_POINT",
    "region": "Alps",
    "country": "Europe",
    "lat": 43.8078868,
    "lng": 10.983537,
    "nearest_airport": "VCE",
    "description": "Auto-imported SCENIC_POINT. Altitude: N/Am"
  },
  "croce-di-brentalone": {
    "name": "Croce di Brentalone",
    "slug": "croce-di-brentalone",
    "category": "SCENIC_POINT",
    "region": "Alps",
    "country": "Europe",
    "lat": 45.9671147,
    "lng": 9.314132,
    "nearest_airport": "MXP",
    "description": "Auto-imported SCENIC_POINT. Altitude: 654m"
  },
  "croce-di-cella": {
    "name": "Croce di Cella",
    "slug": "croce-di-cella",
    "category": "SCENIC_POINT",
    "region": "Alps",
    "country": "Europe",
    "lat": 44.7615449,
    "lng": 10.0876745,
    "nearest_airport": "MXP",
    "description": "Auto-imported SCENIC_POINT. Altitude: N/Am"
  },
  "croce-di-civenna": {
    "name": "Croce di Civenna",
    "slug": "croce-di-civenna",
    "category": "SCENIC_POINT",
    "region": "Alps",
    "country": "Europe",
    "lat": 45.9345341,
    "lng": 9.2662321,
    "nearest_airport": "MXP",
    "description": "Auto-imported SCENIC_POINT. Altitude: N/Am"
  },
  "croce-di-geppe": {
    "name": "Croce di Geppe",
    "slug": "croce-di-geppe",
    "category": "SCENIC_POINT",
    "region": "Alps",
    "country": "Europe",
    "lat": 44.092235,
    "lng": 11.0749843,
    "nearest_airport": "VCE",
    "description": "Auto-imported SCENIC_POINT. Altitude: N/Am"
  },
  "croce-di-lorina": {
    "name": "Croce di Lorina",
    "slug": "croce-di-lorina",
    "category": "SCENIC_POINT",
    "region": "Alps",
    "country": "Europe",
    "lat": 45.8318021,
    "lng": 10.6307974,
    "nearest_airport": "VCE",
    "description": "Auto-imported SCENIC_POINT. Altitude: N/Am"
  },
  "croce-di-marone": {
    "name": "Croce di Marone",
    "slug": "croce-di-marone",
    "category": "MOUNTAIN_PASS",
    "region": "Alps",
    "country": "Europe",
    "lat": 45.7389387,
    "lng": 10.1550604,
    "nearest_airport": "MXP",
    "description": "Auto-imported MOUNTAIN_PASS. Altitude: 1166m"
  },
  "croce-di-monte-penna": {
    "name": "Croce di Monte Penna",
    "slug": "croce-di-monte-penna",
    "category": "SCENIC_POINT",
    "region": "Alps",
    "country": "Europe",
    "lat": 44.0307179,
    "lng": 10.4637316,
    "nearest_airport": "VCE",
    "description": "Auto-imported SCENIC_POINT. Altitude: N/Am"
  },
  "croce-di-pezzolo": {
    "name": "Croce di Pezzolo",
    "slug": "croce-di-pezzolo",
    "category": "MOUNTAIN_PASS",
    "region": "Alps",
    "country": "Europe",
    "lat": 45.7014274,
    "lng": 10.1462188,
    "nearest_airport": "MXP",
    "description": "Auto-imported MOUNTAIN_PASS. Altitude: 937m"
  },
  "croce-di-salo": {
    "name": "Croce di Saló",
    "slug": "croce-di-salo",
    "category": "SCENIC_POINT",
    "region": "Alps",
    "country": "Europe",
    "lat": 45.6154799,
    "lng": 10.5250356,
    "nearest_airport": "MXP",
    "description": "Auto-imported SCENIC_POINT. Altitude: N/Am"
  },
  "croce-di-salven": {
    "name": "Croce di Salven",
    "slug": "croce-di-salven",
    "category": "MOUNTAIN_PASS",
    "region": "Alps",
    "country": "Europe",
    "lat": 45.947389,
    "lng": 10.1512614,
    "nearest_airport": "MXP",
    "description": "Auto-imported MOUNTAIN_PASS. Altitude: 1108m"
  },
  "croce-di-salven-2517": {
    "name": "Croce di Salven",
    "slug": "croce-di-salven-2517",
    "category": "MOUNTAIN_PASS",
    "region": "Alps",
    "country": "",
    "lat": 45.947389,
    "lng": 10.1512614,
    "nearest_airport": "",
    "description": "Verified Location."
  },
  "croce-di-san-francesco": {
    "name": "Croce di San Francesco",
    "slug": "croce-di-san-francesco",
    "category": "SCENIC_POINT",
    "region": "Alps",
    "country": "Europe",
    "lat": 45.8771437,
    "lng": 11.6362247,
    "nearest_airport": "VCE",
    "description": "vista sulla Valsugana e sulla pianura padana"
  },
  "croce-e-ripetitori": {
    "name": "Croce e ripetitori",
    "slug": "croce-e-ripetitori",
    "category": "SCENIC_POINT",
    "region": "Alps",
    "country": "Europe",
    "lat": 45.7050932,
    "lng": 8.2792228,
    "nearest_airport": "MXP",
    "description": "Auto-imported SCENIC_POINT. Altitude: N/Am"
  },
  "croce-egro": {
    "name": "Croce Egro",
    "slug": "croce-egro",
    "category": "SCENIC_POINT",
    "region": "Alps",
    "country": "Europe",
    "lat": 45.8123776,
    "lng": 8.382925,
    "nearest_airport": "MXP",
    "description": "Auto-imported SCENIC_POINT. Altitude: N/Am"
  },
  "croce-giovane-montagna": {
    "name": "Croce Giovane Montagna",
    "slug": "croce-giovane-montagna",
    "category": "SCENIC_POINT",
    "region": "Alps",
    "country": "Europe",
    "lat": 46.3523153,
    "lng": 12.2611263,
    "nearest_airport": "VCE",
    "description": "Auto-imported SCENIC_POINT. Altitude: N/Am"
  },
  "croce-monte-rubbio": {
    "name": "Croce Monte Rubbio",
    "slug": "croce-monte-rubbio",
    "category": "SCENIC_POINT",
    "region": "Alps",
    "country": "Europe",
    "lat": 44.5060247,
    "lng": 7.2231888,
    "nearest_airport": "TRN",
    "description": "Auto-imported SCENIC_POINT. Altitude: N/Am"
  },
  "crocetta": {
    "name": "Crocetta",
    "slug": "crocetta",
    "category": "SCENIC_POINT",
    "region": "Alps",
    "country": "Europe",
    "lat": 46.0135678,
    "lng": 9.2319167,
    "nearest_airport": "MXP",
    "description": "Auto-imported SCENIC_POINT. Altitude: N/Am"
  },
  "croci-di-calenzano": {
    "name": "Croci di Calenzano",
    "slug": "croci-di-calenzano",
    "category": "MOUNTAIN_PASS",
    "region": "Alps",
    "country": "Europe",
    "lat": 43.9454484,
    "lng": 11.2136873,
    "nearest_airport": "VCE",
    "description": "Auto-imported MOUNTAIN_PASS. Altitude: 427m"
  },
  "crociera-di-pino": {
    "name": "Crociera di Pino",
    "slug": "crociera-di-pino",
    "category": "MOUNTAIN_PASS",
    "region": "Alps",
    "country": "Europe",
    "lat": 44.4682649,
    "lng": 8.9599807,
    "nearest_airport": "MXP",
    "description": "Auto-imported MOUNTAIN_PASS. Altitude: 362m"
  },
  "croda-del-pic": {
    "name": "Croda del Pic",
    "slug": "croda-del-pic",
    "category": "SCENIC_POINT",
    "region": "Alps",
    "country": "Europe",
    "lat": 46.1739843,
    "lng": 12.6024203,
    "nearest_airport": "VCE",
    "description": "Auto-imported SCENIC_POINT. Altitude: N/Am"
  },
  "croix": {
    "name": "Croix",
    "slug": "croix",
    "category": "SCENIC_POINT",
    "region": "Alps",
    "country": "Europe",
    "lat": 46.283556,
    "lng": 7.3499328,
    "nearest_airport": "GVA",
    "description": "Auto-imported SCENIC_POINT. Altitude: N/Am"
  },
  "croix-de-beauvoir": {
    "name": "Croix de Beauvoir",
    "slug": "croix-de-beauvoir",
    "category": "SCENIC_POINT",
    "region": "Alps",
    "country": "Europe",
    "lat": 45.823564,
    "lng": 5.853771,
    "nearest_airport": "GVA",
    "description": "Auto-imported SCENIC_POINT. Altitude: N/Am"
  },
  "croix-de-bellevue": {
    "name": "Croix de Bellevue",
    "slug": "croix-de-bellevue",
    "category": "SCENIC_POINT",
    "region": "Alps",
    "country": "Europe",
    "lat": 43.6127895,
    "lng": 6.0138631,
    "nearest_airport": "NCE",
    "description": "Auto-imported SCENIC_POINT. Altitude: N/Am"
  },
  "croix-de-chamrousse": {
    "name": "Croix de Chamrousse",
    "slug": "croix-de-chamrousse",
    "category": "SCENIC_POINT",
    "region": "Alps",
    "country": "Europe",
    "lat": 45.1258639,
    "lng": 5.9025153,
    "nearest_airport": "GVA",
    "description": "Auto-imported SCENIC_POINT. Altitude: 2253m"
  },
  "croix-de-chevrotiere": {
    "name": "Croix de Chevrotière",
    "slug": "croix-de-chevrotiere",
    "category": "SCENIC_POINT",
    "region": "Alps",
    "country": "Europe",
    "lat": 45.2890245,
    "lng": 6.3331861,
    "nearest_airport": "TRN",
    "description": "Auto-imported SCENIC_POINT. Altitude: N/Am"
  },
  "croix-de-cote-curt": {
    "name": "Croix de Côte Curt",
    "slug": "croix-de-cote-curt",
    "category": "SCENIC_POINT",
    "region": "Alps",
    "country": "Europe",
    "lat": 45.3822119,
    "lng": 5.7458702,
    "nearest_airport": "GVA",
    "description": "Auto-imported SCENIC_POINT. Altitude: 567m"
  },
  "croix-de-famban": {
    "name": "Croix de Famban",
    "slug": "croix-de-famban",
    "category": "MOUNTAIN_PASS",
    "region": "Alps",
    "country": "Europe",
    "lat": 45.951352,
    "lng": 5.7675661,
    "nearest_airport": "GVA",
    "description": "Auto-imported MOUNTAIN_PASS. Altitude: 1316m"
  },
  "croix-de-feissons": {
    "name": "Croix de Feissons",
    "slug": "croix-de-feissons",
    "category": "SCENIC_POINT",
    "region": "Alps",
    "country": "Europe",
    "lat": 45.4773459,
    "lng": 6.5545015,
    "nearest_airport": "TRN",
    "description": "Auto-imported SCENIC_POINT. Altitude: 1400m"
  },
  "croix-de-fresse": {
    "name": "Croix de Fresse",
    "slug": "croix-de-fresse",
    "category": "MOUNTAIN_PASS",
    "region": "Alps",
    "country": "Europe",
    "lat": 47.8897057,
    "lng": 6.8402233,
    "nearest_airport": "ZRH",
    "description": "Auto-imported MOUNTAIN_PASS. Altitude: 879m"
  },
  "croix-de-la-charmette": {
    "name": "Croix de la Charmette",
    "slug": "croix-de-la-charmette",
    "category": "SCENIC_POINT",
    "region": "Alps",
    "country": "Europe",
    "lat": 45.3156544,
    "lng": 6.2270923,
    "nearest_airport": "GVA",
    "description": "Auto-imported SCENIC_POINT. Altitude: N/Am"
  },
  "croix-de-la-coche": {
    "name": "Croix de la Coche",
    "slug": "croix-de-la-coche",
    "category": "SCENIC_POINT",
    "region": "Alps",
    "country": "Europe",
    "lat": 45.5373641,
    "lng": 5.9355436,
    "nearest_airport": "GVA",
    "description": "Auto-imported SCENIC_POINT. Altitude: 610m"
  },
  "croix-de-laulp-du-seuil": {
    "name": "Croix de l'Aulp du Seuil",
    "slug": "croix-de-laulp-du-seuil",
    "category": "SCENIC_POINT",
    "region": "Alps",
    "country": "Europe",
    "lat": 45.3584278,
    "lng": 5.8972661,
    "nearest_airport": "GVA",
    "description": "Auto-imported SCENIC_POINT. Altitude: 1836m"
  },
  "croix-de-lizon": {
    "name": "Croix de l'Izon",
    "slug": "croix-de-lizon",
    "category": "SCENIC_POINT",
    "region": "Alps",
    "country": "Europe",
    "lat": 45.2368473,
    "lng": 5.7606537,
    "nearest_airport": "GVA",
    "description": "Auto-imported SCENIC_POINT. Altitude: 1349m"
  },
  "croix-de-monthery": {
    "name": "Croix de Monthéry",
    "slug": "croix-de-monthery",
    "category": "SCENIC_POINT",
    "region": "Alps",
    "country": "Europe",
    "lat": 46.0915846,
    "lng": 5.7254582,
    "nearest_airport": "GVA",
    "description": "Croix métallique : Centre - Point vu en place en 2003"
  },
  "croix-de-quinsonas": {
    "name": "Croix de Quinsonas",
    "slug": "croix-de-quinsonas",
    "category": "SCENIC_POINT",
    "region": "Alps",
    "country": "Europe",
    "lat": 45.2080022,
    "lng": 5.7273011,
    "nearest_airport": "GVA",
    "description": "A la mémoire de François de Quinsonas, dit \"Lieutenant Fiancey\", mort le 27 juillet 1944"
  },
  "croix-de-sainte-catherine": {
    "name": "Croix de Sainte-Catherine",
    "slug": "croix-de-sainte-catherine",
    "category": "SCENIC_POINT",
    "region": "Alps",
    "country": "Europe",
    "lat": 45.8723542,
    "lng": 6.1120738,
    "nearest_airport": "GVA",
    "description": "Auto-imported SCENIC_POINT. Altitude: N/Am"
  },
  "croix-des-7-freres": {
    "name": "Croix des 7 frères",
    "slug": "croix-des-7-freres",
    "category": "SCENIC_POINT",
    "region": "Alps",
    "country": "Europe",
    "lat": 46.0425274,
    "lng": 6.6641255,
    "nearest_airport": "GVA",
    "description": "Auto-imported SCENIC_POINT. Altitude: N/Am"
  },
  "croix-des-cessenaz": {
    "name": "Croix des Cessenaz",
    "slug": "croix-des-cessenaz",
    "category": "SCENIC_POINT",
    "region": "Alps",
    "country": "Europe",
    "lat": 45.8422221,
    "lng": 6.1276818,
    "nearest_airport": "GVA",
    "description": "Auto-imported SCENIC_POINT. Altitude: 983m"
  },
  "croix-des-gardes": {
    "name": "Croix des Gardes",
    "slug": "croix-des-gardes",
    "category": "SCENIC_POINT",
    "region": "Alps",
    "country": "Europe",
    "lat": 43.5579915,
    "lng": 6.990394,
    "nearest_airport": "NCE",
    "description": "Auto-imported SCENIC_POINT. Altitude: N/Am"
  },
  "croix-des-luzes": {
    "name": "Croix des Luzes",
    "slug": "croix-des-luzes",
    "category": "SCENIC_POINT",
    "region": "Alps",
    "country": "Europe",
    "lat": 45.8348076,
    "lng": 6.128067,
    "nearest_airport": "GVA",
    "description": "Auto-imported SCENIC_POINT. Altitude: 933m"
  },
  "croix-des-suifs": {
    "name": "Croix des suifs",
    "slug": "croix-des-suifs",
    "category": "SCENIC_POINT",
    "region": "Alps",
    "country": "Europe",
    "lat": 45.1060591,
    "lng": 5.5987487,
    "nearest_airport": "GVA",
    "description": "Auto-imported SCENIC_POINT. Altitude: N/Am"
  },
  "croix-dorizan": {
    "name": "Croix d'Orizan",
    "slug": "croix-dorizan",
    "category": "SCENIC_POINT",
    "region": "Alps",
    "country": "Europe",
    "lat": 45.6546371,
    "lng": 6.2698892,
    "nearest_airport": "GVA",
    "description": "Auto-imported SCENIC_POINT. Altitude: N/Am"
  },
  "croix-du-chatelard": {
    "name": "croix du Chatelard",
    "slug": "croix-du-chatelard",
    "category": "SCENIC_POINT",
    "region": "Alps",
    "country": "Europe",
    "lat": 45.3748158,
    "lng": 5.9413838,
    "nearest_airport": "GVA",
    "description": "Auto-imported SCENIC_POINT. Altitude: N/Am"
  },
  "croix-du-cholera": {
    "name": "Croix du Choléra",
    "slug": "croix-du-cholera",
    "category": "SCENIC_POINT",
    "region": "Alps",
    "country": "Europe",
    "lat": 47.766952,
    "lng": 6.750589,
    "nearest_airport": "ZRH",
    "description": "Auto-imported SCENIC_POINT. Altitude: N/Am"
  },
  "croix-du-nivolet": {
    "name": "Croix du Nivolet",
    "slug": "croix-du-nivolet",
    "category": "SCENIC_POINT",
    "region": "Alps",
    "country": "Europe",
    "lat": 45.6135574,
    "lng": 5.9655283,
    "nearest_airport": "GVA",
    "description": "Auto-imported SCENIC_POINT. Altitude: 1547m"
  },
  "croix-du-poupet": {
    "name": "Croix du Poupet",
    "slug": "croix-du-poupet",
    "category": "SCENIC_POINT",
    "region": "Alps",
    "country": "Europe",
    "lat": 46.9639029,
    "lng": 5.8852648,
    "nearest_airport": "GVA",
    "description": "Auto-imported SCENIC_POINT. Altitude: 803m"
  },
  "croix-du-puy": {
    "name": "Croix du Puy",
    "slug": "croix-du-puy",
    "category": "SCENIC_POINT",
    "region": "Alps",
    "country": "Europe",
    "lat": 44.1654215,
    "lng": 6.5914478,
    "nearest_airport": "NCE",
    "description": "Auto-imported SCENIC_POINT. Altitude: 1668m"
  },
  "croix-du-rangen": {
    "name": "Croix du Rangen",
    "slug": "croix-du-rangen",
    "category": "SCENIC_POINT",
    "region": "Alps",
    "country": "Europe",
    "lat": 47.8139233,
    "lng": 7.1097071,
    "nearest_airport": "ZRH",
    "description": "Auto-imported SCENIC_POINT. Altitude: N/Am"
  },
  "croix-du-sergent-pinelli-2635-m": {
    "name": "Croix du Sergent Pinelli 2635 m",
    "slug": "croix-du-sergent-pinelli-2635-m",
    "category": "SCENIC_POINT",
    "region": "Alps",
    "country": "Europe",
    "lat": 45.0359431,
    "lng": 5.9048203,
    "nearest_airport": "GVA",
    "description": "Auto-imported SCENIC_POINT. Altitude: N/Am"
  },
  "croix-du-signal": {
    "name": "Croix du Signal",
    "slug": "croix-du-signal",
    "category": "SCENIC_POINT",
    "region": "Alps",
    "country": "Europe",
    "lat": 45.618858,
    "lng": 5.817801,
    "nearest_airport": "GVA",
    "description": "Auto-imported SCENIC_POINT. Altitude: N/Am"
  },
  "croix-tete-de-beurre": {
    "name": "Croix Tête de Beurre",
    "slug": "croix-tete-de-beurre",
    "category": "SCENIC_POINT",
    "region": "Alps",
    "country": "Europe",
    "lat": 45.5438133,
    "lng": 5.9988849,
    "nearest_airport": "GVA",
    "description": "Auto-imported SCENIC_POINT. Altitude: N/Am"
  },
  "cros-de-beaubarnon": {
    "name": "Cros de Beaubarnon",
    "slug": "cros-de-beaubarnon",
    "category": "MOUNTAIN_PASS",
    "region": "Alps",
    "country": "Europe",
    "lat": 44.653123,
    "lng": 6.81678,
    "nearest_airport": "TRN",
    "description": "Auto-imported MOUNTAIN_PASS. Altitude: 2493m"
  },
  "cros-de-beaubarnon-2826": {
    "name": "Cros de Beaubarnon",
    "slug": "cros-de-beaubarnon-2826",
    "category": "MOUNTAIN_PASS",
    "region": "Alps",
    "country": "",
    "lat": 44.653123,
    "lng": 6.81678,
    "nearest_airport": "",
    "description": "Verified Location."
  },
  "cros-dei-mocheni": {
    "name": "Cros dei Mocheni",
    "slug": "cros-dei-mocheni",
    "category": "SCENIC_POINT",
    "region": "Alps",
    "country": "Europe",
    "lat": 46.1251331,
    "lng": 11.287478,
    "nearest_airport": "VCE",
    "description": "Auto-imported SCENIC_POINT. Altitude: 1780m"
  },
  "cros-del-cuc": {
    "name": "Cros del Cuć",
    "slug": "cros-del-cuc",
    "category": "SCENIC_POINT",
    "region": "Alps",
    "country": "Europe",
    "lat": 46.17555,
    "lng": 11.3065619,
    "nearest_airport": "VCE",
    "description": "Auto-imported SCENIC_POINT. Altitude: 1503m"
  },
  "cros-dent-en-sass": {
    "name": "Cros dent en sass",
    "slug": "cros-dent-en-sass",
    "category": "SCENIC_POINT",
    "region": "Alps",
    "country": "Europe",
    "lat": 46.2955976,
    "lng": 11.0165507,
    "nearest_airport": "INN",
    "description": "Auto-imported SCENIC_POINT. Altitude: N/Am"
  },
  "crous-dalie": {
    "name": "Crous d'Alie",
    "slug": "crous-dalie",
    "category": "SCENIC_POINT",
    "region": "Alps",
    "country": "Europe",
    "lat": 44.5917951,
    "lng": 7.1273839,
    "nearest_airport": "TRN",
    "description": "Palina con tubi per osservare i punti di interesse della valle."
  },
  "croz-de-la-crosara": {
    "name": "Croz de la Crosara",
    "slug": "croz-de-la-crosara",
    "category": "SCENIC_POINT",
    "region": "Alps",
    "country": "Europe",
    "lat": 46.0933464,
    "lng": 11.2209066,
    "nearest_airport": "VCE",
    "description": "Auto-imported SCENIC_POINT. Altitude: N/Am"
  },
  "croz-de-loz-cuel": {
    "name": "Cròz de l'Oz Cuel",
    "slug": "croz-de-loz-cuel",
    "category": "SCENIC_POINT",
    "region": "Alps",
    "country": "Europe",
    "lat": 46.0578761,
    "lng": 11.2493756,
    "nearest_airport": "VCE",
    "description": "Auto-imported SCENIC_POINT. Altitude: N/Am"
  },
  "croz-del-corf": {
    "name": "Croz del corf",
    "slug": "croz-del-corf",
    "category": "SCENIC_POINT",
    "region": "Alps",
    "country": "Europe",
    "lat": 46.0868984,
    "lng": 11.2469769,
    "nearest_airport": "VCE",
    "description": "Auto-imported SCENIC_POINT. Altitude: N/Am"
  },
  "croz-del-pinestre": {
    "name": "Croz del Pinestré",
    "slug": "croz-del-pinestre",
    "category": "SCENIC_POINT",
    "region": "Alps",
    "country": "Europe",
    "lat": 46.226535,
    "lng": 11.2775613,
    "nearest_airport": "INN",
    "description": "Auto-imported SCENIC_POINT. Altitude: 1340m"
  },
  "croz-scambion": {
    "name": "Croz Scambion",
    "slug": "croz-scambion",
    "category": "SCENIC_POINT",
    "region": "Alps",
    "country": "Europe",
    "lat": 46.1757296,
    "lng": 11.217594,
    "nearest_airport": "VCE",
    "description": "Auto-imported SCENIC_POINT. Altitude: N/Am"
  },
  "crozi-dala-tana": {
    "name": "Crozi dala Tana",
    "slug": "crozi-dala-tana",
    "category": "SCENIC_POINT",
    "region": "Alps",
    "country": "Europe",
    "lat": 46.2291819,
    "lng": 11.2716658,
    "nearest_airport": "INN",
    "description": "Auto-imported SCENIC_POINT. Altitude: 1470m"
  },
  "crujeta": {
    "name": "Crujëta",
    "slug": "crujeta",
    "category": "SCENIC_POINT",
    "region": "Alps",
    "country": "Europe",
    "lat": 46.5789605,
    "lng": 11.7105379,
    "nearest_airport": "INN",
    "description": "Auto-imported SCENIC_POINT. Altitude: 2149m"
  }
}