{
  "dachplattform-ruine-ramschwag": {
    "name": "Dachplattform Ruine Ramschwag",
    "slug": "dachplattform-ruine-ramschwag",
    "category": "SCENIC_POINT",
    "region": "Alps",
    "country": "Europe",
    "lat": 47.4899247,
    "lng": 9.3222694,
    "nearest_airport": "ZRH",
    "description": "Auto-imported SCENIC_POINT. Altitude: N/Am"
  },
  "dachsenlocher": {
    "name": "Dachsenlöcher",
    "slug": "dachsenlocher",
    "category": "SCENIC_POINT",
    "region": "Alps",
    "country": "Europe",
    "lat": 46.9655014,
    "lng": 8.5887832,
    "nearest_airport": "ZRH",
    "description": "Auto-imported SCENIC_POINT. Altitude: N/Am"
  },
  "dachstein-gletscherblick": {
    "name": "Dachstein Gletscherblick",
    "slug": "dachstein-gletscherblick",
    "category": "SCENIC_POINT",
    "region": "Alps",
    "country": "Europe",
    "lat": 47.8069138,
    "lng": 13.9832233,
    "nearest_airport": "SZG",
    "description": "Auto-imported SCENIC_POINT. Altitude: N/Am"
  },
  "dachsteinblick": {
    "name": "Dachsteinblick",
    "slug": "dachsteinblick",
    "category": "SCENIC_POINT",
    "region": "Alps",
    "country": "Europe",
    "lat": 47.6452795,
    "lng": 13.9201285,
    "nearest_airport": "SZG",
    "description": "Auto-imported SCENIC_POINT. Altitude: N/Am"
  },
  "dalfazer-wasserfall": {
    "name": "Dalfazer Wasserfall",
    "slug": "dalfazer-wasserfall",
    "category": "SCENIC_POINT",
    "region": "Alps",
    "country": "Europe",
    "lat": 47.4422117,
    "lng": 11.7355067,
    "nearest_airport": "INN",
    "description": "Auto-imported SCENIC_POINT. Altitude: N/Am"
  },
  "dalihubel": {
    "name": "Dälihubel",
    "slug": "dalihubel",
    "category": "SCENIC_POINT",
    "region": "Alps",
    "country": "Europe",
    "lat": 46.8516118,
    "lng": 7.2357536,
    "nearest_airport": "GVA",
    "description": "Auto-imported SCENIC_POINT. Altitude: N/Am"
  },
  "dalmatinska-vrata": {
    "name": "Dalmatinska vrata",
    "slug": "dalmatinska-vrata",
    "category": "MOUNTAIN_PASS",
    "region": "Alps",
    "country": "Europe",
    "lat": 44.4150094,
    "lng": 15.3322362,
    "nearest_airport": "VCE",
    "description": "Auto-imported MOUNTAIN_PASS. Altitude: N/Am"
  },
  "dalsen-sattel": {
    "name": "Dalsen-Sattel",
    "slug": "dalsen-sattel",
    "category": "MOUNTAIN_PASS",
    "region": "Alps",
    "country": "Europe",
    "lat": 47.7339688,
    "lng": 12.3374684,
    "nearest_airport": "SZG",
    "description": "Auto-imported MOUNTAIN_PASS. Altitude: 1078m"
  },
  "damertorl": {
    "name": "Damertörl",
    "slug": "damertorl",
    "category": "MOUNTAIN_PASS",
    "region": "Alps",
    "country": "Europe",
    "lat": 46.8023951,
    "lng": 12.951218,
    "nearest_airport": "SZG",
    "description": "Auto-imported MOUNTAIN_PASS. Altitude: 2310m"
  },
  "damertorl-2303": {
    "name": "Damertörl",
    "slug": "damertorl-2303",
    "category": "MOUNTAIN_PASS",
    "region": "Alps",
    "country": "",
    "lat": 46.8023951,
    "lng": 12.951218,
    "nearest_airport": "",
    "description": "Verified Location."
  },
  "dammapass": {
    "name": "Dammapass",
    "slug": "dammapass",
    "category": "MOUNTAIN_PASS",
    "region": "Alps",
    "country": "Europe",
    "lat": 46.6383843,
    "lng": 8.4200184,
    "nearest_airport": "ZRH",
    "description": "Auto-imported MOUNTAIN_PASS. Altitude: 3503m"
  },
  "dammapass-3922": {
    "name": "Dammapass",
    "slug": "dammapass-3922",
    "category": "MOUNTAIN_PASS",
    "region": "Alps",
    "country": "",
    "lat": 46.6383843,
    "lng": 8.4200184,
    "nearest_airport": "",
    "description": "Verified Location."
  },
  "dammbuel": {
    "name": "Dammbüel",
    "slug": "dammbuel",
    "category": "SCENIC_POINT",
    "region": "Alps",
    "country": "Europe",
    "lat": 47.4963125,
    "lng": 8.9557099,
    "nearest_airport": "ZRH",
    "description": "Auto-imported SCENIC_POINT. Altitude: N/Am"
  },
  "dangeren-flue": {
    "name": "Dangeren-Flue",
    "slug": "dangeren-flue",
    "category": "SCENIC_POINT",
    "region": "Alps",
    "country": "Europe",
    "lat": 47.3866138,
    "lng": 7.816258,
    "nearest_airport": "ZRH",
    "description": "Auto-imported SCENIC_POINT. Altitude: N/Am"
  },
  "dannelscharte-forcella-di-dan": {
    "name": "Dannelscharte - Forcella di Dan",
    "slug": "dannelscharte-forcella-di-dan",
    "category": "MOUNTAIN_PASS",
    "region": "Alps",
    "country": "Europe",
    "lat": 46.9381325,
    "lng": 11.6824647,
    "nearest_airport": "INN",
    "description": "Auto-imported MOUNTAIN_PASS. Altitude: 2437m"
  },
  "dannelscharte-forcella-di-dan-1733": {
    "name": "Dannelscharte - Forcella di Dan",
    "slug": "dannelscharte-forcella-di-dan-1733",
    "category": "MOUNTAIN_PASS",
    "region": "Alps",
    "country": "",
    "lat": 46.9381325,
    "lng": 11.6824647,
    "nearest_airport": "",
    "description": "Verified Location."
  },
  "darwin-gratl": {
    "name": "Darwin Gratl",
    "slug": "darwin-gratl",
    "category": "SCENIC_POINT",
    "region": "Alps",
    "country": "Europe",
    "lat": 47.1514234,
    "lng": 10.4685074,
    "nearest_airport": "INN",
    "description": "Auto-imported SCENIC_POINT. Altitude: 2010m"
  },
  "das-burgermeisterbankerl": {
    "name": "Das „Bürgermeisterbankerl“",
    "slug": "das-burgermeisterbankerl",
    "category": "SCENIC_POINT",
    "region": "Alps",
    "country": "Europe",
    "lat": 47.6359047,
    "lng": 13.8008388,
    "nearest_airport": "SZG",
    "description": "Auto-imported SCENIC_POINT. Altitude: N/Am"
  },
  "das-gipfelkreuz": {
    "name": "\"Das Gipfelkreuz\"",
    "slug": "das-gipfelkreuz",
    "category": "SCENIC_POINT",
    "region": "Alps",
    "country": "Europe",
    "lat": 47.7575248,
    "lng": 12.3507557,
    "nearest_airport": "SZG",
    "description": "(Windhose vermutlich für Gleitschirmflieger) / ARCHE-Projekt: \"Das Gipfelkreuz\" (ARCHE München-Moosach)"
  },
  "daube": {
    "name": "Daube",
    "slug": "daube",
    "category": "SCENIC_POINT",
    "region": "Alps",
    "country": "Europe",
    "lat": 46.6560874,
    "lng": 7.9070133,
    "nearest_airport": "ZRH",
    "description": "Auto-imported SCENIC_POINT. Altitude: N/Am"
  },
  "daumenscharte": {
    "name": "Daumenscharte",
    "slug": "daumenscharte",
    "category": "MOUNTAIN_PASS",
    "region": "Alps",
    "country": "Europe",
    "lat": 47.4437998,
    "lng": 10.3834413,
    "nearest_airport": "INN",
    "description": "Auto-imported MOUNTAIN_PASS. Altitude: 2169m"
  },
  "daumenscharte-1889": {
    "name": "Daumenscharte",
    "slug": "daumenscharte-1889",
    "category": "MOUNTAIN_PASS",
    "region": "Alps",
    "country": "",
    "lat": 47.4437998,
    "lng": 10.3834413,
    "nearest_airport": "",
    "description": "Verified Location."
  },
  "daunscharte": {
    "name": "Daunscharte",
    "slug": "daunscharte",
    "category": "MOUNTAIN_PASS",
    "region": "Alps",
    "country": "Europe",
    "lat": 46.9910922,
    "lng": 11.0909977,
    "nearest_airport": "INN",
    "description": "Auto-imported MOUNTAIN_PASS. Altitude: 3155m"
  },
  "daunscharte-3149": {
    "name": "Daunscharte",
    "slug": "daunscharte-3149",
    "category": "MOUNTAIN_PASS",
    "region": "Alps",
    "country": "",
    "lat": 46.9910922,
    "lng": 11.0909977,
    "nearest_airport": "",
    "description": "Verified Location."
  },
  "dawinscharte": {
    "name": "Dawinscharte",
    "slug": "dawinscharte",
    "category": "MOUNTAIN_PASS",
    "region": "Alps",
    "country": "Europe",
    "lat": 47.1652329,
    "lng": 10.459845,
    "nearest_airport": "INN",
    "description": "Auto-imported MOUNTAIN_PASS. Altitude: 2650m"
  },
  "dawinscharte-1845": {
    "name": "Dawinscharte",
    "slug": "dawinscharte-1845",
    "category": "MOUNTAIN_PASS",
    "region": "Alps",
    "country": "",
    "lat": 47.1652329,
    "lng": 10.459845,
    "nearest_airport": "",
    "description": "Verified Location."
  }
}