{
  "feilerscharte": {
    "name": "Feilerscharte",
    "slug": "feilerscharte",
    "category": "MOUNTAIN_PASS",
    "region": "Alps",
    "country": "Europe",
    "lat": 47.1107649,
    "lng": 10.8667578,
    "nearest_airport": "INN",
    "description": "Auto-imported MOUNTAIN_PASS. Altitude: 2928m"
  },
  "feilerscharte-996": {
    "name": "Feilerscharte",
    "slug": "feilerscharte-996",
    "category": "MOUNTAIN_PASS",
    "region": "Alps",
    "country": "",
    "lat": 47.1107649,
    "lng": 10.8667578,
    "nearest_airport": "",
    "description": "Verified Location."
  },
  "feilsattel": {
    "name": "Feilsattel",
    "slug": "feilsattel",
    "category": "MOUNTAIN_PASS",
    "region": "Alps",
    "country": "Europe",
    "lat": 47.4436343,
    "lng": 11.641332,
    "nearest_airport": "INN",
    "description": "Auto-imported MOUNTAIN_PASS. Altitude: N/Am"
  },
  "feistritzsattel": {
    "name": "Feistritzsattel",
    "slug": "feistritzsattel",
    "category": "MOUNTAIN_PASS",
    "region": "Alps",
    "country": "Europe",
    "lat": 47.5674662,
    "lng": 15.8654837,
    "nearest_airport": "VIE",
    "description": "Auto-imported MOUNTAIN_PASS. Altitude: 1287m"
  },
  "feistritzsattel-1839": {
    "name": "Feistritzsattel",
    "slug": "feistritzsattel-1839",
    "category": "MOUNTAIN_PASS",
    "region": "Alps",
    "country": "",
    "lat": 47.5674662,
    "lng": 15.8654837,
    "nearest_airport": "",
    "description": "Verified Location."
  },
  "feistritzsattel-sella-bistrizza-planina-bistrica": {
    "name": "Feistritzsattel / Sella Bistrizza / Planina Bistrica",
    "slug": "feistritzsattel-sella-bistrizza-planina-bistrica",
    "category": "MOUNTAIN_PASS",
    "region": "Alps",
    "country": "Europe",
    "lat": 46.5601485,
    "lng": 13.5068828,
    "nearest_airport": "SZG",
    "description": "Auto-imported MOUNTAIN_PASS. Altitude: 1717m"
  },
  "feldalmsattel": {
    "name": "Feldalmsattel",
    "slug": "feldalmsattel",
    "category": "MOUNTAIN_PASS",
    "region": "Alps",
    "country": "Europe",
    "lat": 47.58635,
    "lng": 12.3017518,
    "nearest_airport": "SZG",
    "description": "Auto-imported MOUNTAIN_PASS. Altitude: 1430m"
  },
  "feldberg": {
    "name": "Feldberg",
    "slug": "feldberg",
    "category": "SCENIC_POINT",
    "region": "Alps",
    "country": "Europe",
    "lat": 47.8739912,
    "lng": 8.0046735,
    "nearest_airport": "ZRH",
    "description": "Auto-imported SCENIC_POINT. Altitude: 1494m"
  },
  "feldberg-15": {
    "name": "Feldberg",
    "slug": "feldberg-15",
    "category": "SCENIC_POINT",
    "region": "Alps",
    "country": "",
    "lat": 47.8739912,
    "lng": 8.0046735,
    "nearest_airport": "",
    "description": "Verified Location."
  },
  "feldbergblick": {
    "name": "Feldbergblick",
    "slug": "feldbergblick",
    "category": "SCENIC_POINT",
    "region": "Alps",
    "country": "Europe",
    "lat": 47.87395,
    "lng": 8.1165428,
    "nearest_airport": "ZRH",
    "description": "Auto-imported SCENIC_POINT. Altitude: N/Am"
  },
  "feldbergpass": {
    "name": "Feldbergpass",
    "slug": "feldbergpass",
    "category": "MOUNTAIN_PASS",
    "region": "Alps",
    "country": "Europe",
    "lat": 47.8563133,
    "lng": 8.0290759,
    "nearest_airport": "ZRH",
    "description": "Auto-imported MOUNTAIN_PASS. Altitude: 1231.3m"
  },
  "feldbergpass-161": {
    "name": "Feldbergpass",
    "slug": "feldbergpass-161",
    "category": "MOUNTAIN_PASS",
    "region": "Alps",
    "country": "",
    "lat": 47.8563133,
    "lng": 8.0290759,
    "nearest_airport": "",
    "description": "Verified Location."
  },
  "felderjochl": {
    "name": "Felderjöchl",
    "slug": "felderjochl",
    "category": "MOUNTAIN_PASS",
    "region": "Alps",
    "country": "Europe",
    "lat": 47.0819898,
    "lng": 10.8977512,
    "nearest_airport": "INN",
    "description": "Auto-imported MOUNTAIN_PASS. Altitude: 2797m"
  },
  "felderjochl-419": {
    "name": "Felderjöchl",
    "slug": "felderjochl-419",
    "category": "MOUNTAIN_PASS",
    "region": "Alps",
    "country": "",
    "lat": 47.0819898,
    "lng": 10.8977512,
    "nearest_airport": "",
    "description": "Verified Location."
  },
  "feldernjochl": {
    "name": "Feldernjöchl",
    "slug": "feldernjochl",
    "category": "MOUNTAIN_PASS",
    "region": "Alps",
    "country": "Europe",
    "lat": 47.3929061,
    "lng": 11.0146928,
    "nearest_airport": "INN",
    "description": "Auto-imported MOUNTAIN_PASS. Altitude: 2045m"
  },
  "feldernjochl-3086": {
    "name": "Feldernjöchl",
    "slug": "feldernjochl-3086",
    "category": "MOUNTAIN_PASS",
    "region": "Alps",
    "country": "",
    "lat": 47.3929061,
    "lng": 11.0146928,
    "nearest_airport": "",
    "description": "Verified Location."
  },
  "felix-kopfl": {
    "name": "Felix-Köpfl",
    "slug": "felix-kopfl",
    "category": "SCENIC_POINT",
    "region": "Alps",
    "country": "Europe",
    "lat": 47.6726718,
    "lng": 12.147669,
    "nearest_airport": "SZG",
    "description": "Auto-imported SCENIC_POINT. Altitude: 1090m"
  },
  "fellilucke": {
    "name": "Fellilücke",
    "slug": "fellilucke",
    "category": "MOUNTAIN_PASS",
    "region": "Alps",
    "country": "Europe",
    "lat": 46.673609,
    "lng": 8.6651201,
    "nearest_airport": "ZRH",
    "description": "Auto-imported MOUNTAIN_PASS. Altitude: 2480m"
  },
  "fellilucke-3722": {
    "name": "Fellilücke",
    "slug": "fellilucke-3722",
    "category": "MOUNTAIN_PASS",
    "region": "Alps",
    "country": "",
    "lat": 46.673609,
    "lng": 8.6651201,
    "nearest_airport": "",
    "description": "Verified Location."
  },
  "felseli": {
    "name": "Felseli",
    "slug": "felseli",
    "category": "SCENIC_POINT",
    "region": "Alps",
    "country": "Europe",
    "lat": 47.7706639,
    "lng": 8.6614748,
    "nearest_airport": "ZRH",
    "description": "Auto-imported SCENIC_POINT. Altitude: N/Am"
  },
  "felsen-kanzel": {
    "name": "Felsen-Kanzel",
    "slug": "felsen-kanzel",
    "category": "SCENIC_POINT",
    "region": "Alps",
    "country": "Europe",
    "lat": 47.5052565,
    "lng": 11.0667699,
    "nearest_airport": "INN",
    "description": "Auto-imported SCENIC_POINT. Altitude: N/Am"
  },
  "felsenbalkon": {
    "name": "Felsenbalkon",
    "slug": "felsenbalkon",
    "category": "SCENIC_POINT",
    "region": "Alps",
    "country": "Europe",
    "lat": 47.2147655,
    "lng": 15.8108048,
    "nearest_airport": "VIE",
    "description": "Auto-imported SCENIC_POINT. Altitude: N/Am"
  },
  "felsenhutte": {
    "name": "Felsenhütte",
    "slug": "felsenhutte",
    "category": "SCENIC_POINT",
    "region": "Alps",
    "country": "Europe",
    "lat": 47.6666841,
    "lng": 7.933224,
    "nearest_airport": "ZRH",
    "description": "Auto-imported SCENIC_POINT. Altitude: N/Am"
  },
  "felsentor": {
    "name": "Felsentor",
    "slug": "felsentor",
    "category": "MOUNTAIN_PASS",
    "region": "Alps",
    "country": "Europe",
    "lat": 47.5163533,
    "lng": 10.8604437,
    "nearest_airport": "INN",
    "description": "Auto-imported MOUNTAIN_PASS. Altitude: 2051m"
  },
  "felsentor-3136": {
    "name": "Felsentor",
    "slug": "felsentor-3136",
    "category": "MOUNTAIN_PASS",
    "region": "Alps",
    "country": "",
    "lat": 47.5163533,
    "lng": 10.8604437,
    "nearest_airport": "",
    "description": "Verified Location."
  },
  "felskanzel": {
    "name": "Felskanzel",
    "slug": "felskanzel",
    "category": "SCENIC_POINT",
    "region": "Alps",
    "country": "Europe",
    "lat": 47.0176729,
    "lng": 13.4180711,
    "nearest_airport": "SZG",
    "description": "Auto-imported SCENIC_POINT. Altitude: N/Am"
  },
  "felskar-rinne": {
    "name": "Felskar-Rinne",
    "slug": "felskar-rinne",
    "category": "SCENIC_POINT",
    "region": "Alps",
    "country": "Europe",
    "lat": 47.8309801,
    "lng": 13.6352684,
    "nearest_airport": "SZG",
    "description": "Auto-imported SCENIC_POINT. Altitude: N/Am"
  },
  "felsoszolnoki-kilato": {
    "name": "Felsőszölnöki kilátó",
    "slug": "felsoszolnoki-kilato",
    "category": "SCENIC_POINT",
    "region": "Alps",
    "country": "Europe",
    "lat": 46.8886117,
    "lng": 16.1616089,
    "nearest_airport": "VIE",
    "description": "Auto-imported SCENIC_POINT. Altitude: N/Am"
  },
  "felsplatte": {
    "name": "Felsplatte",
    "slug": "felsplatte",
    "category": "SCENIC_POINT",
    "region": "Alps",
    "country": "Europe",
    "lat": 47.456578,
    "lng": 7.450781,
    "nearest_airport": "ZRH",
    "description": "Auto-imported SCENIC_POINT. Altitude: N/Am"
  },
  "fenestrez": {
    "name": "Fenestrez",
    "slug": "fenestrez",
    "category": "SCENIC_POINT",
    "region": "Alps",
    "country": "Europe",
    "lat": 45.8648331,
    "lng": 5.7743471,
    "nearest_airport": "GVA",
    "description": "Vue sur le Rhône, la Chautagne et le lac du Bourget"
  },
  "fenetre-darpette": {
    "name": "Fenêtre d'Arpette",
    "slug": "fenetre-darpette",
    "category": "MOUNTAIN_PASS",
    "region": "Alps",
    "country": "Europe",
    "lat": 46.0191044,
    "lng": 7.0398926,
    "nearest_airport": "GVA",
    "description": "Auto-imported MOUNTAIN_PASS. Altitude: 2665m"
  },
  "fenetre-darpette-875": {
    "name": "Fenêtre d'Arpette",
    "slug": "fenetre-darpette-875",
    "category": "MOUNTAIN_PASS",
    "region": "Alps",
    "country": "",
    "lat": 46.0191044,
    "lng": 7.0398926,
    "nearest_airport": "",
    "description": "Verified Location."
  },
  "fenetre-de-durand": {
    "name": "Fenêtre de Durand",
    "slug": "fenetre-de-durand",
    "category": "MOUNTAIN_PASS",
    "region": "Alps",
    "country": "Europe",
    "lat": 45.9105498,
    "lng": 7.3565068,
    "nearest_airport": "TRN",
    "description": "Auto-imported MOUNTAIN_PASS. Altitude: 2797m"
  },
  "fenetre-de-durand-2608": {
    "name": "Fenêtre de Durand",
    "slug": "fenetre-de-durand-2608",
    "category": "MOUNTAIN_PASS",
    "region": "Alps",
    "country": "",
    "lat": 45.9105498,
    "lng": 7.3565068,
    "nearest_airport": "",
    "description": "Verified Location."
  },
  "fenetre-de-ferret": {
    "name": "Fenêtre de Ferret",
    "slug": "fenetre-de-ferret",
    "category": "MOUNTAIN_PASS",
    "region": "Alps",
    "country": "Europe",
    "lat": 45.8760254,
    "lng": 7.1452648,
    "nearest_airport": "TRN",
    "description": "Auto-imported MOUNTAIN_PASS. Altitude: 2698m"
  },
  "fenetre-de-ferret-264": {
    "name": "Fenêtre de Ferret",
    "slug": "fenetre-de-ferret-264",
    "category": "MOUNTAIN_PASS",
    "region": "Alps",
    "country": "",
    "lat": 45.8760254,
    "lng": 7.1452648,
    "nearest_airport": "",
    "description": "Verified Location."
  },
  "fenetre-de-saleina": {
    "name": "Fenêtre de Saleina",
    "slug": "fenetre-de-saleina",
    "category": "MOUNTAIN_PASS",
    "region": "Alps",
    "country": "Europe",
    "lat": 45.9830614,
    "lng": 7.0255637,
    "nearest_airport": "GVA",
    "description": "Auto-imported MOUNTAIN_PASS. Altitude: 3261m"
  },
  "fenetre-de-saleina-394": {
    "name": "Fenêtre de Saleina",
    "slug": "fenetre-de-saleina-394",
    "category": "MOUNTAIN_PASS",
    "region": "Alps",
    "country": "",
    "lat": 45.9830614,
    "lng": 7.0255637,
    "nearest_airport": "",
    "description": "Verified Location."
  },
  "fenetre-de-sereina": {
    "name": "Fenêtre de Sereina",
    "slug": "fenetre-de-sereina",
    "category": "MOUNTAIN_PASS",
    "region": "Alps",
    "country": "Europe",
    "lat": 45.79987,
    "lng": 7.1071771,
    "nearest_airport": "TRN",
    "description": "Auto-imported MOUNTAIN_PASS. Altitude: 2547m"
  },
  "fenetre-de-sereina-2070": {
    "name": "Fenêtre de Sereina",
    "slug": "fenetre-de-sereina-2070",
    "category": "MOUNTAIN_PASS",
    "region": "Alps",
    "country": "",
    "lat": 45.79987,
    "lng": 7.1071771,
    "nearest_airport": "",
    "description": "Verified Location."
  },
  "fenetre-de-soi": {
    "name": "Fenêtre de Soi",
    "slug": "fenetre-de-soi",
    "category": "MOUNTAIN_PASS",
    "region": "Alps",
    "country": "Europe",
    "lat": 46.1685365,
    "lng": 6.9349567,
    "nearest_airport": "GVA",
    "description": "Auto-imported MOUNTAIN_PASS. Altitude: 3009m"
  },
  "fenetre-de-soi-869": {
    "name": "Fenêtre de Soi",
    "slug": "fenetre-de-soi-869",
    "category": "MOUNTAIN_PASS",
    "region": "Alps",
    "country": "",
    "lat": 46.1685365,
    "lng": 6.9349567,
    "nearest_airport": "",
    "description": "Verified Location."
  },
  "fenetre-den-haut-col-de-fonteinte": {
    "name": "Fenêtre d'en Haut - Col de Fonteinte",
    "slug": "fenetre-den-haut-col-de-fonteinte",
    "category": "MOUNTAIN_PASS",
    "region": "Alps",
    "country": "Europe",
    "lat": 45.8776017,
    "lng": 7.1504841,
    "nearest_airport": "TRN",
    "description": "Auto-imported MOUNTAIN_PASS. Altitude: 2720m"
  },
  "fenetre-den-haut-col-de-fonteinte-1745": {
    "name": "Fenêtre d'en Haut - Col de Fonteinte",
    "slug": "fenetre-den-haut-col-de-fonteinte-1745",
    "category": "MOUNTAIN_PASS",
    "region": "Alps",
    "country": "",
    "lat": 45.8776017,
    "lng": 7.1504841,
    "nearest_airport": "",
    "description": "Verified Location."
  },
  "fenetre-dersaz": {
    "name": "Fenetre d'Ersaz",
    "slug": "fenetre-dersaz",
    "category": "MOUNTAIN_PASS",
    "region": "Alps",
    "country": "Europe",
    "lat": 45.8524928,
    "lng": 7.5826004,
    "nearest_airport": "TRN",
    "description": "Auto-imported MOUNTAIN_PASS. Altitude: 2290m"
  },
  "fenetre-dersaz-3133": {
    "name": "Fenetre d'Ersaz",
    "slug": "fenetre-dersaz-3133",
    "category": "MOUNTAIN_PASS",
    "region": "Alps",
    "country": "",
    "lat": 45.8524928,
    "lng": 7.5826004,
    "nearest_airport": "",
    "description": "Verified Location."
  },
  "fenetre-des-dents-blanches": {
    "name": "Fenêtre des Dents Blanches",
    "slug": "fenetre-des-dents-blanches",
    "category": "MOUNTAIN_PASS",
    "region": "Alps",
    "country": "Europe",
    "lat": 46.1321253,
    "lng": 6.8340316,
    "nearest_airport": "GVA",
    "description": "Auto-imported MOUNTAIN_PASS. Altitude: 2602m"
  },
  "fenetre-des-dents-blanches-3296": {
    "name": "Fenêtre des Dents Blanches",
    "slug": "fenetre-des-dents-blanches-3296",
    "category": "MOUNTAIN_PASS",
    "region": "Alps",
    "country": "",
    "lat": 46.1321253,
    "lng": 6.8340316,
    "nearest_airport": "",
    "description": "Verified Location."
  },
  "fenetre-des-pendants": {
    "name": "Fenêtre des Pendants",
    "slug": "fenetre-des-pendants",
    "category": "SCENIC_POINT",
    "region": "Alps",
    "country": "Europe",
    "lat": 45.7204766,
    "lng": 6.031588,
    "nearest_airport": "GVA",
    "description": "Auto-imported SCENIC_POINT. Altitude: N/Am"
  },
  "fenetre-du-tour": {
    "name": "Fenêtre du Tour",
    "slug": "fenetre-du-tour",
    "category": "MOUNTAIN_PASS",
    "region": "Alps",
    "country": "Europe",
    "lat": 45.9748705,
    "lng": 7.0147813,
    "nearest_airport": "GVA",
    "description": "Auto-imported MOUNTAIN_PASS. Altitude: 3414m"
  },
  "fenetre-du-tour-2099": {
    "name": "Fenêtre du Tour",
    "slug": "fenetre-du-tour-2099",
    "category": "MOUNTAIN_PASS",
    "region": "Alps",
    "country": "",
    "lat": 45.9748705,
    "lng": 7.0147813,
    "nearest_airport": "",
    "description": "Verified Location."
  },
  "fenetre-du-tsan": {
    "name": "Fenetre du Tsan",
    "slug": "fenetre-du-tsan",
    "category": "MOUNTAIN_PASS",
    "region": "Alps",
    "country": "Europe",
    "lat": 45.8619051,
    "lng": 7.5272984,
    "nearest_airport": "TRN",
    "description": "Auto-imported MOUNTAIN_PASS. Altitude: 2736m"
  },
  "fenetre-du-tsan-1958": {
    "name": "Fenetre du Tsan",
    "slug": "fenetre-du-tsan-1958",
    "category": "MOUNTAIN_PASS",
    "region": "Alps",
    "country": "",
    "lat": 45.8619051,
    "lng": 7.5272984,
    "nearest_airport": "",
    "description": "Verified Location."
  },
  "fenisberg": {
    "name": "Fenisberg",
    "slug": "fenisberg",
    "category": "SCENIC_POINT",
    "region": "Alps",
    "country": "Europe",
    "lat": 47.6827943,
    "lng": 8.6692623,
    "nearest_airport": "ZRH",
    "description": "Auto-imported SCENIC_POINT. Altitude: N/Am"
  },
  "fenster-zum-allgau": {
    "name": "Fenster zum Allgäu",
    "slug": "fenster-zum-allgau",
    "category": "SCENIC_POINT",
    "region": "Alps",
    "country": "Europe",
    "lat": 47.742984,
    "lng": 9.7320233,
    "nearest_airport": "ZRH",
    "description": "Auto-imported SCENIC_POINT. Altitude: N/Am"
  },
  "fensterlikopf": {
    "name": "Fensterlikopf",
    "slug": "fensterlikopf",
    "category": "SCENIC_POINT",
    "region": "Alps",
    "country": "Europe",
    "lat": 47.3618479,
    "lng": 9.754018,
    "nearest_airport": "ZRH",
    "description": "Auto-imported SCENIC_POINT. Altitude: 1279m"
  },
  "fente-de-babre": {
    "name": "Fente de Babre",
    "slug": "fente-de-babre",
    "category": "SCENIC_POINT",
    "region": "Alps",
    "country": "Europe",
    "lat": 47.3449559,
    "lng": 6.3795067,
    "nearest_airport": "GVA",
    "description": "Auto-imported SCENIC_POINT. Altitude: N/Am"
  },
  "ferdinands-hohe": {
    "name": "Ferdinands-Höhe",
    "slug": "ferdinands-hohe",
    "category": "SCENIC_POINT",
    "region": "Alps",
    "country": "Europe",
    "lat": 46.4188859,
    "lng": 11.2121717,
    "nearest_airport": "INN",
    "description": "Auto-imported SCENIC_POINT. Altitude: N/Am"
  },
  "fernaujoch": {
    "name": "Fernaujoch",
    "slug": "fernaujoch",
    "category": "MOUNTAIN_PASS",
    "region": "Alps",
    "country": "Europe",
    "lat": 46.9722043,
    "lng": 11.125797,
    "nearest_airport": "INN",
    "description": "Auto-imported MOUNTAIN_PASS. Altitude: 3055m"
  },
  "fernaujoch-430": {
    "name": "Fernaujoch",
    "slug": "fernaujoch-430",
    "category": "MOUNTAIN_PASS",
    "region": "Alps",
    "country": "",
    "lat": 46.9722043,
    "lng": 11.125797,
    "nearest_airport": "",
    "description": "Verified Location."
  },
  "fernblick-karl": {
    "name": "Fernblick Karl",
    "slug": "fernblick-karl",
    "category": "SCENIC_POINT",
    "region": "Alps",
    "country": "Europe",
    "lat": 47.5001171,
    "lng": 16.3394682,
    "nearest_airport": "VIE",
    "description": "Auto-imported SCENIC_POINT. Altitude: N/Am"
  },
  "fernerboden": {
    "name": "Fernerboden",
    "slug": "fernerboden",
    "category": "SCENIC_POINT",
    "region": "Alps",
    "country": "Europe",
    "lat": 47.1124464,
    "lng": 11.1324211,
    "nearest_airport": "INN",
    "description": "Auto-imported SCENIC_POINT. Altitude: N/Am"
  },
  "fernglas": {
    "name": "Fernglas",
    "slug": "fernglas",
    "category": "SCENIC_POINT",
    "region": "Alps",
    "country": "Europe",
    "lat": 47.2563688,
    "lng": 9.3186645,
    "nearest_airport": "ZRH",
    "description": "Auto-imported SCENIC_POINT. Altitude: N/Am"
  },
  "fernpass": {
    "name": "Fernpass",
    "slug": "fernpass",
    "category": "MOUNTAIN_PASS",
    "region": "Alps",
    "country": "Europe",
    "lat": 47.3639192,
    "lng": 10.8349398,
    "nearest_airport": "INN",
    "description": "Auto-imported MOUNTAIN_PASS. Altitude: 1216m"
  },
  "fernpass-2237": {
    "name": "Fernpass",
    "slug": "fernpass-2237",
    "category": "MOUNTAIN_PASS",
    "region": "Alps",
    "country": "",
    "lat": 47.3639192,
    "lng": 10.8349398,
    "nearest_airport": "",
    "description": "Verified Location."
  },
  "fernseher": {
    "name": "Fernseher",
    "slug": "fernseher",
    "category": "SCENIC_POINT",
    "region": "Alps",
    "country": "Europe",
    "lat": 47.7572673,
    "lng": 8.8298699,
    "nearest_airport": "ZRH",
    "description": "Artwork"
  },
  "fernsehturm": {
    "name": "Fernsehturm",
    "slug": "fernsehturm",
    "category": "SCENIC_POINT",
    "region": "Alps",
    "country": "Europe",
    "lat": 46.760244,
    "lng": 8.0443239,
    "nearest_airport": "ZRH",
    "description": "Auto-imported SCENIC_POINT. Altitude: N/Am"
  },
  "ferrovia-s-gottardo": {
    "name": "Ferrovia S. Gottardo",
    "slug": "ferrovia-s-gottardo",
    "category": "SCENIC_POINT",
    "region": "Alps",
    "country": "Europe",
    "lat": 46.4909836,
    "lng": 8.773648,
    "nearest_airport": "MXP",
    "description": "Auto-imported SCENIC_POINT. Altitude: N/Am"
  },
  "festi-kin-lucke": {
    "name": "Festi-Kin-Lücke",
    "slug": "festi-kin-lucke",
    "category": "MOUNTAIN_PASS",
    "region": "Alps",
    "country": "Europe",
    "lat": 46.0932423,
    "lng": 7.8419698,
    "nearest_airport": "MXP",
    "description": "Auto-imported MOUNTAIN_PASS. Altitude: 3734m"
  },
  "festi-kin-lucke-2278": {
    "name": "Festi-Kin-Lücke",
    "slug": "festi-kin-lucke-2278",
    "category": "MOUNTAIN_PASS",
    "region": "Alps",
    "country": "",
    "lat": 46.0932423,
    "lng": 7.8419698,
    "nearest_airport": "",
    "description": "Verified Location."
  },
  "festijoch": {
    "name": "Festijoch",
    "slug": "festijoch",
    "category": "MOUNTAIN_PASS",
    "region": "Alps",
    "country": "Europe",
    "lat": 46.1014094,
    "lng": 7.8480899,
    "nearest_airport": "MXP",
    "description": "Auto-imported MOUNTAIN_PASS. Altitude: N/Am"
  },
  "festungsblick": {
    "name": "Festungsblick",
    "slug": "festungsblick",
    "category": "SCENIC_POINT",
    "region": "Alps",
    "country": "Europe",
    "lat": 47.8018542,
    "lng": 13.0575458,
    "nearest_airport": "SZG",
    "description": "Auto-imported SCENIC_POINT. Altitude: N/Am"
  },
  "feuchtgebiet-am-aubach": {
    "name": "Feuchtgebiet am Aubach",
    "slug": "feuchtgebiet-am-aubach",
    "category": "SCENIC_POINT",
    "region": "Alps",
    "country": "Europe",
    "lat": 47.8158175,
    "lng": 9.2591359,
    "nearest_airport": "ZRH",
    "description": "Auto-imported SCENIC_POINT. Altitude: N/Am"
  },
  "feuerpalfen": {
    "name": "Feuerpalfen",
    "slug": "feuerpalfen",
    "category": "SCENIC_POINT",
    "region": "Alps",
    "country": "Europe",
    "lat": 47.540841,
    "lng": 12.9924562,
    "nearest_airport": "SZG",
    "description": "Auto-imported SCENIC_POINT. Altitude: 1728m"
  },
  "feuerpalfen-100": {
    "name": "Feuerpalfen",
    "slug": "feuerpalfen-100",
    "category": "SCENIC_POINT",
    "region": "Alps",
    "country": "",
    "lat": 47.540841,
    "lng": 12.9924562,
    "nearest_airport": "",
    "description": "Verified Location."
  },
  "feuerstein-aussichtsplattform": {
    "name": "Feuerstein Aussichtsplattform",
    "slug": "feuerstein-aussichtsplattform",
    "category": "SCENIC_POINT",
    "region": "Alps",
    "country": "Europe",
    "lat": 47.0256133,
    "lng": 10.9857096,
    "nearest_airport": "INN",
    "description": "Auto-imported SCENIC_POINT. Altitude: N/Am"
  },
  "feuerstelle": {
    "name": "Feuerstelle",
    "slug": "feuerstelle",
    "category": "SCENIC_POINT",
    "region": "Alps",
    "country": "Europe",
    "lat": 47.1388189,
    "lng": 9.220974,
    "nearest_airport": "ZRH",
    "description": "Auto-imported SCENIC_POINT. Altitude: N/Am"
  }
}