{
  "fia-felsen": {
    "name": "Fia Felsen",
    "slug": "fia-felsen",
    "category": "SCENIC_POINT",
    "region": "Alps",
    "country": "Europe",
    "lat": 47.9742464,
    "lng": 6.957641,
    "nearest_airport": "ZRH",
    "description": "Auto-imported SCENIC_POINT. Altitude: N/Am"
  },
  "fidelishohe": {
    "name": "Fidelishöhe",
    "slug": "fidelishohe",
    "category": "SCENIC_POINT",
    "region": "Alps",
    "country": "Europe",
    "lat": 47.7837124,
    "lng": 9.1261052,
    "nearest_airport": "ZRH",
    "description": "Auto-imported SCENIC_POINT. Altitude: N/Am"
  },
  "fiderepass": {
    "name": "Fiderepass",
    "slug": "fiderepass",
    "category": "MOUNTAIN_PASS",
    "region": "Alps",
    "country": "Europe",
    "lat": 47.3146317,
    "lng": 10.213747,
    "nearest_airport": "INN",
    "description": "Auto-imported MOUNTAIN_PASS. Altitude: 2036m"
  },
  "fiderepass-216": {
    "name": "Fiderepass",
    "slug": "fiderepass-216",
    "category": "MOUNTAIN_PASS",
    "region": "Alps",
    "country": "",
    "lat": 47.3146317,
    "lng": 10.213747,
    "nearest_airport": "",
    "description": "Verified Location."
  },
  "fiderescharte": {
    "name": "Fiderescharte",
    "slug": "fiderescharte",
    "category": "MOUNTAIN_PASS",
    "region": "Alps",
    "country": "Europe",
    "lat": 47.313857,
    "lng": 10.2201588,
    "nearest_airport": "INN",
    "description": "Auto-imported MOUNTAIN_PASS. Altitude: 2200m"
  },
  "fiderescharte-218": {
    "name": "Fiderescharte",
    "slug": "fiderescharte-218",
    "category": "MOUNTAIN_PASS",
    "region": "Alps",
    "country": "",
    "lat": 47.313857,
    "lng": 10.2201588,
    "nearest_airport": "",
    "description": "Verified Location."
  },
  "fiechter-kopfl": {
    "name": "Fiechter Köpfl",
    "slug": "fiechter-kopfl",
    "category": "SCENIC_POINT",
    "region": "Alps",
    "country": "Europe",
    "lat": 47.2952922,
    "lng": 11.0063292,
    "nearest_airport": "INN",
    "description": "Auto-imported SCENIC_POINT. Altitude: N/Am"
  },
  "filaressa": {
    "name": "Filaressa",
    "slug": "filaressa",
    "category": "SCENIC_POINT",
    "region": "Alps",
    "country": "Europe",
    "lat": 45.7739584,
    "lng": 9.7154429,
    "nearest_airport": "MXP",
    "description": "Auto-imported SCENIC_POINT. Altitude: 1134m"
  },
  "filicev-dom": {
    "name": "Filićev dom",
    "slug": "filicev-dom",
    "category": "SCENIC_POINT",
    "region": "Alps",
    "country": "Europe",
    "lat": 46.2687293,
    "lng": 15.9875177,
    "nearest_airport": "VIE",
    "description": "Auto-imported SCENIC_POINT. Altitude: 644m"
  },
  "filmoorsattel-forcella-del-cavallino": {
    "name": "Filmoorsattel / Forcella del Cavallino",
    "slug": "filmoorsattel-forcella-del-cavallino",
    "category": "MOUNTAIN_PASS",
    "region": "Alps",
    "country": "Europe",
    "lat": 46.6716509,
    "lng": 12.5281895,
    "nearest_airport": "INN",
    "description": "Auto-imported MOUNTAIN_PASS. Altitude: 2453m"
  },
  "filmoorsattel-forcella-del-cavallino-2210": {
    "name": "Filmoorsattel / Forcella del Cavallino",
    "slug": "filmoorsattel-forcella-del-cavallino-2210",
    "category": "MOUNTAIN_PASS",
    "region": "Alps",
    "country": "",
    "lat": 46.6716509,
    "lng": 12.5281895,
    "nearest_airport": "",
    "description": "Verified Location."
  },
  "filz-rast": {
    "name": "Filz Rast",
    "slug": "filz-rast",
    "category": "SCENIC_POINT",
    "region": "Alps",
    "country": "Europe",
    "lat": 47.2214047,
    "lng": 12.0822546,
    "nearest_airport": "INN",
    "description": "Auto-imported SCENIC_POINT. Altitude: 1950m"
  },
  "filzensattel": {
    "name": "Filzensattel",
    "slug": "filzensattel",
    "category": "MOUNTAIN_PASS",
    "region": "Alps",
    "country": "Europe",
    "lat": 47.3972515,
    "lng": 13.0009717,
    "nearest_airport": "SZG",
    "description": "Auto-imported MOUNTAIN_PASS. Altitude: 1290m"
  },
  "filzensattel-2831": {
    "name": "Filzensattel",
    "slug": "filzensattel-2831",
    "category": "MOUNTAIN_PASS",
    "region": "Alps",
    "country": "",
    "lat": 47.3972515,
    "lng": 13.0009717,
    "nearest_airport": "",
    "description": "Verified Location."
  },
  "filzenscharte": {
    "name": "Filzenscharte",
    "slug": "filzenscharte",
    "category": "MOUNTAIN_PASS",
    "region": "Alps",
    "country": "Europe",
    "lat": 47.3111319,
    "lng": 12.218901,
    "nearest_airport": "INN",
    "description": "Auto-imported MOUNTAIN_PASS. Altitude: 1686m"
  },
  "filzmoossattel": {
    "name": "Filzmoossattel",
    "slug": "filzmoossattel",
    "category": "MOUNTAIN_PASS",
    "region": "Alps",
    "country": "Europe",
    "lat": 47.2020239,
    "lng": 13.2842254,
    "nearest_airport": "SZG",
    "description": "Auto-imported MOUNTAIN_PASS. Altitude: 2064m"
  },
  "filzmoossattel-615": {
    "name": "Filzmoossattel",
    "slug": "filzmoossattel-615",
    "category": "MOUNTAIN_PASS",
    "region": "Alps",
    "country": "",
    "lat": 47.2020239,
    "lng": 13.2842254,
    "nearest_airport": "",
    "description": "Verified Location."
  },
  "fimberpass": {
    "name": "Fimberpass",
    "slug": "fimberpass",
    "category": "MOUNTAIN_PASS",
    "region": "Alps",
    "country": "Europe",
    "lat": 46.896339,
    "lng": 10.278195,
    "nearest_airport": "INN",
    "description": "Auto-imported MOUNTAIN_PASS. Altitude: 2608m"
  },
  "fimberpass-2206": {
    "name": "Fimberpass",
    "slug": "fimberpass-2206",
    "category": "MOUNTAIN_PASS",
    "region": "Alps",
    "country": "",
    "lat": 46.896339,
    "lng": 10.278195,
    "nearest_airport": "",
    "description": "Verified Location."
  },
  "fin-dove-spazia-lo-guardo-si-propone-linfinito": {
    "name": "Fin dove spazia lo guardo: si propone l'infinito...",
    "slug": "fin-dove-spazia-lo-guardo-si-propone-linfinito",
    "category": "SCENIC_POINT",
    "region": "Alps",
    "country": "Europe",
    "lat": 43.8606632,
    "lng": 12.2303672,
    "nearest_airport": "VCE",
    "description": "Auto-imported SCENIC_POINT. Altitude: N/Am"
  },
  "fineiljoch": {
    "name": "Fineiljoch",
    "slug": "fineiljoch",
    "category": "MOUNTAIN_PASS",
    "region": "Alps",
    "country": "Europe",
    "lat": 46.7704486,
    "lng": 10.8096754,
    "nearest_airport": "INN",
    "description": "Auto-imported MOUNTAIN_PASS. Altitude: 3125m"
  },
  "fineiljoch-3340": {
    "name": "Fineiljoch",
    "slug": "fineiljoch-3340",
    "category": "MOUNTAIN_PASS",
    "region": "Alps",
    "country": "",
    "lat": 46.7704486,
    "lng": 10.8096754,
    "nearest_airport": "",
    "description": "Verified Location."
  },
  "finestra-del-grondilice": {
    "name": "Finestra del Grondilice",
    "slug": "finestra-del-grondilice",
    "category": "MOUNTAIN_PASS",
    "region": "Alps",
    "country": "Europe",
    "lat": 44.1207813,
    "lng": 10.1927337,
    "nearest_airport": "MXP",
    "description": "Auto-imported MOUNTAIN_PASS. Altitude: 1743m"
  },
  "finestra-di-champorcher": {
    "name": "Finestra di Champorcher",
    "slug": "finestra-di-champorcher",
    "category": "MOUNTAIN_PASS",
    "region": "Alps",
    "country": "Europe",
    "lat": 45.5993792,
    "lng": 7.4981596,
    "nearest_airport": "TRN",
    "description": "Auto-imported MOUNTAIN_PASS. Altitude: 2826m"
  },
  "finestra-di-champorcher-214": {
    "name": "Finestra di Champorcher",
    "slug": "finestra-di-champorcher-214",
    "category": "MOUNTAIN_PASS",
    "region": "Alps",
    "country": "",
    "lat": 45.5993792,
    "lng": 7.4981596,
    "nearest_airport": "",
    "description": "Verified Location."
  },
  "finestra-di-cignana": {
    "name": "Finestra Di Cignana",
    "slug": "finestra-di-cignana",
    "category": "MOUNTAIN_PASS",
    "region": "Alps",
    "country": "Europe",
    "lat": 45.8904886,
    "lng": 7.5970691,
    "nearest_airport": "TRN",
    "description": "Auto-imported MOUNTAIN_PASS. Altitude: 2445m"
  },
  "finestra-di-cignana-1932": {
    "name": "Finestra Di Cignana",
    "slug": "finestra-di-cignana-1932",
    "category": "MOUNTAIN_PASS",
    "region": "Alps",
    "country": "",
    "lat": 45.8904886,
    "lng": 7.5970691,
    "nearest_airport": "",
    "description": "Verified Location."
  },
  "finestra-sul-lago": {
    "name": "Finestra sul lago",
    "slug": "finestra-sul-lago",
    "category": "SCENIC_POINT",
    "region": "Alps",
    "country": "Europe",
    "lat": 46.2920447,
    "lng": 10.7642975,
    "nearest_airport": "INN",
    "description": "Auto-imported SCENIC_POINT. Altitude: N/Am"
  },
  "finestra-vandelli": {
    "name": "Finestra Vandelli",
    "slug": "finestra-vandelli",
    "category": "MOUNTAIN_PASS",
    "region": "Alps",
    "country": "Europe",
    "lat": 44.0971904,
    "lng": 10.2302943,
    "nearest_airport": "MXP",
    "description": "Auto-imported MOUNTAIN_PASS. Altitude: 1404m"
  },
  "finstermunzpass": {
    "name": "Finstermünzpass",
    "slug": "finstermunzpass",
    "category": "MOUNTAIN_PASS",
    "region": "Alps",
    "country": "Europe",
    "lat": 46.9133356,
    "lng": 10.4933452,
    "nearest_airport": "INN",
    "description": "Auto-imported MOUNTAIN_PASS. Altitude: 1186m"
  },
  "finstermunzpass-1688": {
    "name": "Finstermünzpass",
    "slug": "finstermunzpass-1688",
    "category": "MOUNTAIN_PASS",
    "region": "Alps",
    "country": "",
    "lat": 46.9133356,
    "lng": 10.4933452,
    "nearest_airport": "",
    "description": "Verified Location."
  },
  "firmisanjoch": {
    "name": "Firmisanjoch",
    "slug": "firmisanjoch",
    "category": "MOUNTAIN_PASS",
    "region": "Alps",
    "country": "Europe",
    "lat": 46.8110378,
    "lng": 10.96111,
    "nearest_airport": "INN",
    "description": "Auto-imported MOUNTAIN_PASS. Altitude: 3285m"
  },
  "firmisanjoch-2149": {
    "name": "Firmisanjoch",
    "slug": "firmisanjoch-2149",
    "category": "MOUNTAIN_PASS",
    "region": "Alps",
    "country": "",
    "lat": 46.8110378,
    "lng": 10.96111,
    "nearest_airport": "",
    "description": "Verified Location."
  },
  "firnsattel": {
    "name": "Firnsattel",
    "slug": "firnsattel",
    "category": "MOUNTAIN_PASS",
    "region": "Alps",
    "country": "Europe",
    "lat": 47.0439719,
    "lng": 10.7978228,
    "nearest_airport": "INN",
    "description": "Auto-imported MOUNTAIN_PASS. Altitude: 2860m"
  },
  "firnsattel-1001": {
    "name": "Firnsattel",
    "slug": "firnsattel-1001",
    "category": "MOUNTAIN_PASS",
    "region": "Alps",
    "country": "",
    "lat": 47.0439719,
    "lng": 10.7978228,
    "nearest_airport": "",
    "description": "Verified Location."
  },
  "first-cliff-walk-by-tissot": {
    "name": "First Cliff Walk by Tissot",
    "slug": "first-cliff-walk-by-tissot",
    "category": "SCENIC_POINT",
    "region": "Alps",
    "country": "Europe",
    "lat": 46.6598969,
    "lng": 8.0533432,
    "nearest_airport": "ZRH",
    "description": "Auto-imported SCENIC_POINT. Altitude: N/Am"
  },
  "firstacker": {
    "name": "Firstacker",
    "slug": "firstacker",
    "category": "MOUNTAIN_PASS",
    "region": "Alps",
    "country": "Europe",
    "lat": 47.8867708,
    "lng": 7.1280917,
    "nearest_airport": "ZRH",
    "description": "Auto-imported MOUNTAIN_PASS. Altitude: 955m"
  },
  "fische-beobachten": {
    "name": "Fische beobachten",
    "slug": "fische-beobachten",
    "category": "SCENIC_POINT",
    "region": "Alps",
    "country": "Europe",
    "lat": 47.4957153,
    "lng": 11.2791898,
    "nearest_airport": "INN",
    "description": "Auto-imported SCENIC_POINT. Altitude: N/Am"
  },
  "fischerhaus": {
    "name": "Fischerhaus",
    "slug": "fischerhaus",
    "category": "SCENIC_POINT",
    "region": "Alps",
    "country": "Europe",
    "lat": 47.5632826,
    "lng": 8.2532201,
    "nearest_airport": "ZRH",
    "description": "Auto-imported SCENIC_POINT. Altitude: N/Am"
  },
  "fischetz": {
    "name": "Fischetz",
    "slug": "fischetz",
    "category": "SCENIC_POINT",
    "region": "Alps",
    "country": "Europe",
    "lat": 47.6773586,
    "lng": 8.6149442,
    "nearest_airport": "ZRH",
    "description": "Auto-imported SCENIC_POINT. Altitude: N/Am"
  },
  "fisetenpass": {
    "name": "Fisetenpass",
    "slug": "fisetenpass",
    "category": "MOUNTAIN_PASS",
    "region": "Alps",
    "country": "Europe",
    "lat": 46.8851075,
    "lng": 8.9333328,
    "nearest_airport": "ZRH",
    "description": "Auto-imported MOUNTAIN_PASS. Altitude: 2036m"
  },
  "fisetenpass-1891": {
    "name": "Fisetenpass",
    "slug": "fisetenpass-1891",
    "category": "MOUNTAIN_PASS",
    "region": "Alps",
    "country": "",
    "lat": 46.8851075,
    "lng": 8.9333328,
    "nearest_airport": "",
    "description": "Verified Location."
  }
}