{
  "frabibbo": {
    "name": "Frabibbo",
    "slug": "frabibbo",
    "category": "SCENIC_POINT",
    "region": "Alps",
    "country": "Europe",
    "lat": 43.7813846,
    "lng": 10.9730864,
    "nearest_airport": "VCE",
    "description": "Auto-imported SCENIC_POINT. Altitude: N/Am"
  },
  "fraganter-scharte": {
    "name": "Fraganter Scharte",
    "slug": "fraganter-scharte",
    "category": "MOUNTAIN_PASS",
    "region": "Alps",
    "country": "Europe",
    "lat": 47.0412494,
    "lng": 13.0009388,
    "nearest_airport": "SZG",
    "description": "Auto-imported MOUNTAIN_PASS. Altitude: 2754m"
  },
  "fraganter-scharte-2169": {
    "name": "Fraganter Scharte",
    "slug": "fraganter-scharte-2169",
    "category": "MOUNTAIN_PASS",
    "region": "Alps",
    "country": "",
    "lat": 47.0412494,
    "lng": 13.0009388,
    "nearest_airport": "",
    "description": "Verified Location."
  },
  "frankbachjoch-giogo-di-riofranco": {
    "name": "Frankbachjoch - Giogo di Riofranco",
    "slug": "frankbachjoch-giogo-di-riofranco",
    "category": "MOUNTAIN_PASS",
    "region": "Alps",
    "country": "Europe",
    "lat": 47.0375069,
    "lng": 11.9327334,
    "nearest_airport": "INN",
    "description": "Auto-imported MOUNTAIN_PASS. Altitude: 2760m"
  },
  "frankbachjoch-giogo-di-riofranco-468": {
    "name": "Frankbachjoch - Giogo di Riofranco",
    "slug": "frankbachjoch-giogo-di-riofranco-468",
    "category": "MOUNTAIN_PASS",
    "region": "Alps",
    "country": "",
    "lat": 47.0375069,
    "lng": 11.9327334,
    "nearest_airport": "",
    "description": "Verified Location."
  },
  "frankenbach-wasserfall": {
    "name": "Frankenbach-Wasserfall",
    "slug": "frankenbach-wasserfall",
    "category": "SCENIC_POINT",
    "region": "Alps",
    "country": "Europe",
    "lat": 46.9940399,
    "lng": 11.9572134,
    "nearest_airport": "INN",
    "description": "Auto-imported SCENIC_POINT. Altitude: N/Am"
  },
  "franz-josefs-hohe": {
    "name": "Franz-Josefs-Höhe",
    "slug": "franz-josefs-hohe",
    "category": "SCENIC_POINT",
    "region": "Alps",
    "country": "Europe",
    "lat": 47.7949394,
    "lng": 13.0417274,
    "nearest_airport": "SZG",
    "description": "Auto-imported SCENIC_POINT. Altitude: N/Am"
  },
  "franzenswarte": {
    "name": "Franzenswarte",
    "slug": "franzenswarte",
    "category": "SCENIC_POINT",
    "region": "Alps",
    "country": "Europe",
    "lat": 46.5972573,
    "lng": 13.3513073,
    "nearest_airport": "SZG",
    "description": "Auto-imported SCENIC_POINT. Altitude: N/Am"
  },
  "franziskischlossl": {
    "name": "Franziskischlössl",
    "slug": "franziskischlossl",
    "category": "SCENIC_POINT",
    "region": "Alps",
    "country": "Europe",
    "lat": 47.8051777,
    "lng": 13.05859,
    "nearest_airport": "SZG",
    "description": "Auto-imported SCENIC_POINT. Altitude: N/Am"
  },
  "frattentumpfel": {
    "name": "Frattentümpfel",
    "slug": "frattentumpfel",
    "category": "SCENIC_POINT",
    "region": "Alps",
    "country": "Europe",
    "lat": 46.9155031,
    "lng": 12.2754723,
    "nearest_airport": "INN",
    "description": "Auto-imported SCENIC_POINT. Altitude: N/Am"
  },
  "frazione-gene": {
    "name": "Frazione Gene'",
    "slug": "frazione-gene",
    "category": "SCENIC_POINT",
    "region": "Alps",
    "country": "Europe",
    "lat": 44.4965771,
    "lng": 7.9230833,
    "nearest_airport": "TRN",
    "description": "Auto-imported SCENIC_POINT. Altitude: N/Am"
  },
  "freiger-scharte": {
    "name": "Freiger Scharte",
    "slug": "freiger-scharte",
    "category": "MOUNTAIN_PASS",
    "region": "Alps",
    "country": "Europe",
    "lat": 46.9642236,
    "lng": 11.2048212,
    "nearest_airport": "INN",
    "description": "Auto-imported MOUNTAIN_PASS. Altitude: 3024m"
  },
  "freiger-scharte-2621": {
    "name": "Freiger Scharte",
    "slug": "freiger-scharte-2621",
    "category": "MOUNTAIN_PASS",
    "region": "Alps",
    "country": "",
    "lat": 46.9642236,
    "lng": 11.2048212,
    "nearest_airport": "",
    "description": "Verified Location."
  },
  "freikofelscharte": {
    "name": "Freikofelscharte",
    "slug": "freikofelscharte",
    "category": "MOUNTAIN_PASS",
    "region": "Alps",
    "country": "Europe",
    "lat": 46.602472,
    "lng": 12.971447,
    "nearest_airport": "VCE",
    "description": "Auto-imported MOUNTAIN_PASS. Altitude: 1649m"
  },
  "freispitzscharte": {
    "name": "Freispitzscharte",
    "slug": "freispitzscharte",
    "category": "MOUNTAIN_PASS",
    "region": "Alps",
    "country": "Europe",
    "lat": 47.1969255,
    "lng": 10.4264273,
    "nearest_airport": "INN",
    "description": "Auto-imported MOUNTAIN_PASS. Altitude: 2644m"
  },
  "freispitzscharte-1071": {
    "name": "Freispitzscharte",
    "slug": "freispitzscharte-1071",
    "category": "MOUNTAIN_PASS",
    "region": "Alps",
    "country": "",
    "lat": 47.1969255,
    "lng": 10.4264273,
    "nearest_airport": "",
    "description": "Verified Location."
  },
  "freiwandscharte": {
    "name": "Freiwandscharte",
    "slug": "freiwandscharte",
    "category": "MOUNTAIN_PASS",
    "region": "Alps",
    "country": "Europe",
    "lat": 47.0885042,
    "lng": 12.7487794,
    "nearest_airport": "SZG",
    "description": "Auto-imported MOUNTAIN_PASS. Altitude: 2973m"
  },
  "freiwandscharte-3261": {
    "name": "Freiwandscharte",
    "slug": "freiwandscharte-3261",
    "category": "MOUNTAIN_PASS",
    "region": "Alps",
    "country": "",
    "lat": 47.0885042,
    "lng": 12.7487794,
    "nearest_airport": "",
    "description": "Verified Location."
  },
  "fresnapass-passo-fresna": {
    "name": "Fresnapass - Passo Fresna",
    "slug": "fresnapass-passo-fresna",
    "category": "MOUNTAIN_PASS",
    "region": "Alps",
    "country": "Europe",
    "lat": 46.4682828,
    "lng": 11.0177227,
    "nearest_airport": "INN",
    "description": "Auto-imported MOUNTAIN_PASS. Altitude: 1462m"
  },
  "freundsberg-aussichtspunkt": {
    "name": "Freundsberg Aussichtspunkt",
    "slug": "freundsberg-aussichtspunkt",
    "category": "SCENIC_POINT",
    "region": "Alps",
    "country": "Europe",
    "lat": 47.3436272,
    "lng": 11.7176732,
    "nearest_airport": "INN",
    "description": "Auto-imported SCENIC_POINT. Altitude: N/Am"
  },
  "friedenslinde": {
    "name": "Friedenslinde",
    "slug": "friedenslinde",
    "category": "SCENIC_POINT",
    "region": "Alps",
    "country": "Europe",
    "lat": 47.3789732,
    "lng": 8.043632,
    "nearest_airport": "ZRH",
    "description": "Auto-imported SCENIC_POINT. Altitude: N/Am"
  },
  "friedlhohe": {
    "name": "Friedlhöhe",
    "slug": "friedlhohe",
    "category": "SCENIC_POINT",
    "region": "Alps",
    "country": "Europe",
    "lat": 46.6025483,
    "lng": 14.2218375,
    "nearest_airport": "SZG",
    "description": "Auto-imported SCENIC_POINT. Altitude: 739m"
  },
  "friedrichshohe": {
    "name": "Friedrichshöhe",
    "slug": "friedrichshohe",
    "category": "SCENIC_POINT",
    "region": "Alps",
    "country": "Europe",
    "lat": 47.6962647,
    "lng": 9.2734186,
    "nearest_airport": "ZRH",
    "description": "Auto-imported SCENIC_POINT. Altitude: N/Am"
  },
  "friesenbergscharte": {
    "name": "Friesenbergscharte",
    "slug": "friesenbergscharte",
    "category": "MOUNTAIN_PASS",
    "region": "Alps",
    "country": "Europe",
    "lat": 47.0740316,
    "lng": 11.6925186,
    "nearest_airport": "INN",
    "description": "Auto-imported MOUNTAIN_PASS. Altitude: 2904m"
  },
  "friesenbergscharte-1861": {
    "name": "Friesenbergscharte",
    "slug": "friesenbergscharte-1861",
    "category": "MOUNTAIN_PASS",
    "region": "Alps",
    "country": "",
    "lat": 47.0740316,
    "lng": 11.6925186,
    "nearest_airport": "",
    "description": "Verified Location."
  },
  "friherrenberg": {
    "name": "Friherrenberg",
    "slug": "friherrenberg",
    "category": "SCENIC_POINT",
    "region": "Alps",
    "country": "Europe",
    "lat": 47.1196139,
    "lng": 8.7599381,
    "nearest_airport": "ZRH",
    "description": "Auto-imported SCENIC_POINT. Altitude: 1077m"
  },
  "frnaca": {
    "name": "Frnača",
    "slug": "frnaca",
    "category": "SCENIC_POINT",
    "region": "Alps",
    "country": "Europe",
    "lat": 45.7332748,
    "lng": 13.6906312,
    "nearest_airport": "VCE",
    "description": "Auto-imported SCENIC_POINT. Altitude: N/Am"
  },
  "frohberg": {
    "name": "Frohberg",
    "slug": "frohberg",
    "category": "SCENIC_POINT",
    "region": "Alps",
    "country": "Europe",
    "lat": 47.2416294,
    "lng": 8.8272466,
    "nearest_airport": "ZRH",
    "description": "Auto-imported SCENIC_POINT. Altitude: N/Am"
  },
  "frohe-aussicht": {
    "name": "Frohe Aussicht",
    "slug": "frohe-aussicht",
    "category": "SCENIC_POINT",
    "region": "Alps",
    "country": "Europe",
    "lat": 47.010196,
    "lng": 10.0067842,
    "nearest_airport": "INN",
    "description": "Auto-imported SCENIC_POINT. Altitude: 1040m"
  },
  "fronalppass": {
    "name": "Fronalppass",
    "slug": "fronalppass",
    "category": "MOUNTAIN_PASS",
    "region": "Alps",
    "country": "Europe",
    "lat": 47.063376,
    "lng": 9.1131312,
    "nearest_airport": "ZRH",
    "description": "Auto-imported MOUNTAIN_PASS. Altitude: 1855m"
  },
  "frosche-kroten-co": {
    "name": "Frösche, Kröten + Co.",
    "slug": "frosche-kroten-co",
    "category": "SCENIC_POINT",
    "region": "Alps",
    "country": "Europe",
    "lat": 47.6502232,
    "lng": 9.1873212,
    "nearest_airport": "ZRH",
    "description": "Auto-imported SCENIC_POINT. Altitude: N/Am"
  },
  "fruhstuckskogel": {
    "name": "Frühstückskogel",
    "slug": "fruhstuckskogel",
    "category": "SCENIC_POINT",
    "region": "Alps",
    "country": "Europe",
    "lat": 47.6725724,
    "lng": 14.2723572,
    "nearest_airport": "SZG",
    "description": "Auto-imported SCENIC_POINT. Altitude: N/Am"
  },
  "fruitieres-de-nyon": {
    "name": "Fruitières de Nyon",
    "slug": "fruitieres-de-nyon",
    "category": "SCENIC_POINT",
    "region": "Alps",
    "country": "Europe",
    "lat": 46.4600774,
    "lng": 6.1510664,
    "nearest_airport": "GVA",
    "description": "Auto-imported SCENIC_POINT. Altitude: N/Am"
  }
}