{
  "giaron": {
    "name": "Giaron",
    "slug": "giaron",
    "category": "SCENIC_POINT",
    "region": "Alps",
    "country": "Europe",
    "lat": 45.978955,
    "lng": 11.6914296,
    "nearest_airport": "VCE",
    "description": "Auto-imported SCENIC_POINT. Altitude: N/Am"
  },
  "gias-la-mera": {
    "name": "Gias \"La Mera\"",
    "slug": "gias-la-mera",
    "category": "SCENIC_POINT",
    "region": "Alps",
    "country": "Europe",
    "lat": 44.2300369,
    "lng": 7.2925846,
    "nearest_airport": "NCE",
    "description": "Auto-imported SCENIC_POINT. Altitude: N/Am"
  },
  "gias-sottano-del-colle": {
    "name": "Gias Sottano del Colle",
    "slug": "gias-sottano-del-colle",
    "category": "SCENIC_POINT",
    "region": "Alps",
    "country": "Europe",
    "lat": 44.2331268,
    "lng": 7.6298406,
    "nearest_airport": "NCE",
    "description": "Auto-imported SCENIC_POINT. Altitude: 1600m"
  },
  "gibelegg-sicht-auf-thunersee-und-berner-oberland": {
    "name": "Gibelegg Sicht auf Thunersee und Berner Oberland",
    "slug": "gibelegg-sicht-auf-thunersee-und-berner-oberland",
    "category": "SCENIC_POINT",
    "region": "Alps",
    "country": "Europe",
    "lat": 46.7943885,
    "lng": 7.4608018,
    "nearest_airport": "ZRH",
    "description": "Auto-imported SCENIC_POINT. Altitude: N/Am"
  },
  "gibidumpass": {
    "name": "Gibidumpass",
    "slug": "gibidumpass",
    "category": "MOUNTAIN_PASS",
    "region": "Alps",
    "country": "Europe",
    "lat": 46.2548453,
    "lng": 7.9385745,
    "nearest_airport": "MXP",
    "description": "Auto-imported MOUNTAIN_PASS. Altitude: 2201m"
  },
  "gibidumpass-876": {
    "name": "Gibidumpass",
    "slug": "gibidumpass-876",
    "category": "MOUNTAIN_PASS",
    "region": "Alps",
    "country": "",
    "lat": 46.2548453,
    "lng": 7.9385745,
    "nearest_airport": "",
    "description": "Verified Location."
  },
  "gibisnut": {
    "name": "Gibisnüt",
    "slug": "gibisnut",
    "category": "SCENIC_POINT",
    "region": "Alps",
    "country": "Europe",
    "lat": 47.4434318,
    "lng": 8.6370692,
    "nearest_airport": "ZRH",
    "description": "Auto-imported SCENIC_POINT. Altitude: N/Am"
  },
  "giggelberg": {
    "name": "Giggelberg",
    "slug": "giggelberg",
    "category": "SCENIC_POINT",
    "region": "Alps",
    "country": "Europe",
    "lat": 47.0694222,
    "lng": 10.9442927,
    "nearest_airport": "INN",
    "description": "Auto-imported SCENIC_POINT. Altitude: N/Am"
  },
  "ginalspass": {
    "name": "Ginalspass",
    "slug": "ginalspass",
    "category": "MOUNTAIN_PASS",
    "region": "Alps",
    "country": "Europe",
    "lat": 46.2195918,
    "lng": 7.7721609,
    "nearest_airport": "MXP",
    "description": "Auto-imported MOUNTAIN_PASS. Altitude: 2910m"
  },
  "ginalspass-1850": {
    "name": "Ginalspass",
    "slug": "ginalspass-1850",
    "category": "MOUNTAIN_PASS",
    "region": "Alps",
    "country": "",
    "lat": 46.2195918,
    "lng": 7.7721609,
    "nearest_airport": "",
    "description": "Verified Location."
  },
  "ginausattel": {
    "name": "Ginausattel",
    "slug": "ginausattel",
    "category": "MOUNTAIN_PASS",
    "region": "Alps",
    "country": "Europe",
    "lat": 47.3733148,
    "lng": 13.2797346,
    "nearest_airport": "SZG",
    "description": "Auto-imported MOUNTAIN_PASS. Altitude: 1379m"
  },
  "giogo-del-maniva": {
    "name": "Giogo del Maniva",
    "slug": "giogo-del-maniva",
    "category": "MOUNTAIN_PASS",
    "region": "Alps",
    "country": "Europe",
    "lat": 45.8226344,
    "lng": 10.4101045,
    "nearest_airport": "MXP",
    "description": "Auto-imported MOUNTAIN_PASS. Altitude: 1664m"
  },
  "giogo-del-maniva-162": {
    "name": "Giogo del Maniva",
    "slug": "giogo-del-maniva-162",
    "category": "MOUNTAIN_PASS",
    "region": "Alps",
    "country": "",
    "lat": 45.8226344,
    "lng": 10.4101045,
    "nearest_airport": "",
    "description": "Verified Location."
  },
  "giogo-dela-bala": {
    "name": "Giogo dela Bala",
    "slug": "giogo-dela-bala",
    "category": "MOUNTAIN_PASS",
    "region": "Alps",
    "country": "Europe",
    "lat": 45.8683046,
    "lng": 10.3807229,
    "nearest_airport": "MXP",
    "description": "Auto-imported MOUNTAIN_PASS. Altitude: 2136m"
  },
  "giogo-dela-bala-246": {
    "name": "Giogo dela Bala",
    "slug": "giogo-dela-bala-246",
    "category": "MOUNTAIN_PASS",
    "region": "Alps",
    "country": "",
    "lat": 45.8683046,
    "lng": 10.3807229,
    "nearest_airport": "",
    "description": "Verified Location."
  },
  "giogo-di-giustenice": {
    "name": "Giogo di Giustenice",
    "slug": "giogo-di-giustenice",
    "category": "MOUNTAIN_PASS",
    "region": "Alps",
    "country": "Europe",
    "lat": 44.1844507,
    "lng": 8.1911107,
    "nearest_airport": "NCE",
    "description": "Auto-imported MOUNTAIN_PASS. Altitude: 1143m"
  },
  "giogo-di-giustenice-3025": {
    "name": "Giogo di Giustenice",
    "slug": "giogo-di-giustenice-3025",
    "category": "MOUNTAIN_PASS",
    "region": "Alps",
    "country": "",
    "lat": 44.1844507,
    "lng": 8.1911107,
    "nearest_airport": "",
    "description": "Verified Location."
  },
  "giogo-di-paravanico": {
    "name": "Giogo di Paravanico",
    "slug": "giogo-di-paravanico",
    "category": "MOUNTAIN_PASS",
    "region": "Alps",
    "country": "Europe",
    "lat": 44.5289312,
    "lng": 8.8345039,
    "nearest_airport": "TRN",
    "description": "Auto-imported MOUNTAIN_PASS. Altitude: N/Am"
  },
  "giogo-di-toirano": {
    "name": "Giogo di Toirano",
    "slug": "giogo-di-toirano",
    "category": "MOUNTAIN_PASS",
    "region": "Alps",
    "country": "Europe",
    "lat": 44.1688375,
    "lng": 8.159881,
    "nearest_airport": "NCE",
    "description": "Auto-imported MOUNTAIN_PASS. Altitude: 801m"
  },
  "giogo-di-toirano-2865": {
    "name": "Giogo di Toirano",
    "slug": "giogo-di-toirano-2865",
    "category": "MOUNTAIN_PASS",
    "region": "Alps",
    "country": "",
    "lat": 44.1688375,
    "lng": 8.159881,
    "nearest_airport": "",
    "description": "Verified Location."
  },
  "giogo-veranis-ofner-joch": {
    "name": "Giogo Veranis / Öfner Joch",
    "slug": "giogo-veranis-ofner-joch",
    "category": "MOUNTAIN_PASS",
    "region": "Alps",
    "country": "Europe",
    "lat": 46.6407182,
    "lng": 12.7461487,
    "nearest_airport": "INN",
    "description": "Auto-imported MOUNTAIN_PASS. Altitude: 2011m"
  },
  "giogo-veranis-ofner-joch-3111": {
    "name": "Giogo Veranis / Öfner Joch",
    "slug": "giogo-veranis-ofner-joch-3111",
    "category": "MOUNTAIN_PASS",
    "region": "Alps",
    "country": "",
    "lat": 46.6407182,
    "lng": 12.7461487,
    "nearest_airport": "",
    "description": "Verified Location."
  },
  "giovat-di-cloz-clozner-joch": {
    "name": "Giovat di Cloz - Clozner Joch",
    "slug": "giovat-di-cloz-clozner-joch",
    "category": "MOUNTAIN_PASS",
    "region": "Alps",
    "country": "Europe",
    "lat": 46.435458,
    "lng": 11.07067,
    "nearest_airport": "INN",
    "description": "Auto-imported MOUNTAIN_PASS. Altitude: 1376m"
  },
  "giovetto-di-paline": {
    "name": "Giovetto di Paline",
    "slug": "giovetto-di-paline",
    "category": "MOUNTAIN_PASS",
    "region": "Alps",
    "country": "Europe",
    "lat": 45.9562897,
    "lng": 10.1220437,
    "nearest_airport": "MXP",
    "description": "Auto-imported MOUNTAIN_PASS. Altitude: 1274m"
  },
  "gipfelbereich-rauchgtattnberg": {
    "name": "Gipfelbereich Rauchgtättnberg",
    "slug": "gipfelbereich-rauchgtattnberg",
    "category": "SCENIC_POINT",
    "region": "Alps",
    "country": "Europe",
    "lat": 47.9284357,
    "lng": 16.129657,
    "nearest_airport": "VIE",
    "description": "Auto-imported SCENIC_POINT. Altitude: N/Am"
  },
  "gipfelkreuz": {
    "name": "Gipfelkreuz",
    "slug": "gipfelkreuz",
    "category": "SCENIC_POINT",
    "region": "Alps",
    "country": "Europe",
    "lat": 47.9169773,
    "lng": 15.9337677,
    "nearest_airport": "VIE",
    "description": "Auto-imported SCENIC_POINT. Altitude: N/Am"
  },
  "gipfelkreuz-bei-der-alpe-mittelberg": {
    "name": "Gipfelkreuz bei der Alpe Mittelberg",
    "slug": "gipfelkreuz-bei-der-alpe-mittelberg",
    "category": "SCENIC_POINT",
    "region": "Alps",
    "country": "Europe",
    "lat": 47.4966601,
    "lng": 10.1822349,
    "nearest_airport": "INN",
    "description": "Auto-imported SCENIC_POINT. Altitude: N/Am"
  },
  "gipfelkreuz-schatzberg": {
    "name": "Gipfelkreuz Schatzberg",
    "slug": "gipfelkreuz-schatzberg",
    "category": "SCENIC_POINT",
    "region": "Alps",
    "country": "Europe",
    "lat": 47.3903798,
    "lng": 11.9842152,
    "nearest_airport": "INN",
    "description": "Auto-imported SCENIC_POINT. Altitude: N/Am"
  },
  "gipfelkreuz-schockl": {
    "name": "Gipfelkreuz Schöckl",
    "slug": "gipfelkreuz-schockl",
    "category": "SCENIC_POINT",
    "region": "Alps",
    "country": "Europe",
    "lat": 47.1982719,
    "lng": 15.4598619,
    "nearest_airport": "VIE",
    "description": "Auto-imported SCENIC_POINT. Altitude: N/Am"
  },
  "gipfelkreuzkampermauer": {
    "name": "Gipfelkreuz_Kampermauer",
    "slug": "gipfelkreuzkampermauer",
    "category": "SCENIC_POINT",
    "region": "Alps",
    "country": "Europe",
    "lat": 47.689805,
    "lng": 14.4855561,
    "nearest_airport": "SZG",
    "description": "Auto-imported SCENIC_POINT. Altitude: N/Am"
  },
  "gipfelterrasse": {
    "name": "Gipfelterrasse",
    "slug": "gipfelterrasse",
    "category": "SCENIC_POINT",
    "region": "Alps",
    "country": "Europe",
    "lat": 47.7035102,
    "lng": 12.012247,
    "nearest_airport": "INN",
    "description": "Auto-imported SCENIC_POINT. Altitude: N/Am"
  },
  "gippi": {
    "name": "Gippi",
    "slug": "gippi",
    "category": "SCENIC_POINT",
    "region": "Alps",
    "country": "Europe",
    "lat": 46.7556864,
    "lng": 8.0388913,
    "nearest_airport": "ZRH",
    "description": "Auto-imported SCENIC_POINT. Altitude: N/Am"
  },
  "girandola": {
    "name": "Girandola",
    "slug": "girandola",
    "category": "SCENIC_POINT",
    "region": "Alps",
    "country": "Europe",
    "lat": 44.2373976,
    "lng": 7.5362347,
    "nearest_airport": "NCE",
    "description": "Auto-imported SCENIC_POINT. Altitude: N/Am"
  },
  "girenspitz": {
    "name": "Girenspitz",
    "slug": "girenspitz",
    "category": "SCENIC_POINT",
    "region": "Alps",
    "country": "Europe",
    "lat": 47.2521005,
    "lng": 9.3412123,
    "nearest_airport": "ZRH",
    "description": "Auto-imported SCENIC_POINT. Altitude: 2448m"
  },
  "girhalden": {
    "name": "Girhalden",
    "slug": "girhalden",
    "category": "SCENIC_POINT",
    "region": "Alps",
    "country": "Europe",
    "lat": 47.4164537,
    "lng": 8.6371184,
    "nearest_airport": "ZRH",
    "description": "Auto-imported SCENIC_POINT. Altitude: N/Am"
  },
  "giro-del-cassero": {
    "name": "Giro del Cassero",
    "slug": "giro-del-cassero",
    "category": "SCENIC_POINT",
    "region": "Alps",
    "country": "Europe",
    "lat": 43.7283203,
    "lng": 12.6349917,
    "nearest_airport": "VCE",
    "description": "Auto-imported SCENIC_POINT. Altitude: N/Am"
  },
  "giro-delle-erche": {
    "name": "Giro delle Erche",
    "slug": "giro-delle-erche",
    "category": "SCENIC_POINT",
    "region": "Alps",
    "country": "Europe",
    "lat": 44.1694136,
    "lng": 8.3076713,
    "nearest_airport": "NCE",
    "description": "Tornante della strada carrabile con vista mare"
  },
  "giselawarte": {
    "name": "Giselawarte",
    "slug": "giselawarte",
    "category": "SCENIC_POINT",
    "region": "Alps",
    "country": "Europe",
    "lat": 47.6312225,
    "lng": 13.6174964,
    "nearest_airport": "SZG",
    "description": "Auto-imported SCENIC_POINT. Altitude: N/Am"
  },
  "gisflueli": {
    "name": "Gisflüeli",
    "slug": "gisflueli",
    "category": "SCENIC_POINT",
    "region": "Alps",
    "country": "Europe",
    "lat": 47.2612557,
    "lng": 7.6130013,
    "nearest_airport": "ZRH",
    "description": "Auto-imported SCENIC_POINT. Altitude: 724m"
  },
  "gisliflue": {
    "name": "Gisliflue",
    "slug": "gisliflue",
    "category": "SCENIC_POINT",
    "region": "Alps",
    "country": "Europe",
    "lat": 47.4253767,
    "lng": 8.1084832,
    "nearest_airport": "ZRH",
    "description": "Auto-imported SCENIC_POINT. Altitude: N/Am"
  },
  "gitzifurka": {
    "name": "Gitzifurka",
    "slug": "gitzifurka",
    "category": "MOUNTAIN_PASS",
    "region": "Alps",
    "country": "Europe",
    "lat": 46.413922,
    "lng": 7.7043718,
    "nearest_airport": "MXP",
    "description": "Auto-imported MOUNTAIN_PASS. Altitude: 2912m"
  },
  "gitzifurka-3809": {
    "name": "Gitzifurka",
    "slug": "gitzifurka-3809",
    "category": "MOUNTAIN_PASS",
    "region": "Alps",
    "country": "",
    "lat": 46.413922,
    "lng": 7.7043718,
    "nearest_airport": "",
    "description": "Verified Location."
  },
  "giuel": {
    "name": "Giuel",
    "slug": "giuel",
    "category": "SCENIC_POINT",
    "region": "Alps",
    "country": "Europe",
    "lat": 46.2116879,
    "lng": 11.0829491,
    "nearest_airport": "INN",
    "description": "Auto-imported SCENIC_POINT. Altitude: N/Am"
  }
}