{
  "glacier-du-geant": {
    "name": "Glacier du Géant",
    "slug": "glacier-du-geant",
    "category": "SCENIC_POINT",
    "region": "Alps",
    "country": "Europe",
    "lat": 45.8789106,
    "lng": 6.8879131,
    "nearest_airport": "GVA",
    "description": "Auto-imported SCENIC_POINT. Altitude: N/Am"
  },
  "glacier-du-miage": {
    "name": "Glacier du Miage",
    "slug": "glacier-du-miage",
    "category": "SCENIC_POINT",
    "region": "Alps",
    "country": "Europe",
    "lat": 45.7790252,
    "lng": 6.8701658,
    "nearest_airport": "GVA",
    "description": "Auto-imported SCENIC_POINT. Altitude: N/Am"
  },
  "glacier-inferieur-des-balmes": {
    "name": "Glacier Inférieur des Balmes",
    "slug": "glacier-inferieur-des-balmes",
    "category": "SCENIC_POINT",
    "region": "Alps",
    "country": "Europe",
    "lat": 45.5530041,
    "lng": 6.9677909,
    "nearest_airport": "TRN",
    "description": "Auto-imported SCENIC_POINT. Altitude: N/Am"
  },
  "glanvellscharte-forcella-glanvell": {
    "name": "Glanvellscharte - Forcella Glanvell",
    "slug": "glanvellscharte-forcella-glanvell",
    "category": "MOUNTAIN_PASS",
    "region": "Alps",
    "country": "Europe",
    "lat": 46.671712,
    "lng": 12.1820504,
    "nearest_airport": "INN",
    "description": "Auto-imported MOUNTAIN_PASS. Altitude: 2680m"
  },
  "glanvellscharte-forcella-glanvell-3904": {
    "name": "Glanvellscharte - Forcella Glanvell",
    "slug": "glanvellscharte-forcella-glanvell-3904",
    "category": "MOUNTAIN_PASS",
    "region": "Alps",
    "country": "",
    "lat": 46.671712,
    "lng": 12.1820504,
    "nearest_airport": "",
    "description": "Verified Location."
  },
  "glaspass": {
    "name": "Glaspass",
    "slug": "glaspass",
    "category": "MOUNTAIN_PASS",
    "region": "Alps",
    "country": "Europe",
    "lat": 46.676747,
    "lng": 9.3452475,
    "nearest_airport": "ZRH",
    "description": "Auto-imported MOUNTAIN_PASS. Altitude: 1843m"
  },
  "glaswandscharte": {
    "name": "Glaswandscharte",
    "slug": "glaswandscharte",
    "category": "MOUNTAIN_PASS",
    "region": "Alps",
    "country": "Europe",
    "lat": 47.6532065,
    "lng": 11.4470147,
    "nearest_airport": "INN",
    "description": "Auto-imported MOUNTAIN_PASS. Altitude: 1324m"
  },
  "glath-ausblick": {
    "name": "Glath Ausblick",
    "slug": "glath-ausblick",
    "category": "SCENIC_POINT",
    "region": "Alps",
    "country": "Europe",
    "lat": 47.2458487,
    "lng": 9.6692881,
    "nearest_airport": "ZRH",
    "description": "Auto-imported SCENIC_POINT. Altitude: N/Am"
  },
  "glattjoch": {
    "name": "Glattjoch",
    "slug": "glattjoch",
    "category": "MOUNTAIN_PASS",
    "region": "Alps",
    "country": "Europe",
    "lat": 47.3194746,
    "lng": 14.215214,
    "nearest_airport": "SZG",
    "description": "Auto-imported MOUNTAIN_PASS. Altitude: 1988m"
  },
  "glaubenbergpass": {
    "name": "Glaubenbergpass",
    "slug": "glaubenbergpass",
    "category": "MOUNTAIN_PASS",
    "region": "Alps",
    "country": "Europe",
    "lat": 46.8924559,
    "lng": 8.1076661,
    "nearest_airport": "ZRH",
    "description": "Auto-imported MOUNTAIN_PASS. Altitude: 1540m"
  },
  "glaubenbergpass-2193": {
    "name": "Glaubenbergpass",
    "slug": "glaubenbergpass-2193",
    "category": "MOUNTAIN_PASS",
    "region": "Alps",
    "country": "",
    "lat": 46.8924559,
    "lng": 8.1076661,
    "nearest_airport": "",
    "description": "Verified Location."
  },
  "glaubenbielen": {
    "name": "Glaubenbielen",
    "slug": "glaubenbielen",
    "category": "MOUNTAIN_PASS",
    "region": "Alps",
    "country": "Europe",
    "lat": 46.8188105,
    "lng": 8.0931667,
    "nearest_airport": "ZRH",
    "description": "Auto-imported MOUNTAIN_PASS. Altitude: 1611m"
  },
  "glazareva-pecina": {
    "name": "Glažareva pećina",
    "slug": "glazareva-pecina",
    "category": "SCENIC_POINT",
    "region": "Alps",
    "country": "Europe",
    "lat": 46.2623968,
    "lng": 16.0158601,
    "nearest_airport": "VIE",
    "description": "Auto-imported SCENIC_POINT. Altitude: 548m"
  },
  "gleirschjochl": {
    "name": "Gleirschjöchl",
    "slug": "gleirschjochl",
    "category": "MOUNTAIN_PASS",
    "region": "Alps",
    "country": "Europe",
    "lat": 47.3133975,
    "lng": 11.3955186,
    "nearest_airport": "INN",
    "description": "Auto-imported MOUNTAIN_PASS. Altitude: N/Am"
  },
  "gleirschklamm-blick": {
    "name": "Gleirschklamm-Blick",
    "slug": "gleirschklamm-blick",
    "category": "SCENIC_POINT",
    "region": "Alps",
    "country": "Europe",
    "lat": 47.3766683,
    "lng": 11.3077675,
    "nearest_airport": "INN",
    "description": "Auto-imported SCENIC_POINT. Altitude: N/Am"
  },
  "gleirschschlucht-blick": {
    "name": "Gleirschschlucht-Blick",
    "slug": "gleirschschlucht-blick",
    "category": "SCENIC_POINT",
    "region": "Alps",
    "country": "Europe",
    "lat": 47.3643976,
    "lng": 11.3080384,
    "nearest_airport": "INN",
    "description": "Auto-imported SCENIC_POINT. Altitude: N/Am"
  },
  "glenktorl": {
    "name": "Glenktörl",
    "slug": "glenktorl",
    "category": "MOUNTAIN_PASS",
    "region": "Alps",
    "country": "Europe",
    "lat": 46.8339206,
    "lng": 13.1095393,
    "nearest_airport": "SZG",
    "description": "Auto-imported MOUNTAIN_PASS. Altitude: 2450m"
  },
  "glenktorl-2302": {
    "name": "Glenktörl",
    "slug": "glenktorl-2302",
    "category": "MOUNTAIN_PASS",
    "region": "Alps",
    "country": "",
    "lat": 46.8339206,
    "lng": 13.1095393,
    "nearest_airport": "",
    "description": "Verified Location."
  },
  "gletscherblick": {
    "name": "Gletscherblick",
    "slug": "gletscherblick",
    "category": "SCENIC_POINT",
    "region": "Alps",
    "country": "Europe",
    "lat": 46.3971313,
    "lng": 8.032172,
    "nearest_airport": "MXP",
    "description": "Auto-imported SCENIC_POINT. Altitude: N/Am"
  },
  "gletschermuhlen": {
    "name": "Gletschermühlen",
    "slug": "gletschermuhlen",
    "category": "SCENIC_POINT",
    "region": "Alps",
    "country": "Europe",
    "lat": 46.9689898,
    "lng": 8.7737569,
    "nearest_airport": "ZRH",
    "description": "Auto-imported SCENIC_POINT. Altitude: N/Am"
  },
  "gletschertor": {
    "name": "Gletschertor",
    "slug": "gletschertor",
    "category": "SCENIC_POINT",
    "region": "Alps",
    "country": "Europe",
    "lat": 46.397337,
    "lng": 8.0180986,
    "nearest_airport": "MXP",
    "description": "Auto-imported SCENIC_POINT. Altitude: N/Am"
  },
  "gli-scalini-della-chiesa": {
    "name": "Gli scalini della chiesa",
    "slug": "gli-scalini-della-chiesa",
    "category": "SCENIC_POINT",
    "region": "Alps",
    "country": "Europe",
    "lat": 43.5293211,
    "lng": 12.2614251,
    "nearest_airport": "VCE",
    "description": "Auto-imported SCENIC_POINT. Altitude: N/Am"
  },
  "gliederscharte": {
    "name": "Gliederscharte",
    "slug": "gliederscharte",
    "category": "MOUNTAIN_PASS",
    "region": "Alps",
    "country": "Europe",
    "lat": 46.9506078,
    "lng": 11.6694351,
    "nearest_airport": "INN",
    "description": "Auto-imported MOUNTAIN_PASS. Altitude: 2644m"
  },
  "gliederscharte-1862": {
    "name": "Gliederscharte",
    "slug": "gliederscharte-1862",
    "category": "MOUNTAIN_PASS",
    "region": "Alps",
    "country": "",
    "lat": 46.9506078,
    "lng": 11.6694351,
    "nearest_airport": "",
    "description": "Verified Location."
  },
  "glocke-zum-50-jahrestag-des-freundschaftstreffens": {
    "name": "Glocke zum 50. Jahrestag des Freundschaftstreffens",
    "slug": "glocke-zum-50-jahrestag-des-freundschaftstreffens",
    "category": "SCENIC_POINT",
    "region": "Alps",
    "country": "Europe",
    "lat": 46.5503835,
    "lng": 13.2401111,
    "nearest_airport": "VCE",
    "description": "Auto-imported SCENIC_POINT. Altitude: N/Am"
  },
  "glockenturm": {
    "name": "Glockenturm",
    "slug": "glockenturm",
    "category": "SCENIC_POINT",
    "region": "Alps",
    "country": "Europe",
    "lat": 47.0567111,
    "lng": 16.3231255,
    "nearest_airport": "VIE",
    "description": "Auto-imported SCENIC_POINT. Altitude: N/Am"
  },
  "glockner-platzl": {
    "name": "Glockner Platzl",
    "slug": "glockner-platzl",
    "category": "SCENIC_POINT",
    "region": "Alps",
    "country": "Europe",
    "lat": 47.2285262,
    "lng": 13.1510268,
    "nearest_airport": "SZG",
    "description": "Auto-imported SCENIC_POINT. Altitude: N/Am"
  },
  "glocknerblick": {
    "name": "Glocknerblick",
    "slug": "glocknerblick",
    "category": "SCENIC_POINT",
    "region": "Alps",
    "country": "Europe",
    "lat": 47.112395,
    "lng": 13.0988239,
    "nearest_airport": "SZG",
    "description": "Auto-imported SCENIC_POINT. Altitude: N/Am"
  },
  "glockturmjoch": {
    "name": "Glockturmjoch",
    "slug": "glockturmjoch",
    "category": "MOUNTAIN_PASS",
    "region": "Alps",
    "country": "Europe",
    "lat": 46.8781122,
    "lng": 10.6664857,
    "nearest_airport": "INN",
    "description": "Auto-imported MOUNTAIN_PASS. Altitude: 3005m"
  },
  "glockturmjoch-1015": {
    "name": "Glockturmjoch",
    "slug": "glockturmjoch-1015",
    "category": "MOUNTAIN_PASS",
    "region": "Alps",
    "country": "",
    "lat": 46.8781122,
    "lng": 10.6664857,
    "nearest_airport": "",
    "description": "Verified Location."
  },
  "glucksplatzl": {
    "name": "Glücksplatzl",
    "slug": "glucksplatzl",
    "category": "SCENIC_POINT",
    "region": "Alps",
    "country": "Europe",
    "lat": 47.2167413,
    "lng": 13.6591195,
    "nearest_airport": "SZG",
    "description": "Auto-imported SCENIC_POINT. Altitude: N/Am"
  }
}