{
  "grabenegg": {
    "name": "Grabenegg",
    "slug": "grabenegg",
    "category": "SCENIC_POINT",
    "region": "Alps",
    "country": "Europe",
    "lat": 47.1587452,
    "lng": 8.8609401,
    "nearest_airport": "ZRH",
    "description": "Auto-imported SCENIC_POINT. Altitude: N/Am"
  },
  "grabener-hohe": {
    "name": "Grabener Höhe",
    "slug": "grabener-hohe",
    "category": "SCENIC_POINT",
    "region": "Alps",
    "country": "Europe",
    "lat": 47.9281579,
    "lng": 9.8412993,
    "nearest_airport": "ZRH",
    "description": "Auto-imported SCENIC_POINT. Altitude: N/Am"
  },
  "gracina": {
    "name": "Gračina",
    "slug": "gracina",
    "category": "SCENIC_POINT",
    "region": "Alps",
    "country": "Europe",
    "lat": 43.7981505,
    "lng": 15.6680638,
    "nearest_airport": "VCE",
    "description": "Auto-imported SCENIC_POINT. Altitude: N/Am"
  },
  "grad": {
    "name": "Grad",
    "slug": "grad",
    "category": "SCENIC_POINT",
    "region": "Alps",
    "country": "Europe",
    "lat": 46.3565957,
    "lng": 15.1102141,
    "nearest_airport": "VIE",
    "description": "Auto-imported SCENIC_POINT. Altitude: N/Am"
  },
  "grad-gradislce": {
    "name": "Grad / Gradišlče",
    "slug": "grad-gradislce",
    "category": "SCENIC_POINT",
    "region": "Alps",
    "country": "Europe",
    "lat": 46.5136002,
    "lng": 14.3005012,
    "nearest_airport": "SZG",
    "description": "Auto-imported SCENIC_POINT. Altitude: 635m"
  },
  "grad-komenda": {
    "name": "Grad Komenda",
    "slug": "grad-komenda",
    "category": "SCENIC_POINT",
    "region": "Alps",
    "country": "Europe",
    "lat": 46.2803348,
    "lng": 15.0726011,
    "nearest_airport": "VCE",
    "description": "Auto-imported SCENIC_POINT. Altitude: N/Am"
  },
  "grad-pod-gorensko-potjo": {
    "name": "Grad pod Gorenško potjo",
    "slug": "grad-pod-gorensko-potjo",
    "category": "SCENIC_POINT",
    "region": "Alps",
    "country": "Europe",
    "lat": 45.9212752,
    "lng": 14.5033162,
    "nearest_airport": "VCE",
    "description": "Auto-imported SCENIC_POINT. Altitude: N/Am"
  },
  "gradina-kljuc": {
    "name": "Gradina Ključ",
    "slug": "gradina-kljuc",
    "category": "SCENIC_POINT",
    "region": "Alps",
    "country": "Europe",
    "lat": 45.2544214,
    "lng": 15.4200198,
    "nearest_airport": "VCE",
    "description": "Auto-imported SCENIC_POINT. Altitude: N/Am"
  },
  "gradisce": {
    "name": "Gradišče",
    "slug": "gradisce",
    "category": "SCENIC_POINT",
    "region": "Alps",
    "country": "Europe",
    "lat": 46.1925739,
    "lng": 15.4331202,
    "nearest_airport": "VIE",
    "description": "Auto-imported SCENIC_POINT. Altitude: 428m"
  },
  "gradisce-na-stuclju": {
    "name": "Gradišče na Štuclju",
    "slug": "gradisce-na-stuclju",
    "category": "SCENIC_POINT",
    "region": "Alps",
    "country": "Europe",
    "lat": 46.2713547,
    "lng": 14.3204564,
    "nearest_airport": "VCE",
    "description": "Auto-imported SCENIC_POINT. Altitude: N/Am"
  },
  "gradiska-tura": {
    "name": "Gradiška Tura",
    "slug": "gradiska-tura",
    "category": "SCENIC_POINT",
    "region": "Alps",
    "country": "Europe",
    "lat": 45.8292639,
    "lng": 13.9796936,
    "nearest_airport": "VCE",
    "description": "Auto-imported SCENIC_POINT. Altitude: 754m"
  },
  "grafenholz": {
    "name": "Grafenholz",
    "slug": "grafenholz",
    "category": "SCENIC_POINT",
    "region": "Alps",
    "country": "Europe",
    "lat": 47.6390689,
    "lng": 9.6221822,
    "nearest_airport": "ZRH",
    "description": "Auto-imported SCENIC_POINT. Altitude: 544m"
  },
  "grafenweger-wande": {
    "name": "Grafenweger Wände",
    "slug": "grafenweger-wande",
    "category": "SCENIC_POINT",
    "region": "Alps",
    "country": "Europe",
    "lat": 46.7164917,
    "lng": 13.2303447,
    "nearest_airport": "SZG",
    "description": "Auto-imported SCENIC_POINT. Altitude: N/Am"
  },
  "grafinsitz": {
    "name": "Gräfinsitz",
    "slug": "grafinsitz",
    "category": "SCENIC_POINT",
    "region": "Alps",
    "country": "Europe",
    "lat": 47.1736432,
    "lng": 13.1244388,
    "nearest_airport": "SZG",
    "description": "Auto-imported SCENIC_POINT. Altitude: N/Am"
  },
  "gramaisattel": {
    "name": "Gramaisattel",
    "slug": "gramaisattel",
    "category": "MOUNTAIN_PASS",
    "region": "Alps",
    "country": "Europe",
    "lat": 47.4059214,
    "lng": 11.5895949,
    "nearest_airport": "INN",
    "description": "Auto-imported MOUNTAIN_PASS. Altitude: 1834m"
  },
  "grampielpass": {
    "name": "Grampielpass",
    "slug": "grampielpass",
    "category": "MOUNTAIN_PASS",
    "region": "Alps",
    "country": "Europe",
    "lat": 46.348702,
    "lng": 8.2599745,
    "nearest_airport": "MXP",
    "description": "Auto-imported MOUNTAIN_PASS. Altitude: 2553m"
  },
  "grampielpass-3158": {
    "name": "Grampielpass",
    "slug": "grampielpass-3158",
    "category": "MOUNTAIN_PASS",
    "region": "Alps",
    "country": "",
    "lat": 46.348702,
    "lng": 8.2599745,
    "nearest_airport": "",
    "description": "Verified Location."
  },
  "gran-collet": {
    "name": "Gran Collet",
    "slug": "gran-collet",
    "category": "MOUNTAIN_PASS",
    "region": "Alps",
    "country": "Europe",
    "lat": 45.5027229,
    "lng": 7.1916897,
    "nearest_airport": "TRN",
    "description": "Auto-imported MOUNTAIN_PASS. Altitude: 2832m"
  },
  "gran-collet-2314": {
    "name": "Gran Collet",
    "slug": "gran-collet-2314",
    "category": "MOUNTAIN_PASS",
    "region": "Alps",
    "country": "",
    "lat": 45.5027229,
    "lng": 7.1916897,
    "nearest_airport": "",
    "description": "Verified Location."
  },
  "gran-costa": {
    "name": "Gran Costa",
    "slug": "gran-costa",
    "category": "SCENIC_POINT",
    "region": "Alps",
    "country": "Europe",
    "lat": 45.026704,
    "lng": 7.037028,
    "nearest_airport": "TRN",
    "description": "Auto-imported SCENIC_POINT. Altitude: N/Am"
  },
  "gran-pizat": {
    "name": "Gran Pizat",
    "slug": "gran-pizat",
    "category": "SCENIC_POINT",
    "region": "Alps",
    "country": "Europe",
    "lat": 46.6747363,
    "lng": 11.9331997,
    "nearest_airport": "INN",
    "description": "Auto-imported SCENIC_POINT. Altitude: 1940m"
  },
  "granat": {
    "name": "Granat",
    "slug": "granat",
    "category": "SCENIC_POINT",
    "region": "Alps",
    "country": "Europe",
    "lat": 46.8324942,
    "lng": 11.1692605,
    "nearest_airport": "INN",
    "description": "Auto-imported SCENIC_POINT. Altitude: N/Am"
  },
  "granattor": {
    "name": "Granattor",
    "slug": "granattor",
    "category": "SCENIC_POINT",
    "region": "Alps",
    "country": "Europe",
    "lat": 46.8275824,
    "lng": 13.6321873,
    "nearest_airport": "SZG",
    "description": "Auto-imported SCENIC_POINT. Altitude: N/Am"
  },
  "grand-belvedere-du-mont-viso": {
    "name": "Grand Belvédère du Mont Viso",
    "slug": "grand-belvedere-du-mont-viso",
    "category": "SCENIC_POINT",
    "region": "Alps",
    "country": "Europe",
    "lat": 44.7088855,
    "lng": 7.0317015,
    "nearest_airport": "TRN",
    "description": "Auto-imported SCENIC_POINT. Altitude: 2147m"
  },
  "grand-chamossaire": {
    "name": "Grand-Chamossaire",
    "slug": "grand-chamossaire",
    "category": "SCENIC_POINT",
    "region": "Alps",
    "country": "Europe",
    "lat": 46.3268571,
    "lng": 7.0612535,
    "nearest_airport": "GVA",
    "description": "Auto-imported SCENIC_POINT. Altitude: N/Am"
  },
  "grand-col-ferret": {
    "name": "Grand Col Ferret",
    "slug": "grand-col-ferret",
    "category": "MOUNTAIN_PASS",
    "region": "Alps",
    "country": "Europe",
    "lat": 45.8890289,
    "lng": 7.0778615,
    "nearest_airport": "GVA",
    "description": "Auto-imported MOUNTAIN_PASS. Altitude: 2537m"
  },
  "grand-col-ferret-2272": {
    "name": "Grand Col Ferret",
    "slug": "grand-col-ferret-2272",
    "category": "MOUNTAIN_PASS",
    "region": "Alps",
    "country": "",
    "lat": 45.8890289,
    "lng": 7.0778615,
    "nearest_airport": "",
    "description": "Verified Location."
  },
  "grand-colon": {
    "name": "Grand Colon",
    "slug": "grand-colon",
    "category": "SCENIC_POINT",
    "region": "Alps",
    "country": "Europe",
    "lat": 45.1630683,
    "lng": 5.9268136,
    "nearest_airport": "GVA",
    "description": "Auto-imported SCENIC_POINT. Altitude: 2394m"
  },
  "grand-cunay": {
    "name": "Grand Cunay",
    "slug": "grand-cunay",
    "category": "SCENIC_POINT",
    "region": "Alps",
    "country": "Europe",
    "lat": 46.5728208,
    "lng": 6.2753157,
    "nearest_airport": "GVA",
    "description": "Auto-imported SCENIC_POINT. Altitude: 1574m"
  },
  "grand-cunay-1523": {
    "name": "Grand Cunay",
    "slug": "grand-cunay-1523",
    "category": "SCENIC_POINT",
    "region": "Alps",
    "country": "",
    "lat": 46.5728208,
    "lng": 6.2753157,
    "nearest_airport": "",
    "description": "Verified Location."
  },
  "grand-meandre-de-la-loue": {
    "name": "Grand Méandre de la Loue",
    "slug": "grand-meandre-de-la-loue",
    "category": "SCENIC_POINT",
    "region": "Alps",
    "country": "Europe",
    "lat": 47.1491219,
    "lng": 5.9688046,
    "nearest_airport": "GVA",
    "description": "Auto-imported SCENIC_POINT. Altitude: N/Am"
  },
  "grand-saut-bas": {
    "name": "Grand saut (bas)",
    "slug": "grand-saut-bas",
    "category": "SCENIC_POINT",
    "region": "Alps",
    "country": "Europe",
    "lat": 46.6140298,
    "lng": 5.8592627,
    "nearest_airport": "GVA",
    "description": "Auto-imported SCENIC_POINT. Altitude: N/Am"
  },
  "grand-tour": {
    "name": "Grand Tour",
    "slug": "grand-tour",
    "category": "SCENIC_POINT",
    "region": "Alps",
    "country": "Europe",
    "lat": 47.4220099,
    "lng": 9.3871441,
    "nearest_airport": "ZRH",
    "description": "Auto-imported SCENIC_POINT. Altitude: N/Am"
  },
  "grand-tour-bodensee": {
    "name": "Grand Tour Bodensee",
    "slug": "grand-tour-bodensee",
    "category": "SCENIC_POINT",
    "region": "Alps",
    "country": "Europe",
    "lat": 47.6238867,
    "lng": 9.2677875,
    "nearest_airport": "ZRH",
    "description": "Auto-imported SCENIC_POINT. Altitude: N/Am"
  },
  "grand-tour-foto-spot-santis": {
    "name": "Grand Tour Foto-Spot Säntis",
    "slug": "grand-tour-foto-spot-santis",
    "category": "SCENIC_POINT",
    "region": "Alps",
    "country": "Europe",
    "lat": 47.2562669,
    "lng": 9.3195053,
    "nearest_airport": "ZRH",
    "description": "Photopint Grandtour / Schweiz Tourismus"
  },
  "grand-tour-of-switzerrland-morcotoe": {
    "name": "Grand Tour of Switzerrland - Morcotoe",
    "slug": "grand-tour-of-switzerrland-morcotoe",
    "category": "SCENIC_POINT",
    "region": "Alps",
    "country": "Europe",
    "lat": 45.9226029,
    "lng": 8.9163888,
    "nearest_airport": "MXP",
    "description": "Auto-imported SCENIC_POINT. Altitude: N/Am"
  },
  "grand-tour-switzerland": {
    "name": "Grand Tour Switzerland",
    "slug": "grand-tour-switzerland",
    "category": "SCENIC_POINT",
    "region": "Alps",
    "country": "Europe",
    "lat": 45.8598489,
    "lng": 9.0086208,
    "nearest_airport": "MXP",
    "description": "Auto-imported SCENIC_POINT. Altitude: N/Am"
  },
  "grandbo": {
    "name": "#GRANDBO",
    "slug": "grandbo",
    "category": "SCENIC_POINT",
    "region": "Alps",
    "country": "Europe",
    "lat": 45.9669374,
    "lng": 6.4970932,
    "nearest_airport": "GVA",
    "description": "Auto-imported SCENIC_POINT. Altitude: N/Am"
  },
  "grande-autane": {
    "name": "Grande Autane",
    "slug": "grande-autane",
    "category": "SCENIC_POINT",
    "region": "Alps",
    "country": "Europe",
    "lat": 44.6489272,
    "lng": 6.2870663,
    "nearest_airport": "TRN",
    "description": "Auto-imported SCENIC_POINT. Altitude: 2782m"
  },
  "grande-breche": {
    "name": "Grande Brèche",
    "slug": "grande-breche",
    "category": "MOUNTAIN_PASS",
    "region": "Alps",
    "country": "Europe",
    "lat": 46.1318784,
    "lng": 6.8276189,
    "nearest_airport": "GVA",
    "description": "Auto-imported MOUNTAIN_PASS. Altitude: 2602m"
  },
  "grande-breche-3297": {
    "name": "Grande Brèche",
    "slug": "grande-breche-3297",
    "category": "MOUNTAIN_PASS",
    "region": "Alps",
    "country": "",
    "lat": 46.1318784,
    "lng": 6.8276189,
    "nearest_airport": "",
    "description": "Verified Location."
  },
  "grande-salto-del-gattone": {
    "name": "Grande salto del Gattone",
    "slug": "grande-salto-del-gattone",
    "category": "SCENIC_POINT",
    "region": "Alps",
    "country": "Europe",
    "lat": 44.136676,
    "lng": 11.4755245,
    "nearest_airport": "VCE",
    "description": "Auto-imported SCENIC_POINT. Altitude: N/Am"
  },
  "grande-vista": {
    "name": "Grande Vista",
    "slug": "grande-vista",
    "category": "SCENIC_POINT",
    "region": "Alps",
    "country": "Europe",
    "lat": 44.649971,
    "lng": 8.8804263,
    "nearest_airport": "MXP",
    "description": "Auto-imported SCENIC_POINT. Altitude: N/Am"
  },
  "grandtour-photospot": {
    "name": "Grandtour Photospot",
    "slug": "grandtour-photospot",
    "category": "SCENIC_POINT",
    "region": "Alps",
    "country": "Europe",
    "lat": 46.4862898,
    "lng": 9.1691604,
    "nearest_airport": "MXP",
    "description": "Auto-imported SCENIC_POINT. Altitude: N/Am"
  },
  "grangia-di-san-michele": {
    "name": "Grangia di San Michele",
    "slug": "grangia-di-san-michele",
    "category": "SCENIC_POINT",
    "region": "Alps",
    "country": "Europe",
    "lat": 44.2459221,
    "lng": 7.6739326,
    "nearest_airport": "NCE",
    "description": "Auto-imported SCENIC_POINT. Altitude: N/Am"
  },
  "grasbergsattel": {
    "name": "Grasbergsattel",
    "slug": "grasbergsattel",
    "category": "MOUNTAIN_PASS",
    "region": "Alps",
    "country": "Europe",
    "lat": 47.4623966,
    "lng": 11.5587752,
    "nearest_airport": "INN",
    "description": "Auto-imported MOUNTAIN_PASS. Altitude: 1540m"
  },
  "grasleitenscharte": {
    "name": "Grasleitenscharte",
    "slug": "grasleitenscharte",
    "category": "MOUNTAIN_PASS",
    "region": "Alps",
    "country": "Europe",
    "lat": 47.0784476,
    "lng": 12.2288878,
    "nearest_airport": "INN",
    "description": "Auto-imported MOUNTAIN_PASS. Altitude: 2901m"
  },
  "grasleitenscharte-2254": {
    "name": "Grasleitenscharte",
    "slug": "grasleitenscharte-2254",
    "category": "MOUNTAIN_PASS",
    "region": "Alps",
    "country": "",
    "lat": 47.0784476,
    "lng": 12.2288878,
    "nearest_airport": "",
    "description": "Verified Location."
  },
  "gratabsatz": {
    "name": "Gratabsatz",
    "slug": "gratabsatz",
    "category": "SCENIC_POINT",
    "region": "Alps",
    "country": "Europe",
    "lat": 47.5485146,
    "lng": 12.9177158,
    "nearest_airport": "SZG",
    "description": "Auto-imported SCENIC_POINT. Altitude: 2630m"
  },
  "gratsattel": {
    "name": "Gratsattel",
    "slug": "gratsattel",
    "category": "SCENIC_POINT",
    "region": "Alps",
    "country": "Europe",
    "lat": 46.4655557,
    "lng": 7.6464639,
    "nearest_airport": "GVA",
    "description": "Auto-imported SCENIC_POINT. Altitude: N/Am"
  },
  "grattinger-sattel": {
    "name": "Grattinger Sattel",
    "slug": "grattinger-sattel",
    "category": "MOUNTAIN_PASS",
    "region": "Alps",
    "country": "Europe",
    "lat": 47.0266665,
    "lng": 14.1452604,
    "nearest_airport": "SZG",
    "description": "Auto-imported MOUNTAIN_PASS. Altitude: 1170m"
  },
  "grattinger-sattel-67": {
    "name": "Grattinger Sattel",
    "slug": "grattinger-sattel-67",
    "category": "MOUNTAIN_PASS",
    "region": "Alps",
    "country": "",
    "lat": 47.0266665,
    "lng": 14.1452604,
    "nearest_airport": "",
    "description": "Verified Location."
  },
  "grawa-wasserfall-aussichtsplattform-1": {
    "name": "Grawa Wasserfall Aussichtsplattform 1",
    "slug": "grawa-wasserfall-aussichtsplattform-1",
    "category": "SCENIC_POINT",
    "region": "Alps",
    "country": "Europe",
    "lat": 47.0124515,
    "lng": 11.1894924,
    "nearest_airport": "INN",
    "description": "Aussichtspunkt Plattform 1 Grawa Wasserfall"
  },
  "grawa-wasserfall-aussichtsplattform-2": {
    "name": "Grawa Wasserfall Aussichtsplattform 2",
    "slug": "grawa-wasserfall-aussichtsplattform-2",
    "category": "SCENIC_POINT",
    "region": "Alps",
    "country": "Europe",
    "lat": 47.0121235,
    "lng": 11.1898292,
    "nearest_airport": "INN",
    "description": "Aussichtspunkt Plattform 2 Grawa Wasserfall"
  },
  "grbac": {
    "name": "Grbac",
    "slug": "grbac",
    "category": "SCENIC_POINT",
    "region": "Alps",
    "country": "Europe",
    "lat": 45.1574366,
    "lng": 14.1775336,
    "nearest_airport": "VCE",
    "description": "Auto-imported SCENIC_POINT. Altitude: N/Am"
  },
  "greben-klecica": {
    "name": "Greben Klečica",
    "slug": "greben-klecica",
    "category": "SCENIC_POINT",
    "region": "Alps",
    "country": "Europe",
    "lat": 46.3942836,
    "lng": 13.9394756,
    "nearest_airport": "VCE",
    "description": "Auto-imported SCENIC_POINT. Altitude: N/Am"
  },
  "gredetschjoch": {
    "name": "Gredetschjoch",
    "slug": "gredetschjoch",
    "category": "MOUNTAIN_PASS",
    "region": "Alps",
    "country": "Europe",
    "lat": 46.4127202,
    "lng": 7.9114395,
    "nearest_airport": "MXP",
    "description": "Auto-imported MOUNTAIN_PASS. Altitude: 3508m"
  },
  "gredetschjoch-1474": {
    "name": "Gredetschjoch",
    "slug": "gredetschjoch-1474",
    "category": "MOUNTAIN_PASS",
    "region": "Alps",
    "country": "",
    "lat": 46.4127202,
    "lng": 7.9114395,
    "nearest_airport": "",
    "description": "Verified Location."
  },
  "greifenbergsattel": {
    "name": "Greifenbergsattel",
    "slug": "greifenbergsattel",
    "category": "MOUNTAIN_PASS",
    "region": "Alps",
    "country": "Europe",
    "lat": 47.2856972,
    "lng": 13.7879694,
    "nearest_airport": "SZG",
    "description": "Auto-imported MOUNTAIN_PASS. Altitude: 2450m"
  },
  "greifenbergsattel-792": {
    "name": "Greifenbergsattel",
    "slug": "greifenbergsattel-792",
    "category": "MOUNTAIN_PASS",
    "region": "Alps",
    "country": "",
    "lat": 47.2856972,
    "lng": 13.7879694,
    "nearest_airport": "",
    "description": "Verified Location."
  },
  "greifvogelcamp-oberstossau": {
    "name": "Greifvogelcamp Oberstossau",
    "slug": "greifvogelcamp-oberstossau",
    "category": "SCENIC_POINT",
    "region": "Alps",
    "country": "Europe",
    "lat": 46.5550378,
    "lng": 13.6838216,
    "nearest_airport": "SZG",
    "description": "Auto-imported SCENIC_POINT. Altitude: N/Am"
  },
  "greiter-ried": {
    "name": "Greiter Ried",
    "slug": "greiter-ried",
    "category": "SCENIC_POINT",
    "region": "Alps",
    "country": "Europe",
    "lat": 46.6210066,
    "lng": 11.1353364,
    "nearest_airport": "INN",
    "description": "Auto-imported SCENIC_POINT. Altitude: N/Am"
  },
  "grenchegalm": {
    "name": "Grenchegalm",
    "slug": "grenchegalm",
    "category": "MOUNTAIN_PASS",
    "region": "Alps",
    "country": "Europe",
    "lat": 46.6857133,
    "lng": 7.4086241,
    "nearest_airport": "GVA",
    "description": "Auto-imported MOUNTAIN_PASS. Altitude: 1884m"
  },
  "grenchenbergpass": {
    "name": "Grenchenbergpass",
    "slug": "grenchenbergpass",
    "category": "MOUNTAIN_PASS",
    "region": "Alps",
    "country": "Europe",
    "lat": 47.2235231,
    "lng": 7.3696918,
    "nearest_airport": "ZRH",
    "description": "Auto-imported MOUNTAIN_PASS. Altitude: 1348m"
  },
  "grenzlandgalerie-start": {
    "name": "Grenzlandgalerie Start",
    "slug": "grenzlandgalerie-start",
    "category": "SCENIC_POINT",
    "region": "Alps",
    "country": "Europe",
    "lat": 46.6478792,
    "lng": 15.5508769,
    "nearest_airport": "VIE",
    "description": "Auto-imported SCENIC_POINT. Altitude: N/Am"
  },
  "grestner-hohe": {
    "name": "Grestner Höhe",
    "slug": "grestner-hohe",
    "category": "MOUNTAIN_PASS",
    "region": "Alps",
    "country": "Europe",
    "lat": 47.9720743,
    "lng": 14.971192,
    "nearest_airport": "VIE",
    "description": "Auto-imported MOUNTAIN_PASS. Altitude: 631m"
  },
  "gridlonscharte": {
    "name": "Gridlonscharte",
    "slug": "gridlonscharte",
    "category": "MOUNTAIN_PASS",
    "region": "Alps",
    "country": "Europe",
    "lat": 47.1747075,
    "lng": 10.3449994,
    "nearest_airport": "INN",
    "description": "Auto-imported MOUNTAIN_PASS. Altitude: 2371m"
  },
  "gridlonscharte-383": {
    "name": "Gridlonscharte",
    "slug": "gridlonscharte-383",
    "category": "MOUNTAIN_PASS",
    "region": "Alps",
    "country": "",
    "lat": 47.1747075,
    "lng": 10.3449994,
    "nearest_airport": "",
    "description": "Verified Location."
  },
  "grieskogel-joch": {
    "name": "Grieskogel Joch",
    "slug": "grieskogel-joch",
    "category": "MOUNTAIN_PASS",
    "region": "Alps",
    "country": "Europe",
    "lat": 46.9846,
    "lng": 10.1757698,
    "nearest_airport": "INN",
    "description": "Auto-imported MOUNTAIN_PASS. Altitude: 2715m"
  },
  "grieskogel-joch-3561": {
    "name": "Grieskogel Joch",
    "slug": "grieskogel-joch-3561",
    "category": "MOUNTAIN_PASS",
    "region": "Alps",
    "country": "",
    "lat": 46.9846,
    "lng": 10.1757698,
    "nearest_airport": "",
    "description": "Verified Location."
  },
  "griespass": {
    "name": "Griespass",
    "slug": "griespass",
    "category": "MOUNTAIN_PASS",
    "region": "Alps",
    "country": "Europe",
    "lat": 46.4537719,
    "lng": 8.3739756,
    "nearest_airport": "MXP",
    "description": "Auto-imported MOUNTAIN_PASS. Altitude: 2479m"
  },
  "griespass-251": {
    "name": "Griespass",
    "slug": "griespass-251",
    "category": "MOUNTAIN_PASS",
    "region": "Alps",
    "country": "",
    "lat": 46.4537719,
    "lng": 8.3739756,
    "nearest_airport": "",
    "description": "Verified Location."
  },
  "griessbachjochl-passo-di-gries": {
    "name": "Grießbachjöchl - Passo di Gries",
    "slug": "griessbachjochl-passo-di-gries",
    "category": "MOUNTAIN_PASS",
    "region": "Alps",
    "country": "Europe",
    "lat": 47.0612066,
    "lng": 12.0459853,
    "nearest_airport": "INN",
    "description": "Auto-imported MOUNTAIN_PASS. Altitude: 2904m"
  },
  "griessbachjochl-passo-di-gries-472": {
    "name": "Grießbachjöchl - Passo di Gries",
    "slug": "griessbachjochl-passo-di-gries-472",
    "category": "MOUNTAIN_PASS",
    "region": "Alps",
    "country": "",
    "lat": 47.0612066,
    "lng": 12.0459853,
    "nearest_airport": "",
    "description": "Verified Location."
  },
  "griesscharte": {
    "name": "Griesscharte",
    "slug": "griesscharte",
    "category": "MOUNTAIN_PASS",
    "region": "Alps",
    "country": "Europe",
    "lat": 47.4962866,
    "lng": 13.241158,
    "nearest_airport": "SZG",
    "description": "Auto-imported MOUNTAIN_PASS. Altitude: 2270m"
  },
  "griesscharte-3776": {
    "name": "Griesscharte",
    "slug": "griesscharte-3776",
    "category": "MOUNTAIN_PASS",
    "region": "Alps",
    "country": "",
    "lat": 47.4962866,
    "lng": 13.241158,
    "nearest_airport": "",
    "description": "Verified Location."
  },
  "griesskarscharte": {
    "name": "Grießkarscharte",
    "slug": "griesskarscharte",
    "category": "MOUNTAIN_PASS",
    "region": "Alps",
    "country": "Europe",
    "lat": 47.4268328,
    "lng": 11.0422737,
    "nearest_airport": "INN",
    "description": "Auto-imported MOUNTAIN_PASS. Altitude: 2465m"
  },
  "griesskarscharte-206": {
    "name": "Grießkarscharte",
    "slug": "griesskarscharte-206",
    "category": "MOUNTAIN_PASS",
    "region": "Alps",
    "country": "",
    "lat": 47.4268328,
    "lng": 11.0422737,
    "nearest_airport": "",
    "description": "Verified Location."
  },
  "griesslscharte": {
    "name": "Grießlscharte",
    "slug": "griesslscharte",
    "category": "MOUNTAIN_PASS",
    "region": "Alps",
    "country": "Europe",
    "lat": 47.1884969,
    "lng": 10.4252202,
    "nearest_airport": "INN",
    "description": "Auto-imported MOUNTAIN_PASS. Altitude: 2632m"
  },
  "griesslscharte-385": {
    "name": "Grießlscharte",
    "slug": "griesslscharte-385",
    "category": "MOUNTAIN_PASS",
    "region": "Alps",
    "country": "",
    "lat": 47.1884969,
    "lng": 10.4252202,
    "nearest_airport": "",
    "description": "Verified Location."
  },
  "griessner-rotschartl": {
    "name": "Grießner Rotschartl",
    "slug": "griessner-rotschartl",
    "category": "MOUNTAIN_PASS",
    "region": "Alps",
    "country": "Europe",
    "lat": 47.4783617,
    "lng": 12.6985094,
    "nearest_airport": "SZG",
    "description": "Auto-imported MOUNTAIN_PASS. Altitude: 2320m"
  },
  "griessner-rotschartl-2506": {
    "name": "Grießner Rotschartl",
    "slug": "griessner-rotschartl-2506",
    "category": "MOUNTAIN_PASS",
    "region": "Alps",
    "country": "",
    "lat": 47.4783617,
    "lng": 12.6985094,
    "nearest_airport": "",
    "description": "Verified Location."
  },
  "griffner-berg": {
    "name": "Griffner Berg",
    "slug": "griffner-berg",
    "category": "MOUNTAIN_PASS",
    "region": "Alps",
    "country": "Europe",
    "lat": 46.7314034,
    "lng": 14.7541818,
    "nearest_airport": "SZG",
    "description": "Auto-imported MOUNTAIN_PASS. Altitude: 708m"
  },
  "griffner-berg-1901": {
    "name": "Griffner Berg",
    "slug": "griffner-berg-1901",
    "category": "MOUNTAIN_PASS",
    "region": "Alps",
    "country": "",
    "lat": 46.7314034,
    "lng": 14.7541818,
    "nearest_airport": "",
    "description": "Verified Location."
  },
  "grimmels": {
    "name": "Grimmels",
    "slug": "grimmels",
    "category": "SCENIC_POINT",
    "region": "Alps",
    "country": "Europe",
    "lat": 46.6658963,
    "lng": 10.1887769,
    "nearest_airport": "INN",
    "description": "Auto-imported SCENIC_POINT. Altitude: N/Am"
  },
  "grimmifurggi": {
    "name": "Grimmifurggi",
    "slug": "grimmifurggi",
    "category": "MOUNTAIN_PASS",
    "region": "Alps",
    "country": "Europe",
    "lat": 46.5334518,
    "lng": 7.4715599,
    "nearest_airport": "GVA",
    "description": "Auto-imported MOUNTAIN_PASS. Altitude: 2023m"
  },
  "grimmingblick": {
    "name": "Grimmingblick",
    "slug": "grimmingblick",
    "category": "SCENIC_POINT",
    "region": "Alps",
    "country": "Europe",
    "lat": 47.5635081,
    "lng": 13.7925286,
    "nearest_airport": "SZG",
    "description": "Auto-imported SCENIC_POINT. Altitude: N/Am"
  },
  "grimselpass": {
    "name": "Grimselpass",
    "slug": "grimselpass",
    "category": "MOUNTAIN_PASS",
    "region": "Alps",
    "country": "Europe",
    "lat": 46.5615193,
    "lng": 8.3376971,
    "nearest_airport": "ZRH",
    "description": "Auto-imported MOUNTAIN_PASS. Altitude: 2164m"
  },
  "grimselpass-2270": {
    "name": "Grimselpass",
    "slug": "grimselpass-2270",
    "category": "MOUNTAIN_PASS",
    "region": "Alps",
    "country": "",
    "lat": 46.5615193,
    "lng": 8.3376971,
    "nearest_airport": "",
    "description": "Verified Location."
  },
  "grindelegg": {
    "name": "Grindelegg",
    "slug": "grindelegg",
    "category": "SCENIC_POINT",
    "region": "Alps",
    "country": "Europe",
    "lat": 47.1254072,
    "lng": 8.6444448,
    "nearest_airport": "ZRH",
    "description": "Auto-imported SCENIC_POINT. Altitude: N/Am"
  },
  "grindellicka": {
    "name": "Grindellicka",
    "slug": "grindellicka",
    "category": "SCENIC_POINT",
    "region": "Alps",
    "country": "Europe",
    "lat": 46.441223,
    "lng": 7.851774,
    "nearest_airport": "MXP",
    "description": "Auto-imported SCENIC_POINT. Altitude: N/Am"
  },
  "grischsattel": {
    "name": "Grischsattel",
    "slug": "grischsattel",
    "category": "MOUNTAIN_PASS",
    "region": "Alps",
    "country": "Europe",
    "lat": 46.8858479,
    "lng": 9.2056582,
    "nearest_airport": "ZRH",
    "description": "Auto-imported MOUNTAIN_PASS. Altitude: 2760m"
  },
  "grischsattel-3815": {
    "name": "Grischsattel",
    "slug": "grischsattel-3815",
    "category": "MOUNTAIN_PASS",
    "region": "Alps",
    "country": "",
    "lat": 46.8858479,
    "lng": 9.2056582,
    "nearest_airport": "",
    "description": "Verified Location."
  },
  "grles": {
    "name": "Grleš",
    "slug": "grles",
    "category": "SCENIC_POINT",
    "region": "Alps",
    "country": "Europe",
    "lat": 45.4544417,
    "lng": 14.511411,
    "nearest_airport": "VCE",
    "description": "Auto-imported SCENIC_POINT. Altitude: N/Am"
  },
  "grlo": {
    "name": "Grlo",
    "slug": "grlo",
    "category": "MOUNTAIN_PASS",
    "region": "Alps",
    "country": "Europe",
    "lat": 46.4392668,
    "lng": 13.8361565,
    "nearest_airport": "VCE",
    "description": "Auto-imported MOUNTAIN_PASS. Altitude: 2390m"
  },
  "grlo-3214": {
    "name": "Grlo",
    "slug": "grlo-3214",
    "category": "MOUNTAIN_PASS",
    "region": "Alps",
    "country": "",
    "lat": 46.4392668,
    "lng": 13.8361565,
    "nearest_airport": "",
    "description": "Verified Location."
  },
  "grmace": {
    "name": "Grmače",
    "slug": "grmace",
    "category": "MOUNTAIN_PASS",
    "region": "Alps",
    "country": "Europe",
    "lat": 46.1172882,
    "lng": 14.7572236,
    "nearest_airport": "VCE",
    "description": "Auto-imported MOUNTAIN_PASS. Altitude: 575m"
  },
  "grobmingblick": {
    "name": "Gröbmingblick",
    "slug": "grobmingblick",
    "category": "SCENIC_POINT",
    "region": "Alps",
    "country": "Europe",
    "lat": 47.465333,
    "lng": 13.8302058,
    "nearest_airport": "SZG",
    "description": "Auto-imported SCENIC_POINT. Altitude: N/Am"
  },
  "grobner-hals": {
    "name": "Gröbner Hals",
    "slug": "grobner-hals",
    "category": "MOUNTAIN_PASS",
    "region": "Alps",
    "country": "Europe",
    "lat": 47.5140057,
    "lng": 11.6369861,
    "nearest_airport": "INN",
    "description": "Auto-imported MOUNTAIN_PASS. Altitude: 1654m"
  },
  "grobtalscharte": {
    "name": "Grobtalscharte",
    "slug": "grobtalscharte",
    "category": "MOUNTAIN_PASS",
    "region": "Alps",
    "country": "Europe",
    "lat": 47.5690221,
    "lng": 12.2726266,
    "nearest_airport": "SZG",
    "description": "Auto-imported MOUNTAIN_PASS. Altitude: 1610m"
  },
  "groppo": {
    "name": "Groppo",
    "slug": "groppo",
    "category": "SCENIC_POINT",
    "region": "Alps",
    "country": "Europe",
    "lat": 44.6300872,
    "lng": 9.7325334,
    "nearest_airport": "MXP",
    "description": "Auto-imported SCENIC_POINT. Altitude: N/Am"
  },
  "groppo-delle-vigne": {
    "name": "Groppo delle Vigne",
    "slug": "groppo-delle-vigne",
    "category": "SCENIC_POINT",
    "region": "Alps",
    "country": "Europe",
    "lat": 44.5242972,
    "lng": 9.8831413,
    "nearest_airport": "MXP",
    "description": "Auto-imported SCENIC_POINT. Altitude: 580m"
  },
  "groppo-di-gorro": {
    "name": "Groppo di Gorro",
    "slug": "groppo-di-gorro",
    "category": "SCENIC_POINT",
    "region": "Alps",
    "country": "Europe",
    "lat": 44.5267544,
    "lng": 9.8948076,
    "nearest_airport": "MXP",
    "description": "Auto-imported SCENIC_POINT. Altitude: 824m"
  },
  "gros-bessillon": {
    "name": "Gros Bessillon",
    "slug": "gros-bessillon",
    "category": "SCENIC_POINT",
    "region": "Alps",
    "country": "Europe",
    "lat": 43.5362688,
    "lng": 6.0807908,
    "nearest_airport": "NCE",
    "description": "Auto-imported SCENIC_POINT. Altitude: N/Am"
  },
  "grossbergscharte-grossbergjoch": {
    "name": "Großbergscharte / Großbergjoch",
    "slug": "grossbergscharte-grossbergjoch",
    "category": "MOUNTAIN_PASS",
    "region": "Alps",
    "country": "Europe",
    "lat": 47.200894,
    "lng": 10.505958,
    "nearest_airport": "INN",
    "description": "Auto-imported MOUNTAIN_PASS. Altitude: 2493m"
  },
  "grossbergscharte-grossbergjoch-2279": {
    "name": "Großbergscharte / Großbergjoch",
    "slug": "grossbergscharte-grossbergjoch-2279",
    "category": "MOUNTAIN_PASS",
    "region": "Alps",
    "country": "",
    "lat": 47.200894,
    "lng": 10.505958,
    "nearest_airport": "",
    "description": "Verified Location."
  },
  "grosse-kanzel": {
    "name": "Große Kanzel",
    "slug": "grosse-kanzel",
    "category": "SCENIC_POINT",
    "region": "Alps",
    "country": "Europe",
    "lat": 47.8110454,
    "lng": 16.0129798,
    "nearest_airport": "VIE",
    "description": "Auto-imported SCENIC_POINT. Altitude: 1052m"
  },
  "grosse-klause": {
    "name": "Große Klause",
    "slug": "grosse-klause",
    "category": "SCENIC_POINT",
    "region": "Alps",
    "country": "Europe",
    "lat": 47.8024947,
    "lng": 14.4750772,
    "nearest_airport": "SZG",
    "description": "Auto-imported SCENIC_POINT. Altitude: N/Am"
  },
  "grosse-kripp": {
    "name": "Große Kripp",
    "slug": "grosse-kripp",
    "category": "MOUNTAIN_PASS",
    "region": "Alps",
    "country": "Europe",
    "lat": 47.8640983,
    "lng": 14.8721452,
    "nearest_airport": "VIE",
    "description": "Auto-imported MOUNTAIN_PASS. Altitude: 696m"
  },
  "grosse-malurch-scharte": {
    "name": "Große Malurch Scharte",
    "slug": "grosse-malurch-scharte",
    "category": "MOUNTAIN_PASS",
    "region": "Alps",
    "country": "Europe",
    "lat": 46.5411188,
    "lng": 13.2844306,
    "nearest_airport": "VCE",
    "description": "Auto-imported MOUNTAIN_PASS. Altitude: 1783m"
  },
  "grosse-scharte-forcella-grande": {
    "name": "Große Scharte - Forcella Grande",
    "slug": "grosse-scharte-forcella-grande",
    "category": "MOUNTAIN_PASS",
    "region": "Alps",
    "country": "Europe",
    "lat": 46.4875626,
    "lng": 11.2070973,
    "nearest_airport": "INN",
    "description": "Auto-imported MOUNTAIN_PASS. Altitude: N/Am"
  },
  "grosse-scheidegg": {
    "name": "Grosse Scheidegg",
    "slug": "grosse-scheidegg",
    "category": "MOUNTAIN_PASS",
    "region": "Alps",
    "country": "Europe",
    "lat": 46.6558783,
    "lng": 8.1018667,
    "nearest_airport": "ZRH",
    "description": "Auto-imported MOUNTAIN_PASS. Altitude: 1962m"
  },
  "grosse-steinscharte": {
    "name": "Große Steinscharte",
    "slug": "grosse-steinscharte",
    "category": "MOUNTAIN_PASS",
    "region": "Alps",
    "country": "Europe",
    "lat": 47.2859674,
    "lng": 10.2664029,
    "nearest_airport": "INN",
    "description": "Auto-imported MOUNTAIN_PASS. Altitude: 2262m"
  },
  "grosse-steinscharte-735": {
    "name": "Große Steinscharte",
    "slug": "grosse-steinscharte-735",
    "category": "MOUNTAIN_PASS",
    "region": "Alps",
    "country": "",
    "lat": 47.2859674,
    "lng": 10.2664029,
    "nearest_airport": "",
    "description": "Verified Location."
  },
  "grosselendscharte": {
    "name": "Großelendscharte",
    "slug": "grosselendscharte",
    "category": "MOUNTAIN_PASS",
    "region": "Alps",
    "country": "Europe",
    "lat": 47.043278,
    "lng": 13.257771,
    "nearest_airport": "SZG",
    "description": "Auto-imported MOUNTAIN_PASS. Altitude: 2675m"
  },
  "grosselendscharte-2812": {
    "name": "Großelendscharte",
    "slug": "grosselendscharte-2812",
    "category": "MOUNTAIN_PASS",
    "region": "Alps",
    "country": "",
    "lat": 47.043278,
    "lng": 13.257771,
    "nearest_airport": "",
    "description": "Verified Location."
  },
  "grossenberg": {
    "name": "Größenberg",
    "slug": "grossenberg",
    "category": "SCENIC_POINT",
    "region": "Alps",
    "country": "Europe",
    "lat": 47.8344193,
    "lng": 16.1204721,
    "nearest_airport": "VIE",
    "description": "Auto-imported SCENIC_POINT. Altitude: 605m"
  },
  "grosser-alteinwasserfall": {
    "name": "(Großer) Alteinwasserfall",
    "slug": "grosser-alteinwasserfall",
    "category": "SCENIC_POINT",
    "region": "Alps",
    "country": "Europe",
    "lat": 46.7606771,
    "lng": 9.6897397,
    "nearest_airport": "ZRH",
    "description": "Auto-imported SCENIC_POINT. Altitude: 1862m"
  },
  "grosser-apostel-grande-apostolo": {
    "name": "Großer Apostel - Grande Apostolo",
    "slug": "grosser-apostel-grande-apostolo",
    "category": "SCENIC_POINT",
    "region": "Alps",
    "country": "Europe",
    "lat": 46.6959686,
    "lng": 12.0921553,
    "nearest_airport": "INN",
    "description": "Auto-imported SCENIC_POINT. Altitude: 1947m"
  },
  "grosser-hirschenstein": {
    "name": "Großer Hirschenstein",
    "slug": "grosser-hirschenstein",
    "category": "SCENIC_POINT",
    "region": "Alps",
    "country": "Europe",
    "lat": 47.3453794,
    "lng": 16.3792803,
    "nearest_airport": "VIE",
    "description": "Auto-imported SCENIC_POINT. Altitude: 862m"
  },
  "grosser-hirschenstein-2158": {
    "name": "Großer Hirschenstein",
    "slug": "grosser-hirschenstein-2158",
    "category": "SCENIC_POINT",
    "region": "Alps",
    "country": "",
    "lat": 47.3453794,
    "lng": 16.3792803,
    "nearest_airport": "",
    "description": "Verified Location."
  },
  "grosser-josberg": {
    "name": "Großer Josberg",
    "slug": "grosser-josberg",
    "category": "SCENIC_POINT",
    "region": "Alps",
    "country": "Europe",
    "lat": 47.5981893,
    "lng": 10.547153,
    "nearest_airport": "INN",
    "description": "Auto-imported SCENIC_POINT. Altitude: 964m"
  },
  "grosser-mythen": {
    "name": "Grosser Mythen",
    "slug": "grosser-mythen",
    "category": "SCENIC_POINT",
    "region": "Alps",
    "country": "Europe",
    "lat": 47.0298789,
    "lng": 8.6885334,
    "nearest_airport": "ZRH",
    "description": "Auto-imported SCENIC_POINT. Altitude: 1898m"
  },
  "grosser-otter": {
    "name": "Großer Otter",
    "slug": "grosser-otter",
    "category": "SCENIC_POINT",
    "region": "Alps",
    "country": "Europe",
    "lat": 47.6296829,
    "lng": 15.9148134,
    "nearest_airport": "VIE",
    "description": "Auto-imported SCENIC_POINT. Altitude: N/Am"
  },
  "grosser-pfaff": {
    "name": "Großer Pfaff",
    "slug": "grosser-pfaff",
    "category": "SCENIC_POINT",
    "region": "Alps",
    "country": "Europe",
    "lat": 47.5620842,
    "lng": 15.8261922,
    "nearest_airport": "VIE",
    "description": "Auto-imported SCENIC_POINT. Altitude: 1555m"
  },
  "grosses-tor": {
    "name": "Großes Tor",
    "slug": "grosses-tor",
    "category": "MOUNTAIN_PASS",
    "region": "Alps",
    "country": "Europe",
    "lat": 47.0056584,
    "lng": 11.893188,
    "nearest_airport": "INN",
    "description": "Auto-imported MOUNTAIN_PASS. Altitude: 2662m"
  },
  "grosses-tor-2433": {
    "name": "Großes Tor",
    "slug": "grosses-tor-2433",
    "category": "MOUNTAIN_PASS",
    "region": "Alps",
    "country": "",
    "lat": 47.0056584,
    "lng": 11.893188,
    "nearest_airport": "",
    "description": "Verified Location."
  },
  "grosses-wildgrabenjoch-passo-grande-dei-rondoi": {
    "name": "Großes Wildgrabenjoch - Passo Grande dei Rondoi",
    "slug": "grosses-wildgrabenjoch-passo-grande-dei-rondoi",
    "category": "MOUNTAIN_PASS",
    "region": "Alps",
    "country": "Europe",
    "lat": 46.6471744,
    "lng": 12.2785666,
    "nearest_airport": "INN",
    "description": "Auto-imported MOUNTAIN_PASS. Altitude: 2289m"
  },
  "grosses-wildgrabenjoch-passo-grande-dei-rondoi-690": {
    "name": "Großes Wildgrabenjoch - Passo Grande dei Rondoi",
    "slug": "grosses-wildgrabenjoch-passo-grande-dei-rondoi-690",
    "category": "MOUNTAIN_PASS",
    "region": "Alps",
    "country": "",
    "lat": 46.6471744,
    "lng": 12.2785666,
    "nearest_airport": "",
    "description": "Verified Location."
  },
  "grossfels": {
    "name": "Grossfels",
    "slug": "grossfels",
    "category": "SCENIC_POINT",
    "region": "Alps",
    "country": "Europe",
    "lat": 47.9593931,
    "lng": 7.2299051,
    "nearest_airport": "ZRH",
    "description": "Auto-imported SCENIC_POINT. Altitude: N/Am"
  },
  "grossglocknerblick": {
    "name": "Großglocknerblick",
    "slug": "grossglocknerblick",
    "category": "SCENIC_POINT",
    "region": "Alps",
    "country": "Europe",
    "lat": 47.0445668,
    "lng": 12.4308557,
    "nearest_airport": "INN",
    "description": "Auto-imported SCENIC_POINT. Altitude: N/Am"
  },
  "grossofen": {
    "name": "Grossofen",
    "slug": "grossofen",
    "category": "SCENIC_POINT",
    "region": "Alps",
    "country": "Europe",
    "lat": 46.935291,
    "lng": 15.0425015,
    "nearest_airport": "VIE",
    "description": "Auto-imported SCENIC_POINT. Altitude: 1473m"
  },
  "grotta-dei-falsari": {
    "name": "Grotta dei Falsari",
    "slug": "grotta-dei-falsari",
    "category": "SCENIC_POINT",
    "region": "Alps",
    "country": "Europe",
    "lat": 44.19322,
    "lng": 8.4221726,
    "nearest_airport": "NCE",
    "description": "Auto-imported SCENIC_POINT. Altitude: N/Am"
  },
  "grotta-di-labante": {
    "name": "Grotta di Labante",
    "slug": "grotta-di-labante",
    "category": "SCENIC_POINT",
    "region": "Alps",
    "country": "Europe",
    "lat": 44.2604131,
    "lng": 11.0361447,
    "nearest_airport": "VCE",
    "description": "Auto-imported SCENIC_POINT. Altitude: N/Am"
  },
  "grotta-forata": {
    "name": "Grotta Forata",
    "slug": "grotta-forata",
    "category": "SCENIC_POINT",
    "region": "Alps",
    "country": "Europe",
    "lat": 44.0344403,
    "lng": 10.2781656,
    "nearest_airport": "MXP",
    "description": "Auto-imported SCENIC_POINT. Altitude: 1200m"
  },
  "grotte-des-falaises-de-saint-loup": {
    "name": "Grotte des falaises de Saint-Loup",
    "slug": "grotte-des-falaises-de-saint-loup",
    "category": "SCENIC_POINT",
    "region": "Alps",
    "country": "Europe",
    "lat": 46.6700107,
    "lng": 6.4999609,
    "nearest_airport": "GVA",
    "description": "Auto-imported SCENIC_POINT. Altitude: N/Am"
  },
  "grotte-des-fees": {
    "name": "Grotte des Fées",
    "slug": "grotte-des-fees",
    "category": "SCENIC_POINT",
    "region": "Alps",
    "country": "Europe",
    "lat": 43.7864632,
    "lng": 6.5721623,
    "nearest_airport": "NCE",
    "description": "Auto-imported SCENIC_POINT. Altitude: N/Am"
  },
  "grottes-des-moidons": {
    "name": "Grottes des Moidons",
    "slug": "grottes-des-moidons",
    "category": "SCENIC_POINT",
    "region": "Alps",
    "country": "Europe",
    "lat": 46.8384409,
    "lng": 5.8066403,
    "nearest_airport": "GVA",
    "description": "Auto-imported SCENIC_POINT. Altitude: N/Am"
  },
  "grottes-des-moidons-3185": {
    "name": "Grottes des Moidons",
    "slug": "grottes-des-moidons-3185",
    "category": "SCENIC_POINT",
    "region": "Alps",
    "country": "",
    "lat": 46.8384409,
    "lng": 5.8066403,
    "nearest_airport": "",
    "description": "Official Website Available. "
  },
  "grottone-della-reit": {
    "name": "Grottone della Reit",
    "slug": "grottone-della-reit",
    "category": "SCENIC_POINT",
    "region": "Alps",
    "country": "Europe",
    "lat": 46.4993514,
    "lng": 10.3660081,
    "nearest_airport": "INN",
    "description": "Auto-imported SCENIC_POINT. Altitude: N/Am"
  },
  "grubbauern-hohe": {
    "name": "Grubbauern-Höhe",
    "slug": "grubbauern-hohe",
    "category": "SCENIC_POINT",
    "region": "Alps",
    "country": "Europe",
    "lat": 47.6229077,
    "lng": 16.0628,
    "nearest_airport": "VIE",
    "description": "Auto-imported SCENIC_POINT. Altitude: N/Am"
  },
  "grubenjoch-passo-delle-cave": {
    "name": "Grubenjoch - Passo delle Cave",
    "slug": "grubenjoch-passo-delle-cave",
    "category": "MOUNTAIN_PASS",
    "region": "Alps",
    "country": "Europe",
    "lat": 46.9672341,
    "lng": 11.4141414,
    "nearest_airport": "INN",
    "description": "Auto-imported MOUNTAIN_PASS. Altitude: 2198m"
  },
  "grubenjoch-passo-delle-cave-3513": {
    "name": "Grubenjoch - Passo delle Cave",
    "slug": "grubenjoch-passo-delle-cave-3513",
    "category": "MOUNTAIN_PASS",
    "region": "Alps",
    "country": "",
    "lat": 46.9672341,
    "lng": 11.4141414,
    "nearest_airport": "",
    "description": "Verified Location."
  },
  "grubenpass": {
    "name": "Grubenpass",
    "slug": "grubenpass",
    "category": "MOUNTAIN_PASS",
    "region": "Alps",
    "country": "Europe",
    "lat": 47.0177755,
    "lng": 9.8808549,
    "nearest_airport": "ZRH",
    "description": "Auto-imported MOUNTAIN_PASS. Altitude: 2241m"
  },
  "grubenpass-1592": {
    "name": "Grubenpass",
    "slug": "grubenpass-1592",
    "category": "MOUNTAIN_PASS",
    "region": "Alps",
    "country": "",
    "lat": 47.0177755,
    "lng": 9.8808549,
    "nearest_airport": "",
    "description": "Verified Location."
  },
  "gruberlenke": {
    "name": "Gruberlenke",
    "slug": "gruberlenke",
    "category": "MOUNTAIN_PASS",
    "region": "Alps",
    "country": "Europe",
    "lat": 46.7937283,
    "lng": 12.2843913,
    "nearest_airport": "INN",
    "description": "Auto-imported MOUNTAIN_PASS. Altitude: 2488m"
  },
  "gruberlenke-2450": {
    "name": "Gruberlenke",
    "slug": "gruberlenke-2450",
    "category": "MOUNTAIN_PASS",
    "region": "Alps",
    "country": "",
    "lat": 46.7937283,
    "lng": 12.2843913,
    "nearest_airport": "",
    "description": "Verified Location."
  },
  "grubigjochl": {
    "name": "Grubigjöchl",
    "slug": "grubigjochl",
    "category": "MOUNTAIN_PASS",
    "region": "Alps",
    "country": "Europe",
    "lat": 47.3081385,
    "lng": 10.7474807,
    "nearest_airport": "INN",
    "description": "Auto-imported MOUNTAIN_PASS. Altitude: 2000m"
  },
  "grubjoch": {
    "name": "Grubjoch",
    "slug": "grubjoch",
    "category": "MOUNTAIN_PASS",
    "region": "Alps",
    "country": "Europe",
    "lat": 46.8315372,
    "lng": 11.12174,
    "nearest_airport": "INN",
    "description": "Auto-imported MOUNTAIN_PASS. Altitude: 2658m"
  },
  "grubjoch-3047": {
    "name": "Grubjoch",
    "slug": "grubjoch-3047",
    "category": "MOUNTAIN_PASS",
    "region": "Alps",
    "country": "",
    "lat": 46.8315372,
    "lng": 11.12174,
    "nearest_airport": "",
    "description": "Verified Location."
  },
  "grumello": {
    "name": "Grumello",
    "slug": "grumello",
    "category": "SCENIC_POINT",
    "region": "Alps",
    "country": "Europe",
    "lat": 45.8987595,
    "lng": 8.9128902,
    "nearest_airport": "MXP",
    "description": "Auto-imported SCENIC_POINT. Altitude: N/Am"
  },
  "grunbacher-sattel": {
    "name": "Grünbacher Sattel",
    "slug": "grunbacher-sattel",
    "category": "MOUNTAIN_PASS",
    "region": "Alps",
    "country": "Europe",
    "lat": 47.7957287,
    "lng": 15.9613573,
    "nearest_airport": "VIE",
    "description": "Auto-imported MOUNTAIN_PASS. Altitude: 678m"
  },
  "grunbacher-sattel-1859": {
    "name": "Grünbacher Sattel",
    "slug": "grunbacher-sattel-1859",
    "category": "MOUNTAIN_PASS",
    "region": "Alps",
    "country": "",
    "lat": 47.7957287,
    "lng": 15.9613573,
    "nearest_airport": "",
    "description": "Verified Location."
  },
  "grune-rinn-scharte": {
    "name": "Grüne-Rinn-Scharte",
    "slug": "grune-rinn-scharte",
    "category": "MOUNTAIN_PASS",
    "region": "Alps",
    "country": "Europe",
    "lat": 47.4369055,
    "lng": 11.5089553,
    "nearest_airport": "INN",
    "description": "Auto-imported MOUNTAIN_PASS. Altitude: N/Am"
  },
  "grunegg-passhohe": {
    "name": "Grünegg Passhöhe",
    "slug": "grunegg-passhohe",
    "category": "MOUNTAIN_PASS",
    "region": "Alps",
    "country": "Europe",
    "lat": 47.5434719,
    "lng": 8.1790275,
    "nearest_airport": "ZRH",
    "description": "Auto-imported MOUNTAIN_PASS. Altitude: 550m"
  },
  "grunenbergpass": {
    "name": "Grünenbergpass",
    "slug": "grunenbergpass",
    "category": "MOUNTAIN_PASS",
    "region": "Alps",
    "country": "Europe",
    "lat": 46.7622507,
    "lng": 7.8561571,
    "nearest_airport": "ZRH",
    "description": "Auto-imported MOUNTAIN_PASS. Altitude: 1555m"
  },
  "gruner-damm": {
    "name": "Grüner Damm",
    "slug": "gruner-damm",
    "category": "SCENIC_POINT",
    "region": "Alps",
    "country": "Europe",
    "lat": 47.5018934,
    "lng": 9.6848041,
    "nearest_airport": "ZRH",
    "description": "Auto-imported SCENIC_POINT. Altitude: N/Am"
  },
  "gruner-see-blick": {
    "name": "Grüner See Blick",
    "slug": "gruner-see-blick",
    "category": "SCENIC_POINT",
    "region": "Alps",
    "country": "Europe",
    "lat": 47.5333924,
    "lng": 15.0333465,
    "nearest_airport": "VIE",
    "description": "Auto-imported SCENIC_POINT. Altitude: N/Am"
  },
  "gruner-wand": {
    "name": "Gruner Wänd'",
    "slug": "gruner-wand",
    "category": "SCENIC_POINT",
    "region": "Alps",
    "country": "Europe",
    "lat": 46.5325517,
    "lng": 11.262631,
    "nearest_airport": "INN",
    "description": "Auto-imported SCENIC_POINT. Altitude: N/Am"
  },
  "grunhornlucke": {
    "name": "Grünhornlücke",
    "slug": "grunhornlucke",
    "category": "MOUNTAIN_PASS",
    "region": "Alps",
    "country": "Europe",
    "lat": 46.5135267,
    "lng": 8.0835697,
    "nearest_airport": "MXP",
    "description": "Auto-imported MOUNTAIN_PASS. Altitude: 3280m"
  },
  "grunhornlucke-1110": {
    "name": "Grünhornlücke",
    "slug": "grunhornlucke-1110",
    "category": "MOUNTAIN_PASS",
    "region": "Alps",
    "country": "",
    "lat": 46.5135267,
    "lng": 8.0835697,
    "nearest_airport": "",
    "description": "Verified Location."
  },
  "grunseeblick": {
    "name": "Grünseeblick",
    "slug": "grunseeblick",
    "category": "SCENIC_POINT",
    "region": "Alps",
    "country": "Europe",
    "lat": 46.9071859,
    "lng": 13.882691,
    "nearest_airport": "SZG",
    "description": "Auto-imported SCENIC_POINT. Altitude: N/Am"
  },
  "gruselplatz": {
    "name": "Gruselplatz",
    "slug": "gruselplatz",
    "category": "SCENIC_POINT",
    "region": "Alps",
    "country": "Europe",
    "lat": 47.7607858,
    "lng": 15.8346575,
    "nearest_airport": "VIE",
    "description": "Auto-imported SCENIC_POINT. Altitude: N/Am"
  }
}