{
  "hoadlsattel": {
    "name": "Hoadlsattel",
    "slug": "hoadlsattel",
    "category": "MOUNTAIN_PASS",
    "region": "Alps",
    "country": "Europe",
    "lat": 47.1787345,
    "lng": 11.2813557,
    "nearest_airport": "INN",
    "description": "Auto-imported MOUNTAIN_PASS. Altitude: 2260m"
  },
  "hoadlsattel-395": {
    "name": "Hoadlsattel",
    "slug": "hoadlsattel-395",
    "category": "MOUNTAIN_PASS",
    "region": "Alps",
    "country": "",
    "lat": 47.1787345,
    "lng": 11.2813557,
    "nearest_airport": "",
    "description": "Verified Location."
  },
  "hochalmsattel": {
    "name": "Hochalmsattel",
    "slug": "hochalmsattel",
    "category": "MOUNTAIN_PASS",
    "region": "Alps",
    "country": "Europe",
    "lat": 47.4281749,
    "lng": 11.4313516,
    "nearest_airport": "INN",
    "description": "Auto-imported MOUNTAIN_PASS. Altitude: 1803m"
  },
  "hochalmsattel-96": {
    "name": "Hochalmsattel",
    "slug": "hochalmsattel-96",
    "category": "MOUNTAIN_PASS",
    "region": "Alps",
    "country": "",
    "lat": 47.4281749,
    "lng": 11.4313516,
    "nearest_airport": "",
    "description": "Verified Location."
  },
  "hochalp-ost": {
    "name": "Hochalp Ost",
    "slug": "hochalp-ost",
    "category": "SCENIC_POINT",
    "region": "Alps",
    "country": "Europe",
    "lat": 47.2771035,
    "lng": 9.2569601,
    "nearest_airport": "ZRH",
    "description": "Auto-imported SCENIC_POINT. Altitude: 1525m"
  },
  "hochalppass": {
    "name": "Hochalppass",
    "slug": "hochalppass",
    "category": "MOUNTAIN_PASS",
    "region": "Alps",
    "country": "Europe",
    "lat": 47.2759357,
    "lng": 10.1149097,
    "nearest_airport": "INN",
    "description": "Auto-imported MOUNTAIN_PASS. Altitude: 1938m"
  },
  "hochanger": {
    "name": "Hochanger",
    "slug": "hochanger",
    "category": "SCENIC_POINT",
    "region": "Alps",
    "country": "Europe",
    "lat": 47.6646558,
    "lng": 13.7802619,
    "nearest_airport": "SZG",
    "description": "Auto-imported SCENIC_POINT. Altitude: N/Am"
  },
  "hochbehalter-hagnauer-gemeindewerke": {
    "name": "Hochbehälter Hagnauer Gemeindewerke",
    "slug": "hochbehalter-hagnauer-gemeindewerke",
    "category": "SCENIC_POINT",
    "region": "Alps",
    "country": "Europe",
    "lat": 47.6809299,
    "lng": 9.3193062,
    "nearest_airport": "ZRH",
    "description": "Auto-imported SCENIC_POINT. Altitude: 472m"
  },
  "hochberg": {
    "name": "Hochberg",
    "slug": "hochberg",
    "category": "SCENIC_POINT",
    "region": "Alps",
    "country": "Europe",
    "lat": 47.6289009,
    "lng": 9.7494814,
    "nearest_airport": "ZRH",
    "description": "Auto-imported SCENIC_POINT. Altitude: N/Am"
  },
  "hochbrunnsulzenscharte": {
    "name": "Hochbrunnsulzenscharte",
    "slug": "hochbrunnsulzenscharte",
    "category": "MOUNTAIN_PASS",
    "region": "Alps",
    "country": "Europe",
    "lat": 47.4616857,
    "lng": 12.9695887,
    "nearest_airport": "SZG",
    "description": "Auto-imported MOUNTAIN_PASS. Altitude: 2356m"
  },
  "hochbrunnsulzenscharte-922": {
    "name": "Hochbrunnsulzenscharte",
    "slug": "hochbrunnsulzenscharte-922",
    "category": "MOUNTAIN_PASS",
    "region": "Alps",
    "country": "",
    "lat": 47.4616857,
    "lng": 12.9695887,
    "nearest_airport": "",
    "description": "Verified Location."
  },
  "hochburg": {
    "name": "Hochburg",
    "slug": "hochburg",
    "category": "SCENIC_POINT",
    "region": "Alps",
    "country": "Europe",
    "lat": 47.7356196,
    "lng": 11.868436,
    "nearest_airport": "INN",
    "description": "Auto-imported SCENIC_POINT. Altitude: N/Am"
  },
  "hochebenscharte": {
    "name": "Hochebenscharte",
    "slug": "hochebenscharte",
    "category": "MOUNTAIN_PASS",
    "region": "Alps",
    "country": "Europe",
    "lat": 46.8311107,
    "lng": 11.0202503,
    "nearest_airport": "INN",
    "description": "Auto-imported MOUNTAIN_PASS. Altitude: N/Am"
  },
  "hocheggersattel": {
    "name": "Hocheggersattel",
    "slug": "hocheggersattel",
    "category": "MOUNTAIN_PASS",
    "region": "Alps",
    "country": "Europe",
    "lat": 47.2284704,
    "lng": 14.3568903,
    "nearest_airport": "SZG",
    "description": "Auto-imported MOUNTAIN_PASS. Altitude: 1318m"
  },
  "hocheggersattel-1737": {
    "name": "Hocheggersattel",
    "slug": "hocheggersattel-1737",
    "category": "MOUNTAIN_PASS",
    "region": "Alps",
    "country": "",
    "lat": 47.2284704,
    "lng": 14.3568903,
    "nearest_airport": "",
    "description": "Verified Location."
  },
  "hochfall": {
    "name": "Höchfall",
    "slug": "hochfall",
    "category": "SCENIC_POINT",
    "region": "Alps",
    "country": "Europe",
    "lat": 47.3854487,
    "lng": 9.3730516,
    "nearest_airport": "ZRH",
    "description": "Auto-imported SCENIC_POINT. Altitude: N/Am"
  },
  "hochfirstturm": {
    "name": "Hochfirstturm",
    "slug": "hochfirstturm",
    "category": "SCENIC_POINT",
    "region": "Alps",
    "country": "Europe",
    "lat": 47.9012424,
    "lng": 8.1843275,
    "nearest_airport": "ZRH",
    "description": "Auto-imported SCENIC_POINT. Altitude: 1192m"
  },
  "hochfirstturm-2233": {
    "name": "Hochfirstturm",
    "slug": "hochfirstturm-2233",
    "category": "SCENIC_POINT",
    "region": "Alps",
    "country": "",
    "lat": 47.9012424,
    "lng": 8.1843275,
    "nearest_airport": "",
    "description": "Verified Location."
  },
  "hochfluh": {
    "name": "Hochfluh",
    "slug": "hochfluh",
    "category": "SCENIC_POINT",
    "region": "Alps",
    "country": "Europe",
    "lat": 46.9734045,
    "lng": 8.578728,
    "nearest_airport": "ZRH",
    "description": "Auto-imported SCENIC_POINT. Altitude: N/Am"
  },
  "hochgangscharte-passo-del-valico": {
    "name": "Hochgangscharte - Passo del Valico",
    "slug": "hochgangscharte-passo-del-valico",
    "category": "MOUNTAIN_PASS",
    "region": "Alps",
    "country": "Europe",
    "lat": 46.7209061,
    "lng": 11.0830982,
    "nearest_airport": "INN",
    "description": "Auto-imported MOUNTAIN_PASS. Altitude: 2455m"
  },
  "hochgangscharte-passo-del-valico-391": {
    "name": "Hochgangscharte - Passo del Valico",
    "slug": "hochgangscharte-passo-del-valico-391",
    "category": "MOUNTAIN_PASS",
    "region": "Alps",
    "country": "",
    "lat": 46.7209061,
    "lng": 11.0830982,
    "nearest_airport": "",
    "description": "Verified Location."
  },
  "hochgeschirr": {
    "name": "Hochgeschirr",
    "slug": "hochgeschirr",
    "category": "SCENIC_POINT",
    "region": "Alps",
    "country": "Europe",
    "lat": 47.8963659,
    "lng": 13.8307773,
    "nearest_airport": "SZG",
    "description": "Auto-imported SCENIC_POINT. Altitude: N/Am"
  },
  "hochgluckscharte": {
    "name": "Hochglückscharte",
    "slug": "hochgluckscharte",
    "category": "MOUNTAIN_PASS",
    "region": "Alps",
    "country": "Europe",
    "lat": 47.3746509,
    "lng": 11.5657641,
    "nearest_airport": "INN",
    "description": "Auto-imported MOUNTAIN_PASS. Altitude: 2387m"
  },
  "hochgluckscharte-1108": {
    "name": "Hochglückscharte",
    "slug": "hochgluckscharte-1108",
    "category": "MOUNTAIN_PASS",
    "region": "Alps",
    "country": "",
    "lat": 47.3746509,
    "lng": 11.5657641,
    "nearest_airport": "",
    "description": "Verified Location."
  },
  "hochgrantenjoch-sella-di-nemes": {
    "name": "Hochgräntenjoch - Sella di Nemes",
    "slug": "hochgrantenjoch-sella-di-nemes",
    "category": "MOUNTAIN_PASS",
    "region": "Alps",
    "country": "Europe",
    "lat": 46.6901441,
    "lng": 12.4388378,
    "nearest_airport": "INN",
    "description": "Auto-imported MOUNTAIN_PASS. Altitude: 2429m"
  },
  "hochgrantenjoch-sella-di-nemes-2965": {
    "name": "Hochgräntenjoch - Sella di Nemes",
    "slug": "hochgrantenjoch-sella-di-nemes-2965",
    "category": "MOUNTAIN_PASS",
    "region": "Alps",
    "country": "",
    "lat": 46.6901441,
    "lng": 12.4388378,
    "nearest_airport": "",
    "description": "Verified Location."
  },
  "hochgschirr": {
    "name": "Hochgschirr",
    "slug": "hochgschirr",
    "category": "MOUNTAIN_PASS",
    "region": "Alps",
    "country": "Europe",
    "lat": 47.5338709,
    "lng": 13.0253573,
    "nearest_airport": "SZG",
    "description": "Auto-imported MOUNTAIN_PASS. Altitude: 1949m"
  },
  "hochholder": {
    "name": "Hochholder",
    "slug": "hochholder",
    "category": "SCENIC_POINT",
    "region": "Alps",
    "country": "Europe",
    "lat": 47.6027783,
    "lng": 10.208866,
    "nearest_airport": "INN",
    "description": "Auto-imported SCENIC_POINT. Altitude: 947m"
  },
  "hochhorn": {
    "name": "Hochhorn",
    "slug": "hochhorn",
    "category": "SCENIC_POINT",
    "region": "Alps",
    "country": "Europe",
    "lat": 47.8472917,
    "lng": 12.7486212,
    "nearest_airport": "SZG",
    "description": "Auto-imported SCENIC_POINT. Altitude: N/Am"
  },
  "hochi": {
    "name": "Höchi",
    "slug": "hochi",
    "category": "SCENIC_POINT",
    "region": "Alps",
    "country": "Europe",
    "lat": 47.3707703,
    "lng": 8.7020608,
    "nearest_airport": "ZRH",
    "description": "Auto-imported SCENIC_POINT. Altitude: 475m"
  },
  "hochjoch": {
    "name": "Hochjoch",
    "slug": "hochjoch",
    "category": "MOUNTAIN_PASS",
    "region": "Alps",
    "country": "Europe",
    "lat": 47.4897772,
    "lng": 10.6437542,
    "nearest_airport": "INN",
    "description": "Auto-imported MOUNTAIN_PASS. Altitude: 1754m"
  },
  "hochjoch-giogo-alto": {
    "name": "Hochjoch - Giogo Alto",
    "slug": "hochjoch-giogo-alto",
    "category": "MOUNTAIN_PASS",
    "region": "Alps",
    "country": "Europe",
    "lat": 46.7878646,
    "lng": 10.7989766,
    "nearest_airport": "INN",
    "description": "Auto-imported MOUNTAIN_PASS. Altitude: 2861m"
  },
  "hochjoch-giogo-alto-733": {
    "name": "Hochjoch - Giogo Alto",
    "slug": "hochjoch-giogo-alto-733",
    "category": "MOUNTAIN_PASS",
    "region": "Alps",
    "country": "",
    "lat": 46.7878646,
    "lng": 10.7989766,
    "nearest_airport": "",
    "description": "Verified Location."
  },
  "hochjoch-grosse-furka": {
    "name": "Hochjoch Große Furka",
    "slug": "hochjoch-grosse-furka",
    "category": "MOUNTAIN_PASS",
    "region": "Alps",
    "country": "Europe",
    "lat": 47.0559826,
    "lng": 9.6415752,
    "nearest_airport": "ZRH",
    "description": "Auto-imported MOUNTAIN_PASS. Altitude: 2353m"
  },
  "hochjoch-grosse-furka-2091": {
    "name": "Hochjoch Große Furka",
    "slug": "hochjoch-grosse-furka-2091",
    "category": "MOUNTAIN_PASS",
    "region": "Alps",
    "country": "",
    "lat": 47.0559826,
    "lng": 9.6415752,
    "nearest_airport": "",
    "description": "Verified Location."
  },
  "hochjochhutte": {
    "name": "Hochjochhütte",
    "slug": "hochjochhutte",
    "category": "SCENIC_POINT",
    "region": "Alps",
    "country": "Europe",
    "lat": 47.7486536,
    "lng": 13.6253294,
    "nearest_airport": "SZG",
    "description": "Auto-imported SCENIC_POINT. Altitude: N/Am"
  },
  "hochjochl": {
    "name": "Hochjöchl",
    "slug": "hochjochl",
    "category": "MOUNTAIN_PASS",
    "region": "Alps",
    "country": "Europe",
    "lat": 47.4090207,
    "lng": 11.4446647,
    "nearest_airport": "INN",
    "description": "Auto-imported MOUNTAIN_PASS. Altitude: 2411m"
  },
  "hochjochl-2416": {
    "name": "Hochjöchl",
    "slug": "hochjochl-2416",
    "category": "MOUNTAIN_PASS",
    "region": "Alps",
    "country": "",
    "lat": 47.4090207,
    "lng": 11.4446647,
    "nearest_airport": "",
    "description": "Verified Location."
  },
  "hochkarscharte": {
    "name": "Hochkarscharte",
    "slug": "hochkarscharte",
    "category": "MOUNTAIN_PASS",
    "region": "Alps",
    "country": "Europe",
    "lat": 47.4479151,
    "lng": 11.3592252,
    "nearest_airport": "INN",
    "description": "Auto-imported MOUNTAIN_PASS. Altitude: 2165m"
  },
  "hochkarscharte-1112": {
    "name": "Hochkarscharte",
    "slug": "hochkarscharte-1112",
    "category": "MOUNTAIN_PASS",
    "region": "Alps",
    "country": "",
    "lat": 47.4479151,
    "lng": 11.3592252,
    "nearest_airport": "",
    "description": "Verified Location."
  },
  "hochkedlscharte": {
    "name": "Hochkedlscharte",
    "slug": "hochkedlscharte",
    "category": "MOUNTAIN_PASS",
    "region": "Alps",
    "country": "Europe",
    "lat": 46.9094793,
    "lng": 13.3782502,
    "nearest_airport": "SZG",
    "description": "Auto-imported MOUNTAIN_PASS. Altitude: 2500m"
  },
  "hochkedlscharte-955": {
    "name": "Hochkedlscharte",
    "slug": "hochkedlscharte-955",
    "category": "MOUNTAIN_PASS",
    "region": "Alps",
    "country": "",
    "lat": 46.9094793,
    "lng": 13.3782502,
    "nearest_airport": "",
    "description": "Verified Location."
  },
  "hochklapfsattel": {
    "name": "Hochklapfsattel",
    "slug": "hochklapfsattel",
    "category": "MOUNTAIN_PASS",
    "region": "Alps",
    "country": "Europe",
    "lat": 47.6742688,
    "lng": 13.8257406,
    "nearest_airport": "SZG",
    "description": "Auto-imported MOUNTAIN_PASS. Altitude: 1498m"
  },
  "hochkogel": {
    "name": "Hochkogel",
    "slug": "hochkogel",
    "category": "SCENIC_POINT",
    "region": "Alps",
    "country": "Europe",
    "lat": 47.4751799,
    "lng": 12.5100755,
    "nearest_airport": "SZG",
    "description": "Auto-imported SCENIC_POINT. Altitude: 1066m"
  },
  "hochkonigblick": {
    "name": "Hochkönigblick",
    "slug": "hochkonigblick",
    "category": "SCENIC_POINT",
    "region": "Alps",
    "country": "Europe",
    "lat": 47.1456541,
    "lng": 13.1130436,
    "nearest_airport": "SZG",
    "description": "Auto-imported SCENIC_POINT. Altitude: N/Am"
  },
  "hochkopfturm": {
    "name": "Hochkopfturm",
    "slug": "hochkopfturm",
    "category": "SCENIC_POINT",
    "region": "Alps",
    "country": "Europe",
    "lat": 47.7671711,
    "lng": 7.9872721,
    "nearest_airport": "ZRH",
    "description": "Auto-imported SCENIC_POINT. Altitude: 1267m"
  },
  "hochkopfturm-1429": {
    "name": "Hochkopfturm",
    "slug": "hochkopfturm-1429",
    "category": "SCENIC_POINT",
    "region": "Alps",
    "country": "",
    "lat": 47.7671711,
    "lng": 7.9872721,
    "nearest_airport": "",
    "description": "Verified Location."
  },
  "hochleckenhaus": {
    "name": "Hochleckenhaus",
    "slug": "hochleckenhaus",
    "category": "SCENIC_POINT",
    "region": "Alps",
    "country": "Europe",
    "lat": 47.82847,
    "lng": 13.6056326,
    "nearest_airport": "SZG",
    "description": "Auto-imported SCENIC_POINT. Altitude: 1578m"
  },
  "hochleitenjoch-forcella-punta-alta": {
    "name": "Hochleitenjoch - Forcella Punta Alta",
    "slug": "hochleitenjoch-forcella-punta-alta",
    "category": "MOUNTAIN_PASS",
    "region": "Alps",
    "country": "Europe",
    "lat": 46.5437355,
    "lng": 10.5432969,
    "nearest_airport": "INN",
    "description": "Auto-imported MOUNTAIN_PASS. Altitude: 2682m"
  },
  "hochleitenjoch-forcella-punta-alta-3094": {
    "name": "Hochleitenjoch - Forcella Punta Alta",
    "slug": "hochleitenjoch-forcella-punta-alta-3094",
    "category": "MOUNTAIN_PASS",
    "region": "Alps",
    "country": "",
    "lat": 46.5437355,
    "lng": 10.5432969,
    "nearest_airport": "",
    "description": "Verified Location."
  },
  "hochleithenkopf": {
    "name": "Hochleithenkopf",
    "slug": "hochleithenkopf",
    "category": "SCENIC_POINT",
    "region": "Alps",
    "country": "Europe",
    "lat": 47.295424,
    "lng": 11.1941618,
    "nearest_airport": "INN",
    "description": "Auto-imported SCENIC_POINT. Altitude: 1180m"
  },
  "hochmadererjoch": {
    "name": "Hochmadererjoch",
    "slug": "hochmadererjoch",
    "category": "MOUNTAIN_PASS",
    "region": "Alps",
    "country": "Europe",
    "lat": 46.9250572,
    "lng": 10.0253643,
    "nearest_airport": "INN",
    "description": "Auto-imported MOUNTAIN_PASS. Altitude: 2505m"
  },
  "hochmadererjoch-268": {
    "name": "Hochmadererjoch",
    "slug": "hochmadererjoch-268",
    "category": "MOUNTAIN_PASS",
    "region": "Alps",
    "country": "",
    "lat": 46.9250572,
    "lng": 10.0253643,
    "nearest_airport": "",
    "description": "Verified Location."
  },
  "hochmais": {
    "name": "Hochmais",
    "slug": "hochmais",
    "category": "SCENIC_POINT",
    "region": "Alps",
    "country": "Europe",
    "lat": 47.1284835,
    "lng": 12.807033,
    "nearest_airport": "SZG",
    "description": "Auto-imported SCENIC_POINT. Altitude: N/Am"
  },
  "hochreichscharte": {
    "name": "Hochreichscharte",
    "slug": "hochreichscharte",
    "category": "MOUNTAIN_PASS",
    "region": "Alps",
    "country": "Europe",
    "lat": 47.1692171,
    "lng": 10.9693458,
    "nearest_airport": "INN",
    "description": "Auto-imported MOUNTAIN_PASS. Altitude: 2912m"
  },
  "hochreichscharte-2962": {
    "name": "Hochreichscharte",
    "slug": "hochreichscharte-2962",
    "category": "MOUNTAIN_PASS",
    "region": "Alps",
    "country": "",
    "lat": 47.1692171,
    "lng": 10.9693458,
    "nearest_airport": "",
    "description": "Verified Location."
  },
  "hochreitshohe": {
    "name": "Hochreitshöhe",
    "slug": "hochreitshohe",
    "category": "SCENIC_POINT",
    "region": "Alps",
    "country": "Europe",
    "lat": 47.4240527,
    "lng": 12.8966214,
    "nearest_airport": "SZG",
    "description": "Auto-imported SCENIC_POINT. Altitude: N/Am"
  },
  "hochried-ebenerblick": {
    "name": "Hochried, Ebenerblick",
    "slug": "hochried-ebenerblick",
    "category": "SCENIC_POINT",
    "region": "Alps",
    "country": "Europe",
    "lat": 47.4498075,
    "lng": 11.6935948,
    "nearest_airport": "INN",
    "description": "Auto-imported SCENIC_POINT. Altitude: N/Am"
  },
  "hochrindl": {
    "name": "Hochrindl",
    "slug": "hochrindl",
    "category": "MOUNTAIN_PASS",
    "region": "Alps",
    "country": "Europe",
    "lat": 46.8599522,
    "lng": 13.9941599,
    "nearest_airport": "SZG",
    "description": "Auto-imported MOUNTAIN_PASS. Altitude: 1617m"
  },
  "hochrindl-3883": {
    "name": "Hochrindl",
    "slug": "hochrindl-3883",
    "category": "MOUNTAIN_PASS",
    "region": "Alps",
    "country": "",
    "lat": 46.8599522,
    "lng": 13.9941599,
    "nearest_airport": "",
    "description": "Verified Location."
  },
  "hochsattel": {
    "name": "Hochsattel",
    "slug": "hochsattel",
    "category": "MOUNTAIN_PASS",
    "region": "Alps",
    "country": "Europe",
    "lat": 47.7940069,
    "lng": 14.3606707,
    "nearest_airport": "SZG",
    "description": "Auto-imported MOUNTAIN_PASS. Altitude: 1199m"
  },
  "hochsattel-1868": {
    "name": "Hochsattel",
    "slug": "hochsattel-1868",
    "category": "MOUNTAIN_PASS",
    "region": "Alps",
    "country": "",
    "lat": 47.5492055,
    "lng": 13.0455483,
    "nearest_airport": "",
    "description": "Verified Location."
  },
  "hochschanz": {
    "name": "Hochschanz",
    "slug": "hochschanz",
    "category": "SCENIC_POINT",
    "region": "Alps",
    "country": "Europe",
    "lat": 47.6736317,
    "lng": 12.4078169,
    "nearest_airport": "SZG",
    "description": "Auto-imported SCENIC_POINT. Altitude: N/Am"
  },
  "hochscherefurggele": {
    "name": "Hochscherefürggele",
    "slug": "hochscherefurggele",
    "category": "MOUNTAIN_PASS",
    "region": "Alps",
    "country": "Europe",
    "lat": 47.2620857,
    "lng": 9.9565346,
    "nearest_airport": "INN",
    "description": "Auto-imported MOUNTAIN_PASS. Altitude: 2013m"
  },
  "hochscherefurggele-741": {
    "name": "Hochscherefürggele",
    "slug": "hochscherefurggele-741",
    "category": "MOUNTAIN_PASS",
    "region": "Alps",
    "country": "",
    "lat": 47.2620857,
    "lng": 9.9565346,
    "nearest_airport": "",
    "description": "Verified Location."
  },
  "hochschwab-blick": {
    "name": "Hochschwab Blick",
    "slug": "hochschwab-blick",
    "category": "SCENIC_POINT",
    "region": "Alps",
    "country": "Europe",
    "lat": 47.2969443,
    "lng": 15.371477,
    "nearest_airport": "VIE",
    "description": "Auto-imported SCENIC_POINT. Altitude: N/Am"
  },
  "hochschwabblick": {
    "name": "Hochschwabblick",
    "slug": "hochschwabblick",
    "category": "SCENIC_POINT",
    "region": "Alps",
    "country": "Europe",
    "lat": 47.2598085,
    "lng": 15.4133758,
    "nearest_airport": "VIE",
    "description": "Auto-imported SCENIC_POINT. Altitude: N/Am"
  },
  "hochseeleinscharte": {
    "name": "Hochseeleinscharte",
    "slug": "hochseeleinscharte",
    "category": "MOUNTAIN_PASS",
    "region": "Alps",
    "country": "Europe",
    "lat": 47.5395437,
    "lng": 13.0368397,
    "nearest_airport": "SZG",
    "description": "Auto-imported MOUNTAIN_PASS. Altitude: 2000m"
  },
  "hochspitzsenke-forcella-val-carnia": {
    "name": "Hochspitzsenke - Forcella Val Carnia",
    "slug": "hochspitzsenke-forcella-val-carnia",
    "category": "MOUNTAIN_PASS",
    "region": "Alps",
    "country": "Europe",
    "lat": 46.6575094,
    "lng": 12.6627255,
    "nearest_airport": "INN",
    "description": "Auto-imported MOUNTAIN_PASS. Altitude: 2314m"
  },
  "hochspitzsenke-forcella-val-carnia-2968": {
    "name": "Hochspitzsenke - Forcella Val Carnia",
    "slug": "hochspitzsenke-forcella-val-carnia-2968",
    "category": "MOUNTAIN_PASS",
    "region": "Alps",
    "country": "",
    "lat": 46.6575094,
    "lng": 12.6627255,
    "nearest_airport": "",
    "description": "Verified Location."
  },
  "hochstadelberg": {
    "name": "Hochstadelberg",
    "slug": "hochstadelberg",
    "category": "SCENIC_POINT",
    "region": "Alps",
    "country": "Europe",
    "lat": 47.8845993,
    "lng": 15.3208785,
    "nearest_airport": "VIE",
    "description": "Auto-imported SCENIC_POINT. Altitude: N/Am"
  },
  "hochste-erhebung-in-berndorf": {
    "name": "Höchste Erhebung in Berndorf",
    "slug": "hochste-erhebung-in-berndorf",
    "category": "SCENIC_POINT",
    "region": "Alps",
    "country": "Europe",
    "lat": 47.9782118,
    "lng": 13.0301757,
    "nearest_airport": "SZG",
    "description": "Auto-imported SCENIC_POINT. Altitude: 687m"
  },
  "hochsteg-klamm": {
    "name": "Hochsteg Klamm",
    "slug": "hochsteg-klamm",
    "category": "SCENIC_POINT",
    "region": "Alps",
    "country": "Europe",
    "lat": 47.0136214,
    "lng": 13.4331287,
    "nearest_airport": "SZG",
    "description": "Auto-imported SCENIC_POINT. Altitude: N/Am"
  },
  "hochstrickl": {
    "name": "Hochstrickl",
    "slug": "hochstrickl",
    "category": "SCENIC_POINT",
    "region": "Alps",
    "country": "Europe",
    "lat": 47.4137796,
    "lng": 11.9356004,
    "nearest_airport": "INN",
    "description": "Auto-imported SCENIC_POINT. Altitude: 1739m"
  },
  "hochstuhl": {
    "name": "Hochstuhl",
    "slug": "hochstuhl",
    "category": "SCENIC_POINT",
    "region": "Alps",
    "country": "Europe",
    "lat": 47.863668,
    "lng": 7.9541872,
    "nearest_airport": "ZRH",
    "description": "Auto-imported SCENIC_POINT. Altitude: N/Am"
  },
  "hochtannbergpass": {
    "name": "Hochtannbergpass",
    "slug": "hochtannbergpass",
    "category": "MOUNTAIN_PASS",
    "region": "Alps",
    "country": "Europe",
    "lat": 47.2694738,
    "lng": 10.130451,
    "nearest_airport": "INN",
    "description": "Auto-imported MOUNTAIN_PASS. Altitude: 1676m"
  },
  "hochtannbergpass-180": {
    "name": "Hochtannbergpass",
    "slug": "hochtannbergpass-180",
    "category": "MOUNTAIN_PASS",
    "region": "Alps",
    "country": "",
    "lat": 47.2694738,
    "lng": 10.130451,
    "nearest_airport": "",
    "description": "Verified Location."
  },
  "hochtor": {
    "name": "Hochtor",
    "slug": "hochtor",
    "category": "SCENIC_POINT",
    "region": "Alps",
    "country": "Europe",
    "lat": 47.0808784,
    "lng": 12.842647,
    "nearest_airport": "SZG",
    "description": "Auto-imported SCENIC_POINT. Altitude: 2504m"
  },
  "hochtor-8": {
    "name": "Hochtor",
    "slug": "hochtor-8",
    "category": "MOUNTAIN_PASS",
    "region": "Alps",
    "country": "",
    "lat": 47.0811877,
    "lng": 12.8425858,
    "nearest_airport": "",
    "description": "Verified Location."
  },
  "hochvogelblick": {
    "name": "Hochvogelblick",
    "slug": "hochvogelblick",
    "category": "SCENIC_POINT",
    "region": "Alps",
    "country": "Europe",
    "lat": 47.4528986,
    "lng": 10.1122707,
    "nearest_airport": "INN",
    "description": "Bergblick Richtung Oberstdorf"
  },
  "hochvorsass": {
    "name": "Hochvorsäß",
    "slug": "hochvorsass",
    "category": "SCENIC_POINT",
    "region": "Alps",
    "country": "Europe",
    "lat": 47.3512167,
    "lng": 9.8685895,
    "nearest_airport": "ZRH",
    "description": "Auto-imported SCENIC_POINT. Altitude: N/Am"
  },
  "hochwacht": {
    "name": "Hochwacht",
    "slug": "hochwacht",
    "category": "SCENIC_POINT",
    "region": "Alps",
    "country": "Europe",
    "lat": 47.1473304,
    "lng": 8.5406812,
    "nearest_airport": "ZRH",
    "description": "Auto-imported SCENIC_POINT. Altitude: N/Am"
  },
  "hochwacht-592": {
    "name": "Hochwacht (592)",
    "slug": "hochwacht-592",
    "category": "SCENIC_POINT",
    "region": "Alps",
    "country": "Europe",
    "lat": 47.6364167,
    "lng": 8.9075542,
    "nearest_airport": "ZRH",
    "description": "Auto-imported SCENIC_POINT. Altitude: N/Am"
  },
  "hochwacht-irchel": {
    "name": "Hochwacht Irchel",
    "slug": "hochwacht-irchel",
    "category": "SCENIC_POINT",
    "region": "Alps",
    "country": "Europe",
    "lat": 47.5577804,
    "lng": 8.5794634,
    "nearest_airport": "ZRH",
    "description": "Auto-imported SCENIC_POINT. Altitude: 670m"
  },
  "hochwacht-irchel-3095": {
    "name": "Hochwacht Irchel",
    "slug": "hochwacht-irchel-3095",
    "category": "SCENIC_POINT",
    "region": "Alps",
    "country": "",
    "lat": 47.5577804,
    "lng": 8.5794634,
    "nearest_airport": "",
    "description": "Verified Location."
  },
  "hochwacht-roset": {
    "name": "Hochwacht Roset",
    "slug": "hochwacht-roset",
    "category": "MOUNTAIN_PASS",
    "region": "Alps",
    "country": "Europe",
    "lat": 47.4560446,
    "lng": 9.0040401,
    "nearest_airport": "ZRH",
    "description": "Auto-imported MOUNTAIN_PASS. Altitude: 638m"
  },
  "hochwand": {
    "name": "Hochwand",
    "slug": "hochwand",
    "category": "SCENIC_POINT",
    "region": "Alps",
    "country": "Europe",
    "lat": 46.3331819,
    "lng": 11.3439939,
    "nearest_airport": "INN",
    "description": "Auto-imported SCENIC_POINT. Altitude: N/Am"
  },
  "hochwandl": {
    "name": "Hochwandl",
    "slug": "hochwandl",
    "category": "SCENIC_POINT",
    "region": "Alps",
    "country": "Europe",
    "lat": 47.775486,
    "lng": 12.4921001,
    "nearest_airport": "SZG",
    "description": "Auto-imported SCENIC_POINT. Altitude: N/Am"
  },
  "hochwart": {
    "name": "Hochwart",
    "slug": "hochwart",
    "category": "SCENIC_POINT",
    "region": "Alps",
    "country": "Europe",
    "lat": 47.6911492,
    "lng": 9.0670155,
    "nearest_airport": "ZRH",
    "description": "Auto-imported SCENIC_POINT. Altitude: N/Am"
  },
  "hochwies": {
    "name": "Hochwies",
    "slug": "hochwies",
    "category": "MOUNTAIN_PASS",
    "region": "Alps",
    "country": "Europe",
    "lat": 47.5161583,
    "lng": 13.0933538,
    "nearest_airport": "SZG",
    "description": "Auto-imported MOUNTAIN_PASS. Altitude: 1998m"
  },
  "hochwiesscharte": {
    "name": "Hochwiesscharte",
    "slug": "hochwiesscharte",
    "category": "MOUNTAIN_PASS",
    "region": "Alps",
    "country": "Europe",
    "lat": 47.5238093,
    "lng": 12.8554522,
    "nearest_airport": "SZG",
    "description": "Auto-imported MOUNTAIN_PASS. Altitude: 2159m"
  },
  "hochwiesscharte-912": {
    "name": "Hochwiesscharte",
    "slug": "hochwiesscharte-912",
    "category": "MOUNTAIN_PASS",
    "region": "Alps",
    "country": "",
    "lat": 47.5238093,
    "lng": 12.8554522,
    "nearest_airport": "",
    "description": "Verified Location."
  },
  "hochwurzen": {
    "name": "Hochwurzen",
    "slug": "hochwurzen",
    "category": "SCENIC_POINT",
    "region": "Alps",
    "country": "Europe",
    "lat": 47.3599867,
    "lng": 13.6395899,
    "nearest_airport": "SZG",
    "description": "Auto-imported SCENIC_POINT. Altitude: 1849m"
  },
  "hochwurzen-294": {
    "name": "Hochwurzen",
    "slug": "hochwurzen-294",
    "category": "SCENIC_POINT",
    "region": "Alps",
    "country": "",
    "lat": 47.3599867,
    "lng": 13.6395899,
    "nearest_airport": "",
    "description": "Verified Location."
  },
  "hof-der-burgruine-schrofenstein": {
    "name": "Hof der Burgruine Schrofenstein",
    "slug": "hof-der-burgruine-schrofenstein",
    "category": "SCENIC_POINT",
    "region": "Alps",
    "country": "Europe",
    "lat": 47.1553868,
    "lng": 10.5650178,
    "nearest_airport": "INN",
    "description": "Auto-imported SCENIC_POINT. Altitude: N/Am"
  },
  "hofer-alm": {
    "name": "Hofer Alm",
    "slug": "hofer-alm",
    "category": "SCENIC_POINT",
    "region": "Alps",
    "country": "Europe",
    "lat": 47.1264776,
    "lng": 13.8213577,
    "nearest_airport": "SZG",
    "description": "Auto-imported SCENIC_POINT. Altitude: N/Am"
  },
  "hofersattel": {
    "name": "Hofersattel",
    "slug": "hofersattel",
    "category": "MOUNTAIN_PASS",
    "region": "Alps",
    "country": "Europe",
    "lat": 47.3874222,
    "lng": 13.272812,
    "nearest_airport": "SZG",
    "description": "Auto-imported MOUNTAIN_PASS. Altitude: 1634m"
  },
  "hofluhfelsen": {
    "name": "Hofluhfelsen",
    "slug": "hofluhfelsen",
    "category": "SCENIC_POINT",
    "region": "Alps",
    "country": "Europe",
    "lat": 47.6948466,
    "lng": 8.2289832,
    "nearest_airport": "ZRH",
    "description": "Auto-imported SCENIC_POINT. Altitude: N/Am"
  },
  "hofmannsruh": {
    "name": "Hofmannsruh",
    "slug": "hofmannsruh",
    "category": "SCENIC_POINT",
    "region": "Alps",
    "country": "Europe",
    "lat": 47.400036,
    "lng": 10.285006,
    "nearest_airport": "INN",
    "description": "Auto-imported SCENIC_POINT. Altitude: N/Am"
  },
  "hoh": {
    "name": "Höh",
    "slug": "hoh",
    "category": "SCENIC_POINT",
    "region": "Alps",
    "country": "Europe",
    "lat": 46.5012913,
    "lng": 7.6691931,
    "nearest_airport": "GVA",
    "description": "Auto-imported SCENIC_POINT. Altitude: N/Am"
  },
  "hohberg": {
    "name": "Hohberg",
    "slug": "hohberg",
    "category": "SCENIC_POINT",
    "region": "Alps",
    "country": "Europe",
    "lat": 47.7225489,
    "lng": 8.6527044,
    "nearest_airport": "ZRH",
    "description": "Auto-imported SCENIC_POINT. Altitude: N/Am"
  },
  "hohbuhl": {
    "name": "Hohbühl",
    "slug": "hohbuhl",
    "category": "SCENIC_POINT",
    "region": "Alps",
    "country": "Europe",
    "lat": 46.6908659,
    "lng": 7.8625202,
    "nearest_airport": "ZRH",
    "description": "Auto-imported SCENIC_POINT. Altitude: N/Am"
  },
  "hohe-brucke": {
    "name": "Hohe Brücke",
    "slug": "hohe-brucke",
    "category": "SCENIC_POINT",
    "region": "Alps",
    "country": "Europe",
    "lat": 47.3775406,
    "lng": 11.6930599,
    "nearest_airport": "INN",
    "description": "Auto-imported SCENIC_POINT. Altitude: N/Am"
  },
  "hohe-gloriette": {
    "name": "Hohe Gloriette",
    "slug": "hohe-gloriette",
    "category": "SCENIC_POINT",
    "region": "Alps",
    "country": "Europe",
    "lat": 46.6378401,
    "lng": 14.1285817,
    "nearest_airport": "SZG",
    "description": "Auto-imported SCENIC_POINT. Altitude: 537m"
  },
  "hohe-gradenscharte": {
    "name": "Hohe Gradenscharte",
    "slug": "hohe-gradenscharte",
    "category": "MOUNTAIN_PASS",
    "region": "Alps",
    "country": "Europe",
    "lat": 46.941637,
    "lng": 12.7816326,
    "nearest_airport": "SZG",
    "description": "Auto-imported MOUNTAIN_PASS. Altitude: 2803m"
  },
  "hohe-gradenscharte-3145": {
    "name": "Hohe Gradenscharte",
    "slug": "hohe-gradenscharte-3145",
    "category": "MOUNTAIN_PASS",
    "region": "Alps",
    "country": "",
    "lat": 46.941637,
    "lng": 12.7816326,
    "nearest_airport": "",
    "description": "Verified Location."
  },
  "hohe-kanzel": {
    "name": "Hohe Kanzel",
    "slug": "hohe-kanzel",
    "category": "SCENIC_POINT",
    "region": "Alps",
    "country": "Europe",
    "lat": 47.8077326,
    "lng": 8.1858554,
    "nearest_airport": "ZRH",
    "description": "Auto-imported SCENIC_POINT. Altitude: N/Am"
  },
  "hohe-lug": {
    "name": "Hohe Lug",
    "slug": "hohe-lug",
    "category": "SCENIC_POINT",
    "region": "Alps",
    "country": "Europe",
    "lat": 47.3265614,
    "lng": 9.6700676,
    "nearest_airport": "ZRH",
    "description": "Auto-imported SCENIC_POINT. Altitude: N/Am"
  },
  "hohe-mohr-turm": {
    "name": "Hohe-Möhr-Turm",
    "slug": "hohe-mohr-turm",
    "category": "SCENIC_POINT",
    "region": "Alps",
    "country": "Europe",
    "lat": 47.6927568,
    "lng": 7.8744996,
    "nearest_airport": "ZRH",
    "description": "Auto-imported SCENIC_POINT. Altitude: 985m"
  },
  "hohe-rast": {
    "name": "Hohe Rast",
    "slug": "hohe-rast",
    "category": "SCENIC_POINT",
    "region": "Alps",
    "country": "Europe",
    "lat": 47.8301932,
    "lng": 13.5927916,
    "nearest_airport": "SZG",
    "description": "Auto-imported SCENIC_POINT. Altitude: N/Am"
  },
  "hohe-sage-forcella-sega-alta": {
    "name": "Hohe Säge - Forcella Sega Alta",
    "slug": "hohe-sage-forcella-sega-alta",
    "category": "MOUNTAIN_PASS",
    "region": "Alps",
    "country": "Europe",
    "lat": 46.883682,
    "lng": 11.7748167,
    "nearest_airport": "INN",
    "description": "Auto-imported MOUNTAIN_PASS. Altitude: 2610m"
  },
  "hohe-sage-forcella-sega-alta-862": {
    "name": "Hohe Säge - Forcella Sega Alta",
    "slug": "hohe-sage-forcella-sega-alta-862",
    "category": "MOUNTAIN_PASS",
    "region": "Alps",
    "country": "",
    "lat": 46.883682,
    "lng": 11.7748167,
    "nearest_airport": "",
    "description": "Verified Location."
  },
  "hohe-salve": {
    "name": "Hohe Salve",
    "slug": "hohe-salve",
    "category": "SCENIC_POINT",
    "region": "Alps",
    "country": "Europe",
    "lat": 47.4653855,
    "lng": 12.2040757,
    "nearest_airport": "INN",
    "description": "Auto-imported SCENIC_POINT. Altitude: N/Am"
  },
  "hohe-scharte": {
    "name": "Hohe Scharte",
    "slug": "hohe-scharte",
    "category": "MOUNTAIN_PASS",
    "region": "Alps",
    "country": "Europe",
    "lat": 47.1533701,
    "lng": 13.0442732,
    "nearest_airport": "SZG",
    "description": "Auto-imported MOUNTAIN_PASS. Altitude: 2291m"
  },
  "hohe-scharte-2972": {
    "name": "Hohe Scharte",
    "slug": "hohe-scharte-2972",
    "category": "MOUNTAIN_PASS",
    "region": "Alps",
    "country": "",
    "lat": 47.1533701,
    "lng": 13.0442732,
    "nearest_airport": "",
    "description": "Verified Location."
  },
  "hohe-torscharte": {
    "name": "Hohe Torscharte",
    "slug": "hohe-torscharte",
    "category": "MOUNTAIN_PASS",
    "region": "Alps",
    "country": "Europe",
    "lat": 47.4455259,
    "lng": 13.0261367,
    "nearest_airport": "SZG",
    "description": "Auto-imported MOUNTAIN_PASS. Altitude: 2292m"
  },
  "hohe-torscharte-977": {
    "name": "Hohe Torscharte",
    "slug": "hohe-torscharte-977",
    "category": "MOUNTAIN_PASS",
    "region": "Alps",
    "country": "",
    "lat": 47.4455259,
    "lng": 13.0261367,
    "nearest_airport": "",
    "description": "Verified Location."
  },
  "hohe-wacht": {
    "name": "Hohe Wacht",
    "slug": "hohe-wacht",
    "category": "SCENIC_POINT",
    "region": "Alps",
    "country": "Europe",
    "lat": 47.8625298,
    "lng": 8.3061322,
    "nearest_airport": "ZRH",
    "description": "Auto-imported SCENIC_POINT. Altitude: N/Am"
  },
  "hohe-warte": {
    "name": "Hohe Warte",
    "slug": "hohe-warte",
    "category": "SCENIC_POINT",
    "region": "Alps",
    "country": "Europe",
    "lat": 46.9118294,
    "lng": 11.4815375,
    "nearest_airport": "INN",
    "description": "Auto-imported SCENIC_POINT. Altitude: N/Am"
  },
  "hohegg": {
    "name": "Hohegg",
    "slug": "hohegg",
    "category": "SCENIC_POINT",
    "region": "Alps",
    "country": "Europe",
    "lat": 47.7177373,
    "lng": 10.2632799,
    "nearest_airport": "INN",
    "description": "Auto-imported SCENIC_POINT. Altitude: N/Am"
  },
  "hohegge": {
    "name": "Hohegge",
    "slug": "hohegge",
    "category": "SCENIC_POINT",
    "region": "Alps",
    "country": "Europe",
    "lat": 46.2817183,
    "lng": 7.8069359,
    "nearest_airport": "MXP",
    "description": "Auto-imported SCENIC_POINT. Altitude: N/Am"
  },
  "hohenfelsen": {
    "name": "Hohenfelsen",
    "slug": "hohenfelsen",
    "category": "SCENIC_POINT",
    "region": "Alps",
    "country": "Europe",
    "lat": 47.8059322,
    "lng": 8.0647033,
    "nearest_airport": "ZRH",
    "description": "Auto-imported SCENIC_POINT. Altitude: N/Am"
  },
  "hohenkrahen": {
    "name": "Hohenkrähen",
    "slug": "hohenkrahen",
    "category": "SCENIC_POINT",
    "region": "Alps",
    "country": "Europe",
    "lat": 47.7987057,
    "lng": 8.8202866,
    "nearest_airport": "ZRH",
    "description": "Auto-imported SCENIC_POINT. Altitude: N/Am"
  },
  "hohenstein": {
    "name": "Hohenstein",
    "slug": "hohenstein",
    "category": "SCENIC_POINT",
    "region": "Alps",
    "country": "Europe",
    "lat": 47.9851457,
    "lng": 15.4986346,
    "nearest_airport": "VIE",
    "description": "Auto-imported SCENIC_POINT. Altitude: N/Am"
  },
  "hohentwiel": {
    "name": "Hohentwiel",
    "slug": "hohentwiel",
    "category": "SCENIC_POINT",
    "region": "Alps",
    "country": "Europe",
    "lat": 47.7647523,
    "lng": 8.818945,
    "nearest_airport": "ZRH",
    "description": "Auto-imported SCENIC_POINT. Altitude: 686m"
  },
  "hohentwiel-364": {
    "name": "Hohentwiel",
    "slug": "hohentwiel-364",
    "category": "SCENIC_POINT",
    "region": "Alps",
    "country": "",
    "lat": 47.7647523,
    "lng": 8.818945,
    "nearest_airport": "",
    "description": "Verified Location."
  },
  "hohenwartscharte": {
    "name": "Hohenwartscharte",
    "slug": "hohenwartscharte",
    "category": "MOUNTAIN_PASS",
    "region": "Alps",
    "country": "Europe",
    "lat": 47.066204,
    "lng": 12.713145,
    "nearest_airport": "SZG",
    "description": "Auto-imported MOUNTAIN_PASS. Altitude: 3182m"
  },
  "hohenwartscharte-3115": {
    "name": "Hohenwartscharte",
    "slug": "hohenwartscharte-3115",
    "category": "MOUNTAIN_PASS",
    "region": "Alps",
    "country": "",
    "lat": 47.066204,
    "lng": 12.713145,
    "nearest_airport": "",
    "description": "Verified Location."
  },
  "hoher-gallin": {
    "name": "Hoher Gallin",
    "slug": "hoher-gallin",
    "category": "SCENIC_POINT",
    "region": "Alps",
    "country": "Europe",
    "lat": 46.6661105,
    "lng": 14.095161,
    "nearest_airport": "SZG",
    "description": "Auto-imported SCENIC_POINT. Altitude: N/Am"
  },
  "hoher-sarstein": {
    "name": "Hoher Sarstein",
    "slug": "hoher-sarstein",
    "category": "SCENIC_POINT",
    "region": "Alps",
    "country": "Europe",
    "lat": 47.6025985,
    "lng": 13.6990839,
    "nearest_airport": "SZG",
    "description": "Auto-imported SCENIC_POINT. Altitude: 1975m"
  },
  "hoher-sarstein-3161": {
    "name": "Hoher Sarstein",
    "slug": "hoher-sarstein-3161",
    "category": "SCENIC_POINT",
    "region": "Alps",
    "country": "",
    "lat": 47.6025985,
    "lng": 13.6990839,
    "nearest_airport": "",
    "description": "Verified Location."
  },
  "hoher-sattel": {
    "name": "Hoher Sattel",
    "slug": "hoher-sattel",
    "category": "MOUNTAIN_PASS",
    "region": "Alps",
    "country": "Europe",
    "lat": 47.3834505,
    "lng": 11.2044361,
    "nearest_airport": "INN",
    "description": "Auto-imported MOUNTAIN_PASS. Altitude: 1495m"
  },
  "hoher-sonnblick": {
    "name": "Hoher Sonnblick",
    "slug": "hoher-sonnblick",
    "category": "SCENIC_POINT",
    "region": "Alps",
    "country": "Europe",
    "lat": 47.0540959,
    "lng": 12.9574308,
    "nearest_airport": "SZG",
    "description": "Auto-imported SCENIC_POINT. Altitude: 3106m"
  },
  "hoher-sonnblick-539": {
    "name": "Hoher Sonnblick",
    "slug": "hoher-sonnblick-539",
    "category": "SCENIC_POINT",
    "region": "Alps",
    "country": "",
    "lat": 47.0540959,
    "lng": 12.9574308,
    "nearest_airport": "",
    "description": "Verified Location."
  },
  "hoher-stein": {
    "name": "Hoher Stein",
    "slug": "hoher-stein",
    "category": "SCENIC_POINT",
    "region": "Alps",
    "country": "Europe",
    "lat": 47.1156768,
    "lng": 10.9514907,
    "nearest_airport": "INN",
    "description": "Auto-imported SCENIC_POINT. Altitude: N/Am"
  },
  "hoher-ubergang": {
    "name": "Hoher Übergang",
    "slug": "hoher-ubergang",
    "category": "SCENIC_POINT",
    "region": "Alps",
    "country": "Europe",
    "lat": 47.2738386,
    "lng": 10.7494699,
    "nearest_airport": "INN",
    "description": "Auto-imported SCENIC_POINT. Altitude: N/Am"
  },
  "hohes-kanzele": {
    "name": "Hohes Känzele",
    "slug": "hohes-kanzele",
    "category": "SCENIC_POINT",
    "region": "Alps",
    "country": "Europe",
    "lat": 47.2382963,
    "lng": 9.6061806,
    "nearest_airport": "ZRH",
    "description": "Auto-imported SCENIC_POINT. Altitude: N/Am"
  },
  "hohes-kreuz": {
    "name": "Hohes Kreuz",
    "slug": "hohes-kreuz",
    "category": "SCENIC_POINT",
    "region": "Alps",
    "country": "Europe",
    "lat": 46.6264766,
    "lng": 14.0597073,
    "nearest_airport": "SZG",
    "description": "Auto-imported SCENIC_POINT. Altitude: N/Am"
  },
  "hohes-tor": {
    "name": "Hohes Tor",
    "slug": "hohes-tor",
    "category": "MOUNTAIN_PASS",
    "region": "Alps",
    "country": "Europe",
    "lat": 47.0243847,
    "lng": 12.5987022,
    "nearest_airport": "SZG",
    "description": "Auto-imported MOUNTAIN_PASS. Altitude: 2477m"
  },
  "hohes-tor-1064": {
    "name": "Hohes Tor",
    "slug": "hohes-tor-1064",
    "category": "MOUNTAIN_PASS",
    "region": "Alps",
    "country": "",
    "lat": 47.0243847,
    "lng": 12.5987022,
    "nearest_airport": "",
    "description": "Verified Location."
  },
  "hohes-torl": {
    "name": "Hohes Törl",
    "slug": "hohes-torl",
    "category": "MOUNTAIN_PASS",
    "region": "Alps",
    "country": "Europe",
    "lat": 46.7739625,
    "lng": 12.7975052,
    "nearest_airport": "SZG",
    "description": "Auto-imported MOUNTAIN_PASS. Altitude: 2233m"
  },
  "hohes-torl-694": {
    "name": "Hohes Törl",
    "slug": "hohes-torl-694",
    "category": "MOUNTAIN_PASS",
    "region": "Alps",
    "country": "",
    "lat": 46.7739625,
    "lng": 12.7975052,
    "nearest_airport": "",
    "description": "Verified Location."
  },
  "hoheweidwald": {
    "name": "Höheweidwald",
    "slug": "hoheweidwald",
    "category": "SCENIC_POINT",
    "region": "Alps",
    "country": "Europe",
    "lat": 46.7689823,
    "lng": 7.7008272,
    "nearest_airport": "ZRH",
    "description": "Auto-imported SCENIC_POINT. Altitude: N/Am"
  },
  "hohfels": {
    "name": "Hohfels",
    "slug": "hohfels",
    "category": "SCENIC_POINT",
    "region": "Alps",
    "country": "Europe",
    "lat": 47.8035487,
    "lng": 6.9150643,
    "nearest_airport": "ZRH",
    "description": "Auto-imported SCENIC_POINT. Altitude: N/Am"
  },
  "hohfelsen": {
    "name": "Hohfelsen",
    "slug": "hohfelsen",
    "category": "SCENIC_POINT",
    "region": "Alps",
    "country": "Europe",
    "lat": 47.8152499,
    "lng": 7.8348455,
    "nearest_airport": "ZRH",
    "description": "Auto-imported SCENIC_POINT. Altitude: 1268m"
  },
  "hohflue": {
    "name": "Hohflue",
    "slug": "hohflue",
    "category": "SCENIC_POINT",
    "region": "Alps",
    "country": "Europe",
    "lat": 47.6925677,
    "lng": 8.6170199,
    "nearest_airport": "ZRH",
    "description": "Auto-imported SCENIC_POINT. Altitude: 511.90m"
  },
  "hohkreuz": {
    "name": "Hohkreuz",
    "slug": "hohkreuz",
    "category": "SCENIC_POINT",
    "region": "Alps",
    "country": "Europe",
    "lat": 47.9661823,
    "lng": 9.6297896,
    "nearest_airport": "ZRH",
    "description": "Auto-imported SCENIC_POINT. Altitude: N/Am"
  },
  "hohliecht": {
    "name": "Hohliecht",
    "slug": "hohliecht",
    "category": "SCENIC_POINT",
    "region": "Alps",
    "country": "Europe",
    "lat": 46.2834199,
    "lng": 8.0672861,
    "nearest_airport": "MXP",
    "description": "Auto-imported SCENIC_POINT. Altitude: N/Am"
  },
  "hohlinden": {
    "name": "Hohlinden",
    "slug": "hohlinden",
    "category": "SCENIC_POINT",
    "region": "Alps",
    "country": "Europe",
    "lat": 46.7139255,
    "lng": 7.5884113,
    "nearest_airport": "ZRH",
    "description": "Auto-imported SCENIC_POINT. Altitude: N/Am"
  },
  "hohljoch": {
    "name": "Hohljoch",
    "slug": "hohljoch",
    "category": "MOUNTAIN_PASS",
    "region": "Alps",
    "country": "Europe",
    "lat": 47.3950926,
    "lng": 11.5236742,
    "nearest_airport": "INN",
    "description": "Auto-imported MOUNTAIN_PASS. Altitude: 1794m"
  },
  "hohljoch-3052": {
    "name": "Hohljoch",
    "slug": "hohljoch-3052",
    "category": "MOUNTAIN_PASS",
    "region": "Alps",
    "country": "",
    "lat": 47.3950926,
    "lng": 11.5236742,
    "nearest_airport": "",
    "description": "Verified Location."
  },
  "hohrenberg": {
    "name": "Höhrenberg",
    "slug": "hohrenberg",
    "category": "SCENIC_POINT",
    "region": "Alps",
    "country": "Europe",
    "lat": 47.7173049,
    "lng": 9.0678782,
    "nearest_airport": "ZRH",
    "description": "Auto-imported SCENIC_POINT. Altitude: N/Am"
  },
  "hohtal": {
    "name": "Höhtal",
    "slug": "hohtal",
    "category": "MOUNTAIN_PASS",
    "region": "Alps",
    "country": "Europe",
    "lat": 47.4863978,
    "lng": 8.3347783,
    "nearest_airport": "ZRH",
    "description": "Auto-imported MOUNTAIN_PASS. Altitude: N/Am"
  },
  "hohtschugge": {
    "name": "Hohtschugge",
    "slug": "hohtschugge",
    "category": "SCENIC_POINT",
    "region": "Alps",
    "country": "Europe",
    "lat": 46.2169027,
    "lng": 7.8592137,
    "nearest_airport": "MXP",
    "description": "Auto-imported SCENIC_POINT. Altitude: 1619m"
  },
  "hohturli": {
    "name": "Hohtürli",
    "slug": "hohturli",
    "category": "MOUNTAIN_PASS",
    "region": "Alps",
    "country": "Europe",
    "lat": 46.5111319,
    "lng": 7.77018,
    "nearest_airport": "ZRH",
    "description": "Auto-imported MOUNTAIN_PASS. Altitude: 2778m"
  },
  "hohturli-28": {
    "name": "Hohtürli",
    "slug": "hohturli-28",
    "category": "MOUNTAIN_PASS",
    "region": "Alps",
    "country": "",
    "lat": 46.5111319,
    "lng": 7.77018,
    "nearest_airport": "",
    "description": "Verified Location."
  },
  "hohturra": {
    "name": "Hohturrä",
    "slug": "hohturra",
    "category": "SCENIC_POINT",
    "region": "Alps",
    "country": "Europe",
    "lat": 46.7390502,
    "lng": 9.330398,
    "nearest_airport": "ZRH",
    "description": "Auto-imported SCENIC_POINT. Altitude: N/Am"
  },
  "hohwacht-reisiswil": {
    "name": "Hohwacht Reisiswil",
    "slug": "hohwacht-reisiswil",
    "category": "SCENIC_POINT",
    "region": "Alps",
    "country": "Europe",
    "lat": 47.1661239,
    "lng": 7.8328776,
    "nearest_airport": "ZRH",
    "description": "Auto-imported SCENIC_POINT. Altitude: 781m"
  },
  "hohwacht-reisiswil-86": {
    "name": "Hohwacht Reisiswil",
    "slug": "hohwacht-reisiswil-86",
    "category": "SCENIC_POINT",
    "region": "Alps",
    "country": "",
    "lat": 47.1661239,
    "lng": 7.8328776,
    "nearest_airport": "",
    "description": "Verified Location."
  },
  "hoi-turm": {
    "name": "Höi-Turm",
    "slug": "hoi-turm",
    "category": "SCENIC_POINT",
    "region": "Alps",
    "country": "Europe",
    "lat": 46.5928349,
    "lng": 7.653982,
    "nearest_airport": "ZRH",
    "description": "Auto-imported SCENIC_POINT. Altitude: N/Am"
  },
  "hojutz-tor": {
    "name": "Hojutz Tor",
    "slug": "hojutz-tor",
    "category": "MOUNTAIN_PASS",
    "region": "Alps",
    "country": "Europe",
    "lat": 46.5766584,
    "lng": 14.1269179,
    "nearest_airport": "SZG",
    "description": "Auto-imported MOUNTAIN_PASS. Altitude: 716m"
  },
  "holenwang-alp": {
    "name": "Holenwang (Alp)",
    "slug": "holenwang-alp",
    "category": "SCENIC_POINT",
    "region": "Alps",
    "country": "Europe",
    "lat": 46.646279,
    "lng": 8.0244299,
    "nearest_airport": "ZRH",
    "description": "Auto-imported SCENIC_POINT. Altitude: N/Am"
  },
  "hollenburger-thor": {
    "name": "Hollenburger Thor",
    "slug": "hollenburger-thor",
    "category": "SCENIC_POINT",
    "region": "Alps",
    "country": "Europe",
    "lat": 46.5651364,
    "lng": 14.1134721,
    "nearest_airport": "SZG",
    "description": "Auto-imported SCENIC_POINT. Altitude: N/Am"
  },
  "hollental-schrofen": {
    "name": "Höllental-Schrofen",
    "slug": "hollental-schrofen",
    "category": "MOUNTAIN_PASS",
    "region": "Alps",
    "country": "Europe",
    "lat": 47.5433621,
    "lng": 10.701023,
    "nearest_airport": "INN",
    "description": "Auto-imported MOUNTAIN_PASS. Altitude: N/Am"
  },
  "hollentalaussicht": {
    "name": "Höllentalaussicht",
    "slug": "hollentalaussicht",
    "category": "SCENIC_POINT",
    "region": "Alps",
    "country": "Europe",
    "lat": 47.72343,
    "lng": 15.754431,
    "nearest_airport": "VIE",
    "description": "Auto-imported SCENIC_POINT. Altitude: N/Am"
  },
  "hollerscharte": {
    "name": "Höllerscharte",
    "slug": "hollerscharte",
    "category": "MOUNTAIN_PASS",
    "region": "Alps",
    "country": "Europe",
    "lat": 46.7779396,
    "lng": 10.7234883,
    "nearest_airport": "INN",
    "description": "Auto-imported MOUNTAIN_PASS. Altitude: N/Am"
  },
  "hollochfelsen": {
    "name": "Höllochfelsen",
    "slug": "hollochfelsen",
    "category": "SCENIC_POINT",
    "region": "Alps",
    "country": "Europe",
    "lat": 47.8633242,
    "lng": 8.2550542,
    "nearest_airport": "ZRH",
    "description": "Auto-imported SCENIC_POINT. Altitude: N/Am"
  },
  "holly": {
    "name": "holly",
    "slug": "holly",
    "category": "SCENIC_POINT",
    "region": "Alps",
    "country": "Europe",
    "lat": 46.2487652,
    "lng": 11.2491781,
    "nearest_airport": "INN",
    "description": "Auto-imported SCENIC_POINT. Altitude: N/Am"
  },
  "holzfluh": {
    "name": "Holzfluh",
    "slug": "holzfluh",
    "category": "SCENIC_POINT",
    "region": "Alps",
    "country": "Europe",
    "lat": 47.3230655,
    "lng": 7.7011087,
    "nearest_airport": "ZRH",
    "description": "Auto-imported SCENIC_POINT. Altitude: N/Am"
  },
  "holzleitensattel": {
    "name": "Holzleitensattel",
    "slug": "holzleitensattel",
    "category": "MOUNTAIN_PASS",
    "region": "Alps",
    "country": "Europe",
    "lat": 47.3053428,
    "lng": 10.8934178,
    "nearest_airport": "INN",
    "description": "Auto-imported MOUNTAIN_PASS. Altitude: 1119m"
  },
  "holzleitensattel-3186": {
    "name": "Holzleitensattel",
    "slug": "holzleitensattel-3186",
    "category": "MOUNTAIN_PASS",
    "region": "Alps",
    "country": "",
    "lat": 47.3053428,
    "lng": 10.8934178,
    "nearest_airport": "",
    "description": "Verified Location."
  },
  "holzplattform-mischbachwasserfall": {
    "name": "Holzplattform Mischbachwasserfall",
    "slug": "holzplattform-mischbachwasserfall",
    "category": "SCENIC_POINT",
    "region": "Alps",
    "country": "Europe",
    "lat": 47.0676821,
    "lng": 11.2621211,
    "nearest_airport": "INN",
    "description": "Auto-imported SCENIC_POINT. Altitude: N/Am"
  },
  "hom": {
    "name": "Hom",
    "slug": "hom",
    "category": "SCENIC_POINT",
    "region": "Alps",
    "country": "Europe",
    "lat": 46.5193036,
    "lng": 14.3031804,
    "nearest_airport": "SZG",
    "description": "Auto-imported SCENIC_POINT. Altitude: N/Am"
  },
  "hombergturm": {
    "name": "Hombergturm",
    "slug": "hombergturm",
    "category": "SCENIC_POINT",
    "region": "Alps",
    "country": "Europe",
    "lat": 47.2762321,
    "lng": 8.184098,
    "nearest_airport": "ZRH",
    "description": "Auto-imported SCENIC_POINT. Altitude: N/Am"
  },
  "hombergturm-1145": {
    "name": "Hombergturm",
    "slug": "hombergturm-1145",
    "category": "SCENIC_POINT",
    "region": "Alps",
    "country": "",
    "lat": 47.2762321,
    "lng": 8.184098,
    "nearest_airport": "",
    "description": "Verified Location."
  },
  "honegga": {
    "name": "Honegga",
    "slug": "honegga",
    "category": "SCENIC_POINT",
    "region": "Alps",
    "country": "Europe",
    "lat": 46.3271334,
    "lng": 7.8930409,
    "nearest_airport": "MXP",
    "description": "Auto-imported SCENIC_POINT. Altitude: N/Am"
  },
  "hoperenweiher": {
    "name": "Hoperenweiher",
    "slug": "hoperenweiher",
    "category": "SCENIC_POINT",
    "region": "Alps",
    "country": "Europe",
    "lat": 47.3686701,
    "lng": 8.7053008,
    "nearest_airport": "ZRH",
    "description": "Auto-imported SCENIC_POINT. Altitude: N/Am"
  },
  "horbuelpass": {
    "name": "Horbüelpass",
    "slug": "horbuelpass",
    "category": "MOUNTAIN_PASS",
    "region": "Alps",
    "country": "Europe",
    "lat": 46.7372069,
    "lng": 7.3620996,
    "nearest_airport": "GVA",
    "description": "Auto-imported MOUNTAIN_PASS. Altitude: 1575m"
  },
  "horefellistockpass": {
    "name": "Horefellistockpass",
    "slug": "horefellistockpass",
    "category": "MOUNTAIN_PASS",
    "region": "Alps",
    "country": "Europe",
    "lat": 46.676156,
    "lng": 8.4915171,
    "nearest_airport": "ZRH",
    "description": "Auto-imported MOUNTAIN_PASS. Altitude: 2581m"
  },
  "horefellistockpass-1098": {
    "name": "Horefellistockpass",
    "slug": "horefellistockpass-1098",
    "category": "MOUNTAIN_PASS",
    "region": "Alps",
    "country": "",
    "lat": 46.676156,
    "lng": 8.4915171,
    "nearest_airport": "",
    "description": "Verified Location."
  },
  "horn": {
    "name": "Horn",
    "slug": "horn",
    "category": "SCENIC_POINT",
    "region": "Alps",
    "country": "Europe",
    "lat": 47.3648324,
    "lng": 7.8561297,
    "nearest_airport": "ZRH",
    "description": "Auto-imported SCENIC_POINT. Altitude: N/Am"
  },
  "hornbachjoch": {
    "name": "Hornbachjoch",
    "slug": "hornbachjoch",
    "category": "MOUNTAIN_PASS",
    "region": "Alps",
    "country": "Europe",
    "lat": 47.3571027,
    "lng": 10.386498,
    "nearest_airport": "INN",
    "description": "Auto-imported MOUNTAIN_PASS. Altitude: N/Am"
  },
  "hornbuck": {
    "name": "Hornbuck",
    "slug": "hornbuck",
    "category": "SCENIC_POINT",
    "region": "Alps",
    "country": "Europe",
    "lat": 47.6292629,
    "lng": 8.4451188,
    "nearest_airport": "ZRH",
    "description": "Auto-imported SCENIC_POINT. Altitude: N/Am"
  },
  "horndli": {
    "name": "Hörndli",
    "slug": "horndli",
    "category": "SCENIC_POINT",
    "region": "Alps",
    "country": "Europe",
    "lat": 47.576411,
    "lng": 8.3002359,
    "nearest_airport": "ZRH",
    "description": "Auto-imported SCENIC_POINT. Altitude: N/Am"
  },
  "horndljoch-giogo-del-cornetto": {
    "name": "Hörndljoch - Giogo del Cornetto",
    "slug": "horndljoch-giogo-del-cornetto",
    "category": "MOUNTAIN_PASS",
    "region": "Alps",
    "country": "Europe",
    "lat": 47.047257,
    "lng": 12.0148457,
    "nearest_airport": "INN",
    "description": "Auto-imported MOUNTAIN_PASS. Altitude: 2553m"
  },
  "horndljoch-giogo-del-cornetto-470": {
    "name": "Hörndljoch - Giogo del Cornetto",
    "slug": "horndljoch-giogo-del-cornetto-470",
    "category": "MOUNTAIN_PASS",
    "region": "Alps",
    "country": "",
    "lat": 47.047257,
    "lng": 12.0148457,
    "nearest_airport": "",
    "description": "Verified Location."
  },
  "hornfelsen": {
    "name": "Hornfelsen",
    "slug": "hornfelsen",
    "category": "SCENIC_POINT",
    "region": "Alps",
    "country": "Europe",
    "lat": 47.5587519,
    "lng": 7.6463735,
    "nearest_airport": "ZRH",
    "description": "Auto-imported SCENIC_POINT. Altitude: N/Am"
  },
  "hornle": {
    "name": "Hörnle",
    "slug": "hornle",
    "category": "SCENIC_POINT",
    "region": "Alps",
    "country": "Europe",
    "lat": 46.8486726,
    "lng": 10.9065657,
    "nearest_airport": "INN",
    "description": "Auto-imported SCENIC_POINT. Altitude: 2406m"
  },
  "hornlepass": {
    "name": "Hörnlepass",
    "slug": "hornlepass",
    "category": "MOUNTAIN_PASS",
    "region": "Alps",
    "country": "Europe",
    "lat": 47.3935713,
    "lng": 10.1654274,
    "nearest_airport": "INN",
    "description": "Auto-imported MOUNTAIN_PASS. Altitude: N/Am"
  },
  "hornlesee": {
    "name": "Hörnlesee",
    "slug": "hornlesee",
    "category": "SCENIC_POINT",
    "region": "Alps",
    "country": "Europe",
    "lat": 47.5466672,
    "lng": 10.3920654,
    "nearest_airport": "INN",
    "description": "Auto-imported SCENIC_POINT. Altitude: N/Am"
  },
  "hornli": {
    "name": "Hörnli",
    "slug": "hornli",
    "category": "SCENIC_POINT",
    "region": "Alps",
    "country": "Europe",
    "lat": 47.370923,
    "lng": 8.9417356,
    "nearest_airport": "ZRH",
    "description": "Auto-imported SCENIC_POINT. Altitude: 1133m"
  },
  "hornscharte": {
    "name": "Hornscharte",
    "slug": "hornscharte",
    "category": "MOUNTAIN_PASS",
    "region": "Alps",
    "country": "Europe",
    "lat": 46.9720652,
    "lng": 12.7833842,
    "nearest_airport": "SZG",
    "description": "Auto-imported MOUNTAIN_PASS. Altitude: 2958m"
  },
  "hornscharte-1645": {
    "name": "Hornscharte",
    "slug": "hornscharte-1645",
    "category": "MOUNTAIN_PASS",
    "region": "Alps",
    "country": "",
    "lat": 46.9720652,
    "lng": 12.7833842,
    "nearest_airport": "",
    "description": "Verified Location."
  },
  "hornspitz": {
    "name": "Hornspitz",
    "slug": "hornspitz",
    "category": "SCENIC_POINT",
    "region": "Alps",
    "country": "Europe",
    "lat": 47.5681202,
    "lng": 13.478249,
    "nearest_airport": "SZG",
    "description": "Auto-imported SCENIC_POINT. Altitude: 1433m"
  },
  "hornturm": {
    "name": "Hornturm",
    "slug": "hornturm",
    "category": "SCENIC_POINT",
    "region": "Alps",
    "country": "Europe",
    "lat": 46.8745908,
    "lng": 14.4728844,
    "nearest_airport": "SZG",
    "description": "Auto-imported SCENIC_POINT. Altitude: N/Am"
  },
  "hornusser": {
    "name": "Hornusser",
    "slug": "hornusser",
    "category": "SCENIC_POINT",
    "region": "Alps",
    "country": "Europe",
    "lat": 46.911793,
    "lng": 7.7909852,
    "nearest_airport": "ZRH",
    "description": "Auto-imported SCENIC_POINT. Altitude: N/Am"
  },
  "horstig-ruh": {
    "name": "Horstig-Ruh",
    "slug": "horstig-ruh",
    "category": "SCENIC_POINT",
    "region": "Alps",
    "country": "Europe",
    "lat": 47.456904,
    "lng": 13.8174353,
    "nearest_airport": "SZG",
    "description": "Auto-imported SCENIC_POINT. Altitude: N/Am"
  },
  "hortenbergkreuz-croce-del-monte-tondo": {
    "name": "Hörtenbergkreuz - Croce del Monte Tondo",
    "slug": "hortenbergkreuz-croce-del-monte-tondo",
    "category": "SCENIC_POINT",
    "region": "Alps",
    "country": "Europe",
    "lat": 46.5116283,
    "lng": 11.3716634,
    "nearest_airport": "INN",
    "description": "Auto-imported SCENIC_POINT. Altitude: N/Am"
  },
  "hortlahner-scharte": {
    "name": "Hörtlahner Scharte",
    "slug": "hortlahner-scharte",
    "category": "MOUNTAIN_PASS",
    "region": "Alps",
    "country": "Europe",
    "lat": 46.7766499,
    "lng": 11.4873103,
    "nearest_airport": "INN",
    "description": "Auto-imported MOUNTAIN_PASS. Altitude: N/Am"
  },
  "hoschupfe": {
    "name": "Hoschüpfe",
    "slug": "hoschupfe",
    "category": "SCENIC_POINT",
    "region": "Alps",
    "country": "Europe",
    "lat": 46.6380186,
    "lng": 7.6031824,
    "nearest_airport": "ZRH",
    "description": "Auto-imported SCENIC_POINT. Altitude: N/Am"
  },
  "hotel-alvier": {
    "name": "Hotel Alvier",
    "slug": "hotel-alvier",
    "category": "SCENIC_POINT",
    "region": "Alps",
    "country": "Europe",
    "lat": 47.0903691,
    "lng": 9.4615887,
    "nearest_airport": "ZRH",
    "description": "Auto-imported SCENIC_POINT. Altitude: N/Am"
  },
  "hotel-eremo-gaudio": {
    "name": "Hotel Eremo Gaudio",
    "slug": "hotel-eremo-gaudio",
    "category": "SCENIC_POINT",
    "region": "Alps",
    "country": "Europe",
    "lat": 46.0071179,
    "lng": 9.2906715,
    "nearest_airport": "MXP",
    "description": "Auto-imported SCENIC_POINT. Altitude: N/Am"
  },
  "hottersattel": {
    "name": "Hottersattel",
    "slug": "hottersattel",
    "category": "MOUNTAIN_PASS",
    "region": "Alps",
    "country": "Europe",
    "lat": 47.3740771,
    "lng": 9.8282724,
    "nearest_airport": "ZRH",
    "description": "Auto-imported MOUNTAIN_PASS. Altitude: 1250m"
  },
  "howacht": {
    "name": "Howacht",
    "slug": "howacht",
    "category": "SCENIC_POINT",
    "region": "Alps",
    "country": "Europe",
    "lat": 47.3759624,
    "lng": 7.6735774,
    "nearest_airport": "ZRH",
    "description": "Auto-imported SCENIC_POINT. Altitude: N/Am"
  },
  "hoyers-tannle": {
    "name": "Hoyers Tännle",
    "slug": "hoyers-tannle",
    "category": "SCENIC_POINT",
    "region": "Alps",
    "country": "Europe",
    "lat": 47.8022969,
    "lng": 7.6438009,
    "nearest_airport": "ZRH",
    "description": "Auto-imported SCENIC_POINT. Altitude: N/Am"
  }
}