{
  "il-becco": {
    "name": "Il Becco",
    "slug": "il-becco",
    "category": "SCENIC_POINT",
    "region": "Alps",
    "country": "Europe",
    "lat": 45.9002151,
    "lng": 9.6854417,
    "nearest_airport": "MXP",
    "description": "Si tratta di una passerella di 16 metri a strapiombo, con vista sulla Val Parina e sul monte Ortighera."
  },
  "il-belvedere-di-casimiro": {
    "name": "Il belvedere di Casimiro",
    "slug": "il-belvedere-di-casimiro",
    "category": "SCENIC_POINT",
    "region": "Alps",
    "country": "Europe",
    "lat": 45.1524341,
    "lng": 8.0470522,
    "nearest_airport": "TRN",
    "description": "Auto-imported SCENIC_POINT. Altitude: N/Am"
  },
  "il-colletto": {
    "name": "Il Colletto",
    "slug": "il-colletto",
    "category": "MOUNTAIN_PASS",
    "region": "Alps",
    "country": "Europe",
    "lat": 44.3303706,
    "lng": 7.800578,
    "nearest_airport": "NCE",
    "description": "Auto-imported MOUNTAIN_PASS. Altitude: N/Am"
  },
  "il-colletto-1451": {
    "name": "Il Colletto",
    "slug": "il-colletto-1451",
    "category": "MOUNTAIN_PASS",
    "region": "Alps",
    "country": "",
    "lat": 44.4492489,
    "lng": 6.9510894,
    "nearest_airport": "",
    "description": "Verified Location."
  },
  "il-costone": {
    "name": "Il Costone",
    "slug": "il-costone",
    "category": "SCENIC_POINT",
    "region": "Alps",
    "country": "Europe",
    "lat": 45.7785596,
    "lng": 9.7164043,
    "nearest_airport": "MXP",
    "description": "Auto-imported SCENIC_POINT. Altitude: 1195m"
  },
  "il-croset": {
    "name": "Il Croset",
    "slug": "il-croset",
    "category": "MOUNTAIN_PASS",
    "region": "Alps",
    "country": "Europe",
    "lat": 45.9573668,
    "lng": 11.9063761,
    "nearest_airport": "VCE",
    "description": "Auto-imported MOUNTAIN_PASS. Altitude: 1050m"
  },
  "il-forcellino-di-ramello": {
    "name": "Il Forcellino di Ramello",
    "slug": "il-forcellino-di-ramello",
    "category": "MOUNTAIN_PASS",
    "region": "Alps",
    "country": "Europe",
    "lat": 45.8658512,
    "lng": 10.0689451,
    "nearest_airport": "MXP",
    "description": "Auto-imported MOUNTAIN_PASS. Altitude: 1303m"
  },
  "il-muro-nascosto": {
    "name": "Il Muro Nascosto",
    "slug": "il-muro-nascosto",
    "category": "SCENIC_POINT",
    "region": "Alps",
    "country": "Europe",
    "lat": 45.8687288,
    "lng": 9.38392,
    "nearest_airport": "MXP",
    "description": "Auto-imported SCENIC_POINT. Altitude: N/Am"
  },
  "il-paradisino": {
    "name": "Il Paradisino",
    "slug": "il-paradisino",
    "category": "SCENIC_POINT",
    "region": "Alps",
    "country": "Europe",
    "lat": 43.7328074,
    "lng": 11.5595054,
    "nearest_airport": "VCE",
    "description": "Auto-imported SCENIC_POINT. Altitude: N/Am"
  },
  "il-partigiano": {
    "name": "Il Partigiano",
    "slug": "il-partigiano",
    "category": "MOUNTAIN_PASS",
    "region": "Alps",
    "country": "Europe",
    "lat": 44.0914867,
    "lng": 11.0170978,
    "nearest_airport": "VCE",
    "description": "Auto-imported MOUNTAIN_PASS. Altitude: N/Am"
  },
  "il-pas": {
    "name": "Il Pas",
    "slug": "il-pas",
    "category": "MOUNTAIN_PASS",
    "region": "Alps",
    "country": "Europe",
    "lat": 44.2259224,
    "lng": 7.8327757,
    "nearest_airport": "NCE",
    "description": "Auto-imported MOUNTAIN_PASS. Altitude: 1080m"
  },
  "il-passetto": {
    "name": "Il Passetto",
    "slug": "il-passetto",
    "category": "MOUNTAIN_PASS",
    "region": "Alps",
    "country": "Europe",
    "lat": 44.1168507,
    "lng": 10.5896537,
    "nearest_airport": "VCE",
    "description": "Auto-imported MOUNTAIN_PASS. Altitude: 1850m"
  },
  "il-passone": {
    "name": "Il Passone",
    "slug": "il-passone",
    "category": "MOUNTAIN_PASS",
    "region": "Alps",
    "country": "Europe",
    "lat": 44.2693941,
    "lng": 10.4220631,
    "nearest_airport": "MXP",
    "description": "Auto-imported MOUNTAIN_PASS. Altitude: 1857m"
  },
  "il-poggio": {
    "name": "Il Poggio",
    "slug": "il-poggio",
    "category": "SCENIC_POINT",
    "region": "Alps",
    "country": "Europe",
    "lat": 44.4732606,
    "lng": 9.817035,
    "nearest_airport": "MXP",
    "description": "Auto-imported SCENIC_POINT. Altitude: 1011m"
  },
  "il-portellin": {
    "name": "Il Portellin",
    "slug": "il-portellin",
    "category": "MOUNTAIN_PASS",
    "region": "Alps",
    "country": "Europe",
    "lat": 46.3190912,
    "lng": 12.4042821,
    "nearest_airport": "VCE",
    "description": "Auto-imported MOUNTAIN_PASS. Altitude: 2250m"
  },
  "il-portellin-579": {
    "name": "Il Portellin",
    "slug": "il-portellin-579",
    "category": "MOUNTAIN_PASS",
    "region": "Alps",
    "country": "",
    "lat": 46.3190912,
    "lng": 12.4042821,
    "nearest_airport": "",
    "description": "Verified Location."
  },
  "il-tetto-del-mondo": {
    "name": "Il Tetto del Mondo",
    "slug": "il-tetto-del-mondo",
    "category": "SCENIC_POINT",
    "region": "Alps",
    "country": "Europe",
    "lat": 43.9616404,
    "lng": 12.7981448,
    "nearest_airport": "VCE",
    "description": "Auto-imported SCENIC_POINT. Altitude: N/Am"
  },
  "il-valico": {
    "name": "Il Valico",
    "slug": "il-valico",
    "category": "MOUNTAIN_PASS",
    "region": "Alps",
    "country": "Europe",
    "lat": 44.0881737,
    "lng": 10.9746984,
    "nearest_airport": "VCE",
    "description": "Auto-imported MOUNTAIN_PASS. Altitude: 1042m"
  },
  "ilkahohe": {
    "name": "Ilkahöhe",
    "slug": "ilkahohe",
    "category": "SCENIC_POINT",
    "region": "Alps",
    "country": "Europe",
    "lat": 47.9020195,
    "lng": 11.2497963,
    "nearest_airport": "MUC",
    "description": "Auto-imported SCENIC_POINT. Altitude: 726m"
  },
  "ilkahohe-689": {
    "name": "Ilkahöhe",
    "slug": "ilkahohe-689",
    "category": "SCENIC_POINT",
    "region": "Alps",
    "country": "",
    "lat": 47.9020195,
    "lng": 11.2497963,
    "nearest_airport": "",
    "description": "Verified Location."
  },
  "illerwand": {
    "name": "Illerwand",
    "slug": "illerwand",
    "category": "SCENIC_POINT",
    "region": "Alps",
    "country": "Europe",
    "lat": 47.7622424,
    "lng": 10.3108505,
    "nearest_airport": "INN",
    "description": "Auto-imported SCENIC_POINT. Altitude: N/Am"
  },
  "ilovnjak": {
    "name": "Ilovnjak",
    "slug": "ilovnjak",
    "category": "SCENIC_POINT",
    "region": "Alps",
    "country": "Europe",
    "lat": 45.4465595,
    "lng": 14.520149,
    "nearest_airport": "VCE",
    "description": "Auto-imported SCENIC_POINT. Altitude: N/Am"
  },
  "ilse-rast": {
    "name": "Ilse-Rast",
    "slug": "ilse-rast",
    "category": "SCENIC_POINT",
    "region": "Alps",
    "country": "Europe",
    "lat": 47.7061258,
    "lng": 15.8847027,
    "nearest_airport": "VIE",
    "description": "Auto-imported SCENIC_POINT. Altitude: 971m"
  }
}