{
  "joch-an-der-napfspitze": {
    "name": "Joch an der Napfspitze",
    "slug": "joch-an-der-napfspitze",
    "category": "MOUNTAIN_PASS",
    "region": "Alps",
    "country": "Europe",
    "lat": 46.9417484,
    "lng": 11.7425473,
    "nearest_airport": "INN",
    "description": "Auto-imported MOUNTAIN_PASS. Altitude: 2855m"
  },
  "joch-an-der-napfspitze-3618": {
    "name": "Joch an der Napfspitze",
    "slug": "joch-an-der-napfspitze-3618",
    "category": "MOUNTAIN_PASS",
    "region": "Alps",
    "country": "",
    "lat": 46.9417484,
    "lng": 11.7425473,
    "nearest_airport": "",
    "description": "Verified Location."
  },
  "jochel": {
    "name": "Jöchel",
    "slug": "jochel",
    "category": "MOUNTAIN_PASS",
    "region": "Alps",
    "country": "Europe",
    "lat": 47.474771,
    "lng": 11.3628685,
    "nearest_airport": "INN",
    "description": "Auto-imported MOUNTAIN_PASS. Altitude: 1787m"
  },
  "jochgrimm-passo-oclini": {
    "name": "Jochgrimm - Passo Oclini",
    "slug": "jochgrimm-passo-oclini",
    "category": "MOUNTAIN_PASS",
    "region": "Alps",
    "country": "Europe",
    "lat": 46.3473164,
    "lng": 11.4515353,
    "nearest_airport": "INN",
    "description": "Auto-imported MOUNTAIN_PASS. Altitude: 1989m"
  },
  "jochgrimm-passo-oclini-1704": {
    "name": "Jochgrimm - Passo Oclini",
    "slug": "jochgrimm-passo-oclini-1704",
    "category": "MOUNTAIN_PASS",
    "region": "Alps",
    "country": "",
    "lat": 46.3473164,
    "lng": 11.4515353,
    "nearest_airport": "",
    "description": "Verified Location."
  },
  "jochli": {
    "name": "Jöchli",
    "slug": "jochli",
    "category": "MOUNTAIN_PASS",
    "region": "Alps",
    "country": "Europe",
    "lat": 46.9852783,
    "lng": 10.0852274,
    "nearest_airport": "INN",
    "description": "Auto-imported MOUNTAIN_PASS. Altitude: 2405m"
  },
  "jochli-769": {
    "name": "Jöchli",
    "slug": "jochli-769",
    "category": "MOUNTAIN_PASS",
    "region": "Alps",
    "country": "",
    "lat": 46.9852783,
    "lng": 10.0852274,
    "nearest_airport": "",
    "description": "Verified Location."
  },
  "jochstein": {
    "name": "Jochstein",
    "slug": "jochstein",
    "category": "SCENIC_POINT",
    "region": "Alps",
    "country": "Europe",
    "lat": 47.6820537,
    "lng": 12.1342347,
    "nearest_airport": "SZG",
    "description": "Auto-imported SCENIC_POINT. Altitude: N/Am"
  },
  "jochwand-warte": {
    "name": "Jochwand-Warte",
    "slug": "jochwand-warte",
    "category": "SCENIC_POINT",
    "region": "Alps",
    "country": "Europe",
    "lat": 47.6458536,
    "lng": 13.5945516,
    "nearest_airport": "SZG",
    "description": "Auto-imported SCENIC_POINT. Altitude: N/Am"
  },
  "joeljoch": {
    "name": "Joeljoch",
    "slug": "joeljoch",
    "category": "MOUNTAIN_PASS",
    "region": "Alps",
    "country": "Europe",
    "lat": 46.6228991,
    "lng": 11.8663494,
    "nearest_airport": "INN",
    "description": "Auto-imported MOUNTAIN_PASS. Altitude: 1725m"
  },
  "johannesscharte-forcella-giovanni": {
    "name": "Johannesscharte - Forcella Giovanni",
    "slug": "johannesscharte-forcella-giovanni",
    "category": "MOUNTAIN_PASS",
    "region": "Alps",
    "country": "Europe",
    "lat": 46.7437576,
    "lng": 11.0237402,
    "nearest_airport": "INN",
    "description": "Auto-imported MOUNTAIN_PASS. Altitude: 2871m"
  },
  "johannesscharte-forcella-giovanni-3077": {
    "name": "Johannesscharte - Forcella Giovanni",
    "slug": "johannesscharte-forcella-giovanni-3077",
    "category": "MOUNTAIN_PASS",
    "region": "Alps",
    "country": "",
    "lat": 46.7437576,
    "lng": 11.0237402,
    "nearest_airport": "",
    "description": "Verified Location."
  },
  "johannisberg": {
    "name": "Johannisberg",
    "slug": "johannisberg",
    "category": "SCENIC_POINT",
    "region": "Alps",
    "country": "Europe",
    "lat": 47.2331199,
    "lng": 8.845604,
    "nearest_airport": "ZRH",
    "description": "Auto-imported SCENIC_POINT. Altitude: N/Am"
  },
  "jollersattel": {
    "name": "Jöllersattel",
    "slug": "jollersattel",
    "category": "MOUNTAIN_PASS",
    "region": "Alps",
    "country": "Europe",
    "lat": 47.2586003,
    "lng": 15.298373,
    "nearest_airport": "VIE",
    "description": "Auto-imported MOUNTAIN_PASS. Altitude: N/Am"
  },
  "jorifluelafurgga": {
    "name": "Jöriflüelafurgga",
    "slug": "jorifluelafurgga",
    "category": "MOUNTAIN_PASS",
    "region": "Alps",
    "country": "Europe",
    "lat": 46.7829599,
    "lng": 9.9558637,
    "nearest_airport": "INN",
    "description": "Auto-imported MOUNTAIN_PASS. Altitude: 2723m"
  },
  "jorifluelafurgga-1434": {
    "name": "Jöriflüelafurgga",
    "slug": "jorifluelafurgga-1434",
    "category": "MOUNTAIN_PASS",
    "region": "Alps",
    "country": "",
    "lat": 46.7829599,
    "lng": 9.9558637,
    "nearest_airport": "",
    "description": "Verified Location."
  },
  "josef-pavillon": {
    "name": "Josef - Pavillon",
    "slug": "josef-pavillon",
    "category": "SCENIC_POINT",
    "region": "Alps",
    "country": "Europe",
    "lat": 47.5823738,
    "lng": 12.7093926,
    "nearest_airport": "SZG",
    "description": "Auto-imported SCENIC_POINT. Altitude: N/Am"
  },
  "josefsberg": {
    "name": "Josefsberg",
    "slug": "josefsberg",
    "category": "MOUNTAIN_PASS",
    "region": "Alps",
    "country": "Europe",
    "lat": 47.8453081,
    "lng": 15.3142303,
    "nearest_airport": "VIE",
    "description": "Auto-imported MOUNTAIN_PASS. Altitude: 1012m"
  },
  "josefsberg-11": {
    "name": "Josefsberg",
    "slug": "josefsberg-11",
    "category": "MOUNTAIN_PASS",
    "region": "Alps",
    "country": "",
    "lat": 47.8453081,
    "lng": 15.3142303,
    "nearest_airport": "",
    "description": "Verified Location."
  },
  "josefsgutsch": {
    "name": "Josefsgütsch",
    "slug": "josefsgutsch",
    "category": "SCENIC_POINT",
    "region": "Alps",
    "country": "Europe",
    "lat": 47.206348,
    "lng": 8.5687405,
    "nearest_airport": "ZRH",
    "description": "Auto-imported SCENIC_POINT. Altitude: N/Am"
  },
  "josefshohe": {
    "name": "Josefshöhe",
    "slug": "josefshohe",
    "category": "SCENIC_POINT",
    "region": "Alps",
    "country": "Europe",
    "lat": 47.4291978,
    "lng": 9.9002481,
    "nearest_airport": "ZRH",
    "description": "Auto-imported SCENIC_POINT. Altitude: N/Am"
  },
  "josefswarte": {
    "name": "Josefswarte",
    "slug": "josefswarte",
    "category": "SCENIC_POINT",
    "region": "Alps",
    "country": "Europe",
    "lat": 47.8752904,
    "lng": 14.1419968,
    "nearest_airport": "SZG",
    "description": "Auto-imported SCENIC_POINT. Altitude: N/Am"
  },
  "jouf-de-pordoi-passo-pordoi-pordoijoch": {
    "name": "Jouf de Pordoi - Passo Pordoi - Pordoijoch",
    "slug": "jouf-de-pordoi-passo-pordoi-pordoijoch",
    "category": "MOUNTAIN_PASS",
    "region": "Alps",
    "country": "Europe",
    "lat": 46.4875517,
    "lng": 11.8121935,
    "nearest_airport": "INN",
    "description": "Auto-imported MOUNTAIN_PASS. Altitude: 2239m"
  },
  "jouf-de-pordoi-passo-pordoi-pordoijoch-3427": {
    "name": "Jouf de Pordoi - Passo Pordoi - Pordoijoch",
    "slug": "jouf-de-pordoi-passo-pordoi-pordoijoch-3427",
    "category": "MOUNTAIN_PASS",
    "region": "Alps",
    "country": "",
    "lat": 46.4875517,
    "lng": 11.8121935,
    "nearest_airport": "",
    "description": "Verified Location."
  },
  "jouf-de-sela-passo-sella-sellajoch": {
    "name": "Jouf de Sela - Passo Sella - Sellajoch",
    "slug": "jouf-de-sela-passo-sella-sellajoch",
    "category": "MOUNTAIN_PASS",
    "region": "Alps",
    "country": "Europe",
    "lat": 46.5080689,
    "lng": 11.7673265,
    "nearest_airport": "INN",
    "description": "Auto-imported MOUNTAIN_PASS. Altitude: 2240m"
  },
  "jouf-de-sela-passo-sella-sellajoch-148": {
    "name": "Jouf de Sela - Passo Sella - Sellajoch",
    "slug": "jouf-de-sela-passo-sella-sellajoch-148",
    "category": "MOUNTAIN_PASS",
    "region": "Alps",
    "country": "",
    "lat": 46.5080689,
    "lng": 11.7673265,
    "nearest_airport": "",
    "description": "Verified Location."
  }
}