{
  "kienberg": {
    "name": "Kienberg",
    "slug": "kienberg",
    "category": "SCENIC_POINT",
    "region": "Alps",
    "country": "Europe",
    "lat": 47.3962929,
    "lng": 11.7394578,
    "nearest_airport": "INN",
    "description": "Auto-imported SCENIC_POINT. Altitude: 1540m"
  },
  "kiener-scharte": {
    "name": "Kiener Scharte",
    "slug": "kiener-scharte",
    "category": "MOUNTAIN_PASS",
    "region": "Alps",
    "country": "Europe",
    "lat": 46.8383509,
    "lng": 11.6895941,
    "nearest_airport": "INN",
    "description": "Auto-imported MOUNTAIN_PASS. Altitude: 1741m"
  },
  "kincl": {
    "name": "Kincl",
    "slug": "kincl",
    "category": "SCENIC_POINT",
    "region": "Alps",
    "country": "Europe",
    "lat": 46.0711481,
    "lng": 15.1997864,
    "nearest_airport": "VCE",
    "description": "Auto-imported SCENIC_POINT. Altitude: 630m"
  },
  "kinderalm": {
    "name": "Kinderalm",
    "slug": "kinderalm",
    "category": "SCENIC_POINT",
    "region": "Alps",
    "country": "Europe",
    "lat": 47.3435534,
    "lng": 13.157464,
    "nearest_airport": "SZG",
    "description": "Auto-imported SCENIC_POINT. Altitude: N/Am"
  },
  "kipisce": {
    "name": "Kipišće",
    "slug": "kipisce",
    "category": "MOUNTAIN_PASS",
    "region": "Alps",
    "country": "Europe",
    "lat": 46.1175543,
    "lng": 16.3551452,
    "nearest_airport": "VIE",
    "description": "Auto-imported MOUNTAIN_PASS. Altitude: 353m"
  },
  "kirchbergjoch-giogo-di-montechiesa": {
    "name": "Kirchbergjoch - Giogo di Montechiesa",
    "slug": "kirchbergjoch-giogo-di-montechiesa",
    "category": "MOUNTAIN_PASS",
    "region": "Alps",
    "country": "Europe",
    "lat": 46.4538492,
    "lng": 10.8191757,
    "nearest_airport": "INN",
    "description": "Auto-imported MOUNTAIN_PASS. Altitude: 2746m"
  },
  "kirchbergjoch-giogo-di-montechiesa-1620": {
    "name": "Kirchbergjoch - Giogo di Montechiesa",
    "slug": "kirchbergjoch-giogo-di-montechiesa-1620",
    "category": "MOUNTAIN_PASS",
    "region": "Alps",
    "country": "",
    "lat": 46.4538492,
    "lng": 10.8191757,
    "nearest_airport": "",
    "description": "Verified Location."
  },
  "kirchbergkopfl": {
    "name": "Kirchbergköpfl",
    "slug": "kirchbergkopfl",
    "category": "SCENIC_POINT",
    "region": "Alps",
    "country": "Europe",
    "lat": 47.2814102,
    "lng": 11.3023075,
    "nearest_airport": "INN",
    "description": "Auto-imported SCENIC_POINT. Altitude: 1943m"
  },
  "kirchblick": {
    "name": "Kirchblick",
    "slug": "kirchblick",
    "category": "SCENIC_POINT",
    "region": "Alps",
    "country": "Europe",
    "lat": 47.635121,
    "lng": 10.3854794,
    "nearest_airport": "INN",
    "description": "Sitzbänke mit Blick auf die Kirche und das Wildwasser-Tretbecken"
  },
  "kirchblick-mit-reiteralm": {
    "name": "Kirchblick mit Reiteralm",
    "slug": "kirchblick-mit-reiteralm",
    "category": "SCENIC_POINT",
    "region": "Alps",
    "country": "Europe",
    "lat": 47.6073549,
    "lng": 12.8969578,
    "nearest_airport": "SZG",
    "description": "Auto-imported SCENIC_POINT. Altitude: N/Am"
  },
  "kirche-enge": {
    "name": "Kirche Enge",
    "slug": "kirche-enge",
    "category": "SCENIC_POINT",
    "region": "Alps",
    "country": "Europe",
    "lat": 47.362471,
    "lng": 8.5300135,
    "nearest_airport": "ZRH",
    "description": "Auto-imported SCENIC_POINT. Altitude: N/Am"
  },
  "kirche-und-grossglockner": {
    "name": "Kirche und Großglockner",
    "slug": "kirche-und-grossglockner",
    "category": "SCENIC_POINT",
    "region": "Alps",
    "country": "Europe",
    "lat": 47.039012,
    "lng": 12.8439941,
    "nearest_airport": "SZG",
    "description": "Auto-imported SCENIC_POINT. Altitude: N/Am"
  },
  "kirchendachsattel": {
    "name": "Kirchendachsattel",
    "slug": "kirchendachsattel",
    "category": "MOUNTAIN_PASS",
    "region": "Alps",
    "country": "Europe",
    "lat": 47.4389516,
    "lng": 10.4727507,
    "nearest_airport": "INN",
    "description": "Auto-imported MOUNTAIN_PASS. Altitude: 1926m"
  },
  "kirchenhugel": {
    "name": "Kirchenhügel",
    "slug": "kirchenhugel",
    "category": "SCENIC_POINT",
    "region": "Alps",
    "country": "Europe",
    "lat": 47.2546032,
    "lng": 8.6938684,
    "nearest_airport": "ZRH",
    "description": "Auto-imported SCENIC_POINT. Altitude: N/Am"
  },
  "kirchfeld": {
    "name": "Kirchfeld",
    "slug": "kirchfeld",
    "category": "SCENIC_POINT",
    "region": "Alps",
    "country": "Europe",
    "lat": 47.0222639,
    "lng": 8.3144538,
    "nearest_airport": "ZRH",
    "description": "Auto-imported SCENIC_POINT. Altitude: N/Am"
  },
  "kirchlerscharte-forcella-della-chiesa": {
    "name": "Kirchlerscharte - Forcella della Chiesa",
    "slug": "kirchlerscharte-forcella-della-chiesa",
    "category": "MOUNTAIN_PASS",
    "region": "Alps",
    "country": "Europe",
    "lat": 46.6766209,
    "lng": 12.1720026,
    "nearest_airport": "INN",
    "description": "Auto-imported MOUNTAIN_PASS. Altitude: 2263m"
  },
  "kirchlerscharte-forcella-della-chiesa-853": {
    "name": "Kirchlerscharte - Forcella della Chiesa",
    "slug": "kirchlerscharte-forcella-della-chiesa-853",
    "category": "MOUNTAIN_PASS",
    "region": "Alps",
    "country": "",
    "lat": 46.6766209,
    "lng": 12.1720026,
    "nearest_airport": "",
    "description": "Verified Location."
  },
  "kirchstein": {
    "name": "Kirchstein",
    "slug": "kirchstein",
    "category": "SCENIC_POINT",
    "region": "Alps",
    "country": "Europe",
    "lat": 47.9290916,
    "lng": 15.092923,
    "nearest_airport": "VIE",
    "description": "Auto-imported SCENIC_POINT. Altitude: N/Am"
  },
  "kistenpass": {
    "name": "Kistenpass",
    "slug": "kistenpass",
    "category": "MOUNTAIN_PASS",
    "region": "Alps",
    "country": "Europe",
    "lat": 47.7026058,
    "lng": 8.5960091,
    "nearest_airport": "ZRH",
    "description": "Auto-imported MOUNTAIN_PASS. Altitude: 569m"
  },
  "kistenpass-pass-lembra": {
    "name": "Kistenpass / Pass Lembra",
    "slug": "kistenpass-pass-lembra",
    "category": "MOUNTAIN_PASS",
    "region": "Alps",
    "country": "Europe",
    "lat": 46.8299131,
    "lng": 9.027361,
    "nearest_airport": "ZRH",
    "description": "Auto-imported MOUNTAIN_PASS. Altitude: 2640m"
  },
  "kistenpass-pass-lembra-3574": {
    "name": "Kistenpass / Pass Lembra",
    "slug": "kistenpass-pass-lembra-3574",
    "category": "MOUNTAIN_PASS",
    "region": "Alps",
    "country": "",
    "lat": 46.8299131,
    "lng": 9.027361,
    "nearest_airport": "",
    "description": "Verified Location."
  },
  "kistenstockli": {
    "name": "Kistenstöckli",
    "slug": "kistenstockli",
    "category": "SCENIC_POINT",
    "region": "Alps",
    "country": "Europe",
    "lat": 46.8171347,
    "lng": 9.0197057,
    "nearest_airport": "ZRH",
    "description": "Muot Da Rubi/Kistenstöckli ist oben ganz Flach und erlaubt eine Aussicht rund herum."
  },
  "kitzbergweg": {
    "name": "Kitzbergweg",
    "slug": "kitzbergweg",
    "category": "MOUNTAIN_PASS",
    "region": "Alps",
    "country": "Europe",
    "lat": 47.5438772,
    "lng": 10.7083961,
    "nearest_airport": "INN",
    "description": "Auto-imported MOUNTAIN_PASS. Altitude: N/Am"
  }
}