{
  "koblatpass": {
    "name": "Koblatpass",
    "slug": "koblatpass",
    "category": "MOUNTAIN_PASS",
    "region": "Alps",
    "country": "Europe",
    "lat": 47.2821654,
    "lng": 10.1762068,
    "nearest_airport": "INN",
    "description": "Auto-imported MOUNTAIN_PASS. Altitude: 2054m"
  },
  "koblatpass-263": {
    "name": "Koblatpass",
    "slug": "koblatpass-263",
    "category": "MOUNTAIN_PASS",
    "region": "Alps",
    "country": "",
    "lat": 47.2821654,
    "lng": 10.1762068,
    "nearest_airport": "",
    "description": "Verified Location."
  },
  "koepfle": {
    "name": "Koepfle",
    "slug": "koepfle",
    "category": "SCENIC_POINT",
    "region": "Alps",
    "country": "Europe",
    "lat": 47.8384164,
    "lng": 8.0731075,
    "nearest_airport": "ZRH",
    "description": "Auto-imported SCENIC_POINT. Altitude: 1150m"
  },
  "kofeletorl": {
    "name": "Köfeletörl",
    "slug": "kofeletorl",
    "category": "MOUNTAIN_PASS",
    "region": "Alps",
    "country": "Europe",
    "lat": 46.6874103,
    "lng": 13.1570294,
    "nearest_airport": "SZG",
    "description": "Auto-imported MOUNTAIN_PASS. Altitude: 2019m"
  },
  "kofeletorl-936": {
    "name": "Köfeletörl",
    "slug": "kofeletorl-936",
    "category": "MOUNTAIN_PASS",
    "region": "Alps",
    "country": "",
    "lat": 46.6874103,
    "lng": 13.1570294,
    "nearest_airport": "",
    "description": "Verified Location."
  },
  "kofeljoch": {
    "name": "Kofeljoch",
    "slug": "kofeljoch",
    "category": "MOUNTAIN_PASS",
    "region": "Alps",
    "country": "Europe",
    "lat": 47.5208099,
    "lng": 10.7627706,
    "nearest_airport": "INN",
    "description": "Auto-imported MOUNTAIN_PASS. Altitude: N/Am"
  },
  "kogel": {
    "name": "❤-Kogel",
    "slug": "kogel",
    "category": "SCENIC_POINT",
    "region": "Alps",
    "country": "Europe",
    "lat": 47.469961,
    "lng": 14.9993435,
    "nearest_airport": "VIE",
    "description": "Auto-imported SCENIC_POINT. Altitude: N/Am"
  },
  "kogelsee-scharte": {
    "name": "Kogelsee Scharte",
    "slug": "kogelsee-scharte",
    "category": "MOUNTAIN_PASS",
    "region": "Alps",
    "country": "Europe",
    "lat": 47.250787,
    "lng": 10.5693994,
    "nearest_airport": "INN",
    "description": "Auto-imported MOUNTAIN_PASS. Altitude: 2497m"
  },
  "kogelsee-scharte-865": {
    "name": "Kogelsee Scharte",
    "slug": "kogelsee-scharte-865",
    "category": "MOUNTAIN_PASS",
    "region": "Alps",
    "country": "",
    "lat": 47.250787,
    "lng": 10.5693994,
    "nearest_airport": "",
    "description": "Verified Location."
  },
  "kogelseescharte-2468-m": {
    "name": "Kogelseescharte 2468 m",
    "slug": "kogelseescharte-2468-m",
    "category": "SCENIC_POINT",
    "region": "Alps",
    "country": "Europe",
    "lat": 47.2505582,
    "lng": 10.5695509,
    "nearest_airport": "INN",
    "description": "Auto-imported SCENIC_POINT. Altitude: N/Am"
  },
  "kogljochsattel": {
    "name": "Kögljochsattel",
    "slug": "kogljochsattel",
    "category": "MOUNTAIN_PASS",
    "region": "Alps",
    "country": "Europe",
    "lat": 47.4940183,
    "lng": 11.7357969,
    "nearest_airport": "INN",
    "description": "Auto-imported MOUNTAIN_PASS. Altitude: 1485m"
  },
  "kohlenberg": {
    "name": "Kohlenberg",
    "slug": "kohlenberg",
    "category": "SCENIC_POINT",
    "region": "Alps",
    "country": "Europe",
    "lat": 47.6620806,
    "lng": 10.3815722,
    "nearest_airport": "INN",
    "description": "Auto-imported SCENIC_POINT. Altitude: N/Am"
  },
  "kohlerhof": {
    "name": "Kohlerhof",
    "slug": "kohlerhof",
    "category": "SCENIC_POINT",
    "region": "Alps",
    "country": "Europe",
    "lat": 47.8924321,
    "lng": 7.8342382,
    "nearest_airport": "ZRH",
    "description": "Auto-imported SCENIC_POINT. Altitude: N/Am"
  },
  "kojca": {
    "name": "Kojca",
    "slug": "kojca",
    "category": "SCENIC_POINT",
    "region": "Alps",
    "country": "Europe",
    "lat": 46.1538172,
    "lng": 13.9267748,
    "nearest_airport": "VCE",
    "description": "Auto-imported SCENIC_POINT. Altitude: 1303m"
  },
  "kojca-3123": {
    "name": "Kojca",
    "slug": "kojca-3123",
    "category": "SCENIC_POINT",
    "region": "Alps",
    "country": "",
    "lat": 46.1538172,
    "lng": 13.9267748,
    "nearest_airport": "",
    "description": "Verified Location."
  },
  "kolb-ruhe": {
    "name": "Kolb-Ruhe",
    "slug": "kolb-ruhe",
    "category": "SCENIC_POINT",
    "region": "Alps",
    "country": "Europe",
    "lat": 47.3733858,
    "lng": 15.110346,
    "nearest_airport": "VIE",
    "description": "Auto-imported SCENIC_POINT. Altitude: 682m"
  },
  "kollenzeiger": {
    "name": "Köllenzeiger",
    "slug": "kollenzeiger",
    "category": "SCENIC_POINT",
    "region": "Alps",
    "country": "Europe",
    "lat": 47.139768,
    "lng": 11.1239821,
    "nearest_airport": "INN",
    "description": "Auto-imported SCENIC_POINT. Altitude: 2226m"
  },
  "kollesattel": {
    "name": "Köllesattel",
    "slug": "kollesattel",
    "category": "MOUNTAIN_PASS",
    "region": "Alps",
    "country": "Europe",
    "lat": 47.481529,
    "lng": 10.4634162,
    "nearest_airport": "INN",
    "description": "Auto-imported MOUNTAIN_PASS. Altitude: 1827m"
  },
  "kollmayerhohe": {
    "name": "Kollmayerhöhe",
    "slug": "kollmayerhohe",
    "category": "SCENIC_POINT",
    "region": "Alps",
    "country": "Europe",
    "lat": 47.7560673,
    "lng": 11.5673422,
    "nearest_airport": "INN",
    "description": "Auto-imported SCENIC_POINT. Altitude: N/Am"
  },
  "kolmkarscharte": {
    "name": "Kolmkarscharte",
    "slug": "kolmkarscharte",
    "category": "MOUNTAIN_PASS",
    "region": "Alps",
    "country": "Europe",
    "lat": 47.0704197,
    "lng": 13.0274035,
    "nearest_airport": "SZG",
    "description": "Auto-imported MOUNTAIN_PASS. Altitude: 2298m"
  },
  "kolmkarscharte-2849": {
    "name": "Kolmkarscharte",
    "slug": "kolmkarscharte-2849",
    "category": "MOUNTAIN_PASS",
    "region": "Alps",
    "country": "",
    "lat": 47.0704197,
    "lng": 13.0274035,
    "nearest_airport": "",
    "description": "Verified Location."
  },
  "kolnberg-aussicht": {
    "name": "Kölnberg-Aussicht",
    "slug": "kolnberg-aussicht",
    "category": "SCENIC_POINT",
    "region": "Alps",
    "country": "Europe",
    "lat": 47.5519452,
    "lng": 12.1798838,
    "nearest_airport": "SZG",
    "description": "W"
  },
  "koluji": {
    "name": "Koluji",
    "slug": "koluji",
    "category": "SCENIC_POINT",
    "region": "Alps",
    "country": "Europe",
    "lat": 46.2857968,
    "lng": 13.5928876,
    "nearest_airport": "VCE",
    "description": "Auto-imported SCENIC_POINT. Altitude: N/Am"
  },
  "kommandantengarten": {
    "name": "Kommandantengarten",
    "slug": "kommandantengarten",
    "category": "SCENIC_POINT",
    "region": "Alps",
    "country": "Europe",
    "lat": 47.9967843,
    "lng": 7.8650397,
    "nearest_airport": "ZRH",
    "description": "Auto-imported SCENIC_POINT. Altitude: N/Am"
  },
  "konigsjoch-bocchetta-del-re": {
    "name": "Königsjoch - Bocchetta del Re",
    "slug": "konigsjoch-bocchetta-del-re",
    "category": "MOUNTAIN_PASS",
    "region": "Alps",
    "country": "Europe",
    "lat": 46.8631199,
    "lng": 11.0802805,
    "nearest_airport": "INN",
    "description": "Auto-imported MOUNTAIN_PASS. Altitude: 2825m"
  },
  "konigsjoch-bocchetta-del-re-1043": {
    "name": "Königsjoch - Bocchetta del Re",
    "slug": "konigsjoch-bocchetta-del-re-1043",
    "category": "MOUNTAIN_PASS",
    "region": "Alps",
    "country": "",
    "lat": 46.8631199,
    "lng": 11.0802805,
    "nearest_airport": "",
    "description": "Verified Location."
  },
  "konigswarte-veduta-del-re": {
    "name": "Königswarte - Veduta del Re",
    "slug": "konigswarte-veduta-del-re",
    "category": "SCENIC_POINT",
    "region": "Alps",
    "country": "Europe",
    "lat": 46.5478883,
    "lng": 11.5352218,
    "nearest_airport": "INN",
    "description": "Auto-imported SCENIC_POINT. Altitude: N/Am"
  },
  "konjski-vrh": {
    "name": "Konjski vrh",
    "slug": "konjski-vrh",
    "category": "SCENIC_POINT",
    "region": "Alps",
    "country": "Europe",
    "lat": 46.2303292,
    "lng": 13.9086726,
    "nearest_airport": "VCE",
    "description": "Auto-imported SCENIC_POINT. Altitude: 1878m"
  },
  "konjsko-sedlo": {
    "name": "Konjsko sedlo",
    "slug": "konjsko-sedlo",
    "category": "MOUNTAIN_PASS",
    "region": "Alps",
    "country": "Europe",
    "lat": 46.253837,
    "lng": 13.7892149,
    "nearest_airport": "VCE",
    "description": "Auto-imported MOUNTAIN_PASS. Altitude: 1780m"
  },
  "konjsko-sedlo-3215": {
    "name": "Konjsko sedlo",
    "slug": "konjsko-sedlo-3215",
    "category": "MOUNTAIN_PASS",
    "region": "Alps",
    "country": "",
    "lat": 46.3679477,
    "lng": 13.8561696,
    "nearest_airport": "",
    "description": "Verified Location."
  },
  "konservatorium": {
    "name": "Konservatorium",
    "slug": "konservatorium",
    "category": "SCENIC_POINT",
    "region": "Alps",
    "country": "Europe",
    "lat": 47.0603841,
    "lng": 8.3219154,
    "nearest_airport": "ZRH",
    "description": "Auto-imported SCENIC_POINT. Altitude: N/Am"
  },
  "kopa": {
    "name": "Kopa",
    "slug": "kopa",
    "category": "SCENIC_POINT",
    "region": "Alps",
    "country": "Europe",
    "lat": 46.1621437,
    "lng": 14.0049928,
    "nearest_airport": "VCE",
    "description": "Auto-imported SCENIC_POINT. Altitude: 1343m"
  },
  "kopfle": {
    "name": "Köpfle",
    "slug": "kopfle",
    "category": "SCENIC_POINT",
    "region": "Alps",
    "country": "Europe",
    "lat": 47.848842,
    "lng": 7.7790419,
    "nearest_airport": "ZRH",
    "description": "Auto-imported SCENIC_POINT. Altitude: N/Am"
  },
  "kopfli": {
    "name": "Köpfli",
    "slug": "kopfli",
    "category": "SCENIC_POINT",
    "region": "Alps",
    "country": "Europe",
    "lat": 47.4532132,
    "lng": 7.8579374,
    "nearest_airport": "ZRH",
    "description": "Auto-imported SCENIC_POINT. Altitude: N/Am"
  },
  "kopflose-madonna-mit-kind": {
    "name": "Kopflose Madonna mit Kind",
    "slug": "kopflose-madonna-mit-kind",
    "category": "SCENIC_POINT",
    "region": "Alps",
    "country": "Europe",
    "lat": 47.5454078,
    "lng": 14.5827748,
    "nearest_airport": "SZG",
    "description": "Auto-imported SCENIC_POINT. Altitude: N/Am"
  },
  "kopfscharte": {
    "name": "Kopfscharte",
    "slug": "kopfscharte",
    "category": "MOUNTAIN_PASS",
    "region": "Alps",
    "country": "Europe",
    "lat": 47.1771901,
    "lng": 10.410217,
    "nearest_airport": "INN",
    "description": "Auto-imported MOUNTAIN_PASS. Altitude: 2484m"
  },
  "kopfscharte-1076": {
    "name": "Kopfscharte",
    "slug": "kopfscharte-1076",
    "category": "MOUNTAIN_PASS",
    "region": "Alps",
    "country": "",
    "lat": 47.1771901,
    "lng": 10.410217,
    "nearest_airport": "",
    "description": "Verified Location."
  },
  "kopftorl": {
    "name": "Kopftörl",
    "slug": "kopftorl",
    "category": "MOUNTAIN_PASS",
    "region": "Alps",
    "country": "Europe",
    "lat": 47.5616798,
    "lng": 12.3123604,
    "nearest_airport": "SZG",
    "description": "Auto-imported MOUNTAIN_PASS. Altitude: 2040m"
  },
  "kopftorl-1935": {
    "name": "Kopftörl",
    "slug": "kopftorl-1935",
    "category": "MOUNTAIN_PASS",
    "region": "Alps",
    "country": "",
    "lat": 47.5616798,
    "lng": 12.3123604,
    "nearest_airport": "",
    "description": "Verified Location."
  },
  "kopica": {
    "name": "Kopica",
    "slug": "kopica",
    "category": "SCENIC_POINT",
    "region": "Alps",
    "country": "Europe",
    "lat": 46.3322098,
    "lng": 13.7875816,
    "nearest_airport": "VCE",
    "description": "Auto-imported SCENIC_POINT. Altitude: 2213m"
  },
  "kopitnik": {
    "name": "Kopitnik",
    "slug": "kopitnik",
    "category": "SCENIC_POINT",
    "region": "Alps",
    "country": "Europe",
    "lat": 45.9455343,
    "lng": 13.7765621,
    "nearest_airport": "VCE",
    "description": "Auto-imported SCENIC_POINT. Altitude: N/Am"
  },
  "kopitnik-zig": {
    "name": "Kopitnik (žig)",
    "slug": "kopitnik-zig",
    "category": "SCENIC_POINT",
    "region": "Alps",
    "country": "Europe",
    "lat": 46.108702,
    "lng": 15.1828851,
    "nearest_airport": "VCE",
    "description": "Auto-imported SCENIC_POINT. Altitude: 895m"
  },
  "koppeneckplattform": {
    "name": "Koppeneckplattform",
    "slug": "koppeneckplattform",
    "category": "SCENIC_POINT",
    "region": "Alps",
    "country": "Europe",
    "lat": 47.1491189,
    "lng": 11.3957972,
    "nearest_airport": "INN",
    "description": "Auto-imported SCENIC_POINT. Altitude: N/Am"
  },
  "koppenpass": {
    "name": "Koppenpass",
    "slug": "koppenpass",
    "category": "MOUNTAIN_PASS",
    "region": "Alps",
    "country": "Europe",
    "lat": 47.5735021,
    "lng": 13.7204855,
    "nearest_airport": "SZG",
    "description": "Auto-imported MOUNTAIN_PASS. Altitude: 690m"
  },
  "koppenpass-3142": {
    "name": "Koppenpass",
    "slug": "koppenpass-3142",
    "category": "MOUNTAIN_PASS",
    "region": "Alps",
    "country": "",
    "lat": 47.5735021,
    "lng": 13.7204855,
    "nearest_airport": "",
    "description": "Verified Location."
  },
  "kopperfelsen": {
    "name": "Kopperfelsen",
    "slug": "kopperfelsen",
    "category": "SCENIC_POINT",
    "region": "Alps",
    "country": "Europe",
    "lat": 46.5954798,
    "lng": 14.2677159,
    "nearest_airport": "SZG",
    "description": "Auto-imported SCENIC_POINT. Altitude: N/Am"
  },
  "korensko-sedlo-wurzenpass": {
    "name": "Korensko Sedlo - Wurzenpass",
    "slug": "korensko-sedlo-wurzenpass",
    "category": "MOUNTAIN_PASS",
    "region": "Alps",
    "country": "Europe",
    "lat": 46.5234334,
    "lng": 13.7515209,
    "nearest_airport": "SZG",
    "description": "Auto-imported MOUNTAIN_PASS. Altitude: 1073m"
  },
  "korensko-sedlo-wurzenpass-2029": {
    "name": "Korensko Sedlo - Wurzenpass",
    "slug": "korensko-sedlo-wurzenpass-2029",
    "category": "MOUNTAIN_PASS",
    "region": "Alps",
    "country": "",
    "lat": 46.5234334,
    "lng": 13.7515209,
    "nearest_airport": "",
    "description": "Verified Location."
  },
  "korita-mlinarice": {
    "name": "Korita Mlinarice",
    "slug": "korita-mlinarice",
    "category": "SCENIC_POINT",
    "region": "Alps",
    "country": "Europe",
    "lat": 46.4027144,
    "lng": 13.7453548,
    "nearest_airport": "VCE",
    "description": "Auto-imported SCENIC_POINT. Altitude: N/Am"
  },
  "kornelias-aussicht": {
    "name": "Kornelias Aussicht",
    "slug": "kornelias-aussicht",
    "category": "SCENIC_POINT",
    "region": "Alps",
    "country": "Europe",
    "lat": 47.9812973,
    "lng": 13.6917517,
    "nearest_airport": "SZG",
    "description": "Auto-imported SCENIC_POINT. Altitude: N/Am"
  },
  "kornhofer-bankle": {
    "name": "Kornhofer Bänkle",
    "slug": "kornhofer-bankle",
    "category": "SCENIC_POINT",
    "region": "Alps",
    "country": "Europe",
    "lat": 47.859262,
    "lng": 10.2273111,
    "nearest_airport": "INN",
    "description": "Auto-imported SCENIC_POINT. Altitude: N/Am"
  },
  "kornsteinfelsen": {
    "name": "Kornsteinfelsen",
    "slug": "kornsteinfelsen",
    "category": "SCENIC_POINT",
    "region": "Alps",
    "country": "Europe",
    "lat": 47.8876124,
    "lng": 13.9007734,
    "nearest_airport": "SZG",
    "description": "Auto-imported SCENIC_POINT. Altitude: 950m"
  },
  "korntauern": {
    "name": "Korntauern",
    "slug": "korntauern",
    "category": "MOUNTAIN_PASS",
    "region": "Alps",
    "country": "Europe",
    "lat": 47.0419026,
    "lng": 13.1788534,
    "nearest_airport": "SZG",
    "description": "Auto-imported MOUNTAIN_PASS. Altitude: 2459m"
  },
  "korntauern-2184": {
    "name": "Korntauern",
    "slug": "korntauern-2184",
    "category": "MOUNTAIN_PASS",
    "region": "Alps",
    "country": "",
    "lat": 47.0419026,
    "lng": 13.1788534,
    "nearest_airport": "",
    "description": "Verified Location."
  },
  "korreite": {
    "name": "Korreite",
    "slug": "korreite",
    "category": "SCENIC_POINT",
    "region": "Alps",
    "country": "Europe",
    "lat": 47.6656794,
    "lng": 10.3913983,
    "nearest_airport": "INN",
    "description": "Auto-imported SCENIC_POINT. Altitude: N/Am"
  },
  "koschutnig-pass": {
    "name": "Koschutnig-Paß",
    "slug": "koschutnig-pass",
    "category": "MOUNTAIN_PASS",
    "region": "Alps",
    "country": "Europe",
    "lat": 46.5441132,
    "lng": 14.022712,
    "nearest_airport": "SZG",
    "description": "Auto-imported MOUNTAIN_PASS. Altitude: 656m"
  },
  "kosmacev-preval": {
    "name": "Kosmačev preval",
    "slug": "kosmacev-preval",
    "category": "MOUNTAIN_PASS",
    "region": "Alps",
    "country": "Europe",
    "lat": 46.4369271,
    "lng": 13.9309512,
    "nearest_airport": "VCE",
    "description": "Auto-imported MOUNTAIN_PASS. Altitude: 837m"
  },
  "kostelj": {
    "name": "Kostelj",
    "slug": "kostelj",
    "category": "SCENIC_POINT",
    "region": "Alps",
    "country": "Europe",
    "lat": 43.9165547,
    "lng": 15.500088,
    "nearest_airport": "VCE",
    "description": "Auto-imported SCENIC_POINT. Altitude: N/Am"
  },
  "kothbachsattel-wannigjochl": {
    "name": "Kothbachsattel (Wannigjöchl)",
    "slug": "kothbachsattel-wannigjochl",
    "category": "MOUNTAIN_PASS",
    "region": "Alps",
    "country": "Europe",
    "lat": 47.3887331,
    "lng": 11.0255192,
    "nearest_airport": "INN",
    "description": "Auto-imported MOUNTAIN_PASS. Altitude: 2183m"
  },
  "kothbachsattel-wannigjochl-228": {
    "name": "Kothbachsattel (Wannigjöchl)",
    "slug": "kothbachsattel-wannigjochl-228",
    "category": "MOUNTAIN_PASS",
    "region": "Alps",
    "country": "",
    "lat": 47.3887331,
    "lng": 11.0255192,
    "nearest_airport": "",
    "description": "Verified Location."
  },
  "kozjak": {
    "name": "Kozjak",
    "slug": "kozjak",
    "category": "MOUNTAIN_PASS",
    "region": "Alps",
    "country": "Europe",
    "lat": 46.2153276,
    "lng": 14.8051808,
    "nearest_airport": "VCE",
    "description": "Auto-imported MOUNTAIN_PASS. Altitude: 658m"
  },
  "kozjak-31": {
    "name": "Kozjak",
    "slug": "kozjak-31",
    "category": "MOUNTAIN_PASS",
    "region": "Alps",
    "country": "",
    "lat": 46.2153276,
    "lng": 14.8051808,
    "nearest_airport": "",
    "description": "Verified Location."
  }
}