{
  "miamija": {
    "name": "Mia/Mija",
    "slug": "miamija",
    "category": "SCENIC_POINT",
    "region": "Alps",
    "country": "Europe",
    "lat": 46.2218015,
    "lng": 13.47891,
    "nearest_airport": "VCE",
    "description": "Auto-imported SCENIC_POINT. Altitude: N/Am"
  },
  "michaelskreuz": {
    "name": "Michaelskreuz",
    "slug": "michaelskreuz",
    "category": "SCENIC_POINT",
    "region": "Alps",
    "country": "Europe",
    "lat": 47.1145506,
    "lng": 8.4172476,
    "nearest_airport": "ZRH",
    "description": "Auto-imported SCENIC_POINT. Altitude: N/Am"
  },
  "michelbuhel": {
    "name": "Michelbühel",
    "slug": "michelbuhel",
    "category": "MOUNTAIN_PASS",
    "region": "Alps",
    "country": "Europe",
    "lat": 47.8428827,
    "lng": 15.4582559,
    "nearest_airport": "VIE",
    "description": "Auto-imported MOUNTAIN_PASS. Altitude: 999m"
  },
  "michelbuhel-356": {
    "name": "Michelbühel",
    "slug": "michelbuhel-356",
    "category": "MOUNTAIN_PASS",
    "region": "Alps",
    "country": "",
    "lat": 47.8428827,
    "lng": 15.4582559,
    "nearest_airport": "",
    "description": "Verified Location."
  },
  "michelsberger-torl": {
    "name": "Michelsberger Törl",
    "slug": "michelsberger-torl",
    "category": "MOUNTAIN_PASS",
    "region": "Alps",
    "country": "Europe",
    "lat": 46.8115082,
    "lng": 12.9330916,
    "nearest_airport": "SZG",
    "description": "Auto-imported MOUNTAIN_PASS. Altitude: 2370m"
  },
  "michelsberger-torl-2301": {
    "name": "Michelsberger Törl",
    "slug": "michelsberger-torl-2301",
    "category": "MOUNTAIN_PASS",
    "region": "Alps",
    "country": "",
    "lat": 46.8115082,
    "lng": 12.9330916,
    "nearest_airport": "",
    "description": "Verified Location."
  },
  "michltalscharte": {
    "name": "Michltalscharte",
    "slug": "michltalscharte",
    "category": "MOUNTAIN_PASS",
    "region": "Alps",
    "country": "Europe",
    "lat": 46.9837223,
    "lng": 12.3199685,
    "nearest_airport": "INN",
    "description": "Auto-imported MOUNTAIN_PASS. Altitude: 2652m"
  },
  "michltalscharte-1780": {
    "name": "Michltalscharte",
    "slug": "michltalscharte-1780",
    "category": "MOUNTAIN_PASS",
    "region": "Alps",
    "country": "",
    "lat": 46.9837223,
    "lng": 12.3199685,
    "nearest_airport": "",
    "description": "Verified Location."
  },
  "miesbichlscharte": {
    "name": "Miesbichlscharte",
    "slug": "miesbichlscharte",
    "category": "MOUNTAIN_PASS",
    "region": "Alps",
    "country": "Europe",
    "lat": 47.0852428,
    "lng": 13.0643045,
    "nearest_airport": "SZG",
    "description": "Auto-imported MOUNTAIN_PASS. Altitude: 2237m"
  },
  "miesbichlscharte-2514": {
    "name": "Miesbichlscharte",
    "slug": "miesbichlscharte-2514",
    "category": "MOUNTAIN_PASS",
    "region": "Alps",
    "country": "",
    "lat": 47.0852428,
    "lng": 13.0643045,
    "nearest_airport": "",
    "description": "Verified Location."
  },
  "milchseescharte-forcella-dei-laghi": {
    "name": "Milchseescharte - Forcella dei Laghi",
    "slug": "milchseescharte-forcella-dei-laghi",
    "category": "MOUNTAIN_PASS",
    "region": "Alps",
    "country": "Europe",
    "lat": 46.7260437,
    "lng": 11.0683159,
    "nearest_airport": "INN",
    "description": "Auto-imported MOUNTAIN_PASS. Altitude: 2710m"
  },
  "milchseescharte-forcella-dei-laghi-1542": {
    "name": "Milchseescharte - Forcella dei Laghi",
    "slug": "milchseescharte-forcella-dei-laghi-1542",
    "category": "MOUNTAIN_PASS",
    "region": "Alps",
    "country": "",
    "lat": 46.7260437,
    "lng": 11.0683159,
    "nearest_airport": "",
    "description": "Verified Location."
  },
  "milibachfall": {
    "name": "Milibachfall",
    "slug": "milibachfall",
    "category": "SCENIC_POINT",
    "region": "Alps",
    "country": "Europe",
    "lat": 46.7657436,
    "lng": 8.0203627,
    "nearest_airport": "ZRH",
    "description": "Auto-imported SCENIC_POINT. Altitude: N/Am"
  },
  "minaruh": {
    "name": "Minaruh",
    "slug": "minaruh",
    "category": "SCENIC_POINT",
    "region": "Alps",
    "country": "Europe",
    "lat": 47.7547525,
    "lng": 12.4515558,
    "nearest_airport": "SZG",
    "description": "Auto-imported SCENIC_POINT. Altitude: N/Am"
  },
  "mine-de-la-lappiaz": {
    "name": "Mine de la Lappiaz",
    "slug": "mine-de-la-lappiaz",
    "category": "SCENIC_POINT",
    "region": "Alps",
    "country": "Europe",
    "lat": 46.1929526,
    "lng": 6.7656686,
    "nearest_airport": "GVA",
    "description": "Auto-imported SCENIC_POINT. Altitude: N/Am"
  },
  "mine-garcine": {
    "name": "Mine Garcine",
    "slug": "mine-garcine",
    "category": "SCENIC_POINT",
    "region": "Alps",
    "country": "Europe",
    "lat": 44.5440938,
    "lng": 5.8742826,
    "nearest_airport": "NCE",
    "description": "Auto-imported SCENIC_POINT. Altitude: N/Am"
  },
  "mintschejoch": {
    "name": "Mintschejoch",
    "slug": "mintschejoch",
    "category": "MOUNTAIN_PASS",
    "region": "Alps",
    "country": "Europe",
    "lat": 47.2312617,
    "lng": 10.5293175,
    "nearest_airport": "INN",
    "description": "Auto-imported MOUNTAIN_PASS. Altitude: 2264m"
  },
  "mintschejoch-1077": {
    "name": "Mintschejoch",
    "slug": "mintschejoch-1077",
    "category": "MOUNTAIN_PASS",
    "region": "Alps",
    "country": "",
    "lat": 47.2312617,
    "lng": 10.5293175,
    "nearest_airport": "",
    "description": "Verified Location."
  },
  "mirador-chapelle-notre-dame-de-la-gardette": {
    "name": "Mirador Chapelle Notre-Dame de la Gardette",
    "slug": "mirador-chapelle-notre-dame-de-la-gardette",
    "category": "SCENIC_POINT",
    "region": "Alps",
    "country": "Europe",
    "lat": 43.6997708,
    "lng": 7.1201302,
    "nearest_airport": "NCE",
    "description": "Auto-imported SCENIC_POINT. Altitude: N/Am"
  },
  "mirandola": {
    "name": "Mirandola",
    "slug": "mirandola",
    "category": "SCENIC_POINT",
    "region": "Alps",
    "country": "Europe",
    "lat": 46.0350561,
    "lng": 9.1653068,
    "nearest_airport": "MXP",
    "description": "Auto-imported SCENIC_POINT. Altitude: N/Am"
  },
  "mirarolo": {
    "name": "Miraròlo",
    "slug": "mirarolo",
    "category": "SCENIC_POINT",
    "region": "Alps",
    "country": "Europe",
    "lat": 45.8636991,
    "lng": 9.8132046,
    "nearest_airport": "MXP",
    "description": "Auto-imported SCENIC_POINT. Altitude: N/Am"
  },
  "miravalle": {
    "name": "Miravalle",
    "slug": "miravalle",
    "category": "SCENIC_POINT",
    "region": "Alps",
    "country": "Europe",
    "lat": 46.0339229,
    "lng": 10.7211096,
    "nearest_airport": "VCE",
    "description": "Auto-imported SCENIC_POINT. Altitude: N/Am"
  },
  "mirnitzscharte": {
    "name": "Mirnitzscharte",
    "slug": "mirnitzscharte",
    "category": "MOUNTAIN_PASS",
    "region": "Alps",
    "country": "Europe",
    "lat": 46.9265158,
    "lng": 12.7167145,
    "nearest_airport": "SZG",
    "description": "Auto-imported MOUNTAIN_PASS. Altitude: 2743m"
  },
  "mirnitzscharte-1572": {
    "name": "Mirnitzscharte",
    "slug": "mirnitzscharte-1572",
    "category": "MOUNTAIN_PASS",
    "region": "Alps",
    "country": "",
    "lat": 46.9265158,
    "lng": 12.7167145,
    "nearest_airport": "",
    "description": "Verified Location."
  },
  "miroir-de-la-faille-sismique-du-vuache": {
    "name": "miroir de la faille sismique du Vuache",
    "slug": "miroir-de-la-faille-sismique-du-vuache",
    "category": "SCENIC_POINT",
    "region": "Alps",
    "country": "Europe",
    "lat": 45.9540056,
    "lng": 6.0484575,
    "nearest_airport": "GVA",
    "description": "Auto-imported SCENIC_POINT. Altitude: N/Am"
  },
  "miroir-deau-de-rennes-sur-loue": {
    "name": "Miroir d'eau de Rennes-sur-Loue",
    "slug": "miroir-deau-de-rennes-sur-loue",
    "category": "SCENIC_POINT",
    "region": "Alps",
    "country": "Europe",
    "lat": 47.0148835,
    "lng": 5.8529279,
    "nearest_airport": "GVA",
    "description": "Auto-imported SCENIC_POINT. Altitude: N/Am"
  },
  "miseljski-preval": {
    "name": "Mišeljski preval",
    "slug": "miseljski-preval",
    "category": "MOUNTAIN_PASS",
    "region": "Alps",
    "country": "Europe",
    "lat": 46.3460665,
    "lng": 13.8348775,
    "nearest_airport": "VCE",
    "description": "Auto-imported MOUNTAIN_PASS. Altitude: 1995m"
  },
  "mistlibuel": {
    "name": "Mistlibüel",
    "slug": "mistlibuel",
    "category": "SCENIC_POINT",
    "region": "Alps",
    "country": "Europe",
    "lat": 47.1678602,
    "lng": 8.6790346,
    "nearest_airport": "ZRH",
    "description": "Auto-imported SCENIC_POINT. Altitude: N/Am"
  },
  "mittagsscharte": {
    "name": "Mittagsscharte",
    "slug": "mittagsscharte",
    "category": "MOUNTAIN_PASS",
    "region": "Alps",
    "country": "Europe",
    "lat": 47.4487939,
    "lng": 12.9990289,
    "nearest_airport": "SZG",
    "description": "Auto-imported MOUNTAIN_PASS. Altitude: N/Am"
  },
  "mittelberg": {
    "name": "Mittelberg",
    "slug": "mittelberg",
    "category": "MOUNTAIN_PASS",
    "region": "Alps",
    "country": "Europe",
    "lat": 46.5468938,
    "lng": 7.2571001,
    "nearest_airport": "GVA",
    "description": "Auto-imported MOUNTAIN_PASS. Altitude: 1632m"
  },
  "mittelbergjoch": {
    "name": "Mittelbergjoch",
    "slug": "mittelbergjoch",
    "category": "MOUNTAIN_PASS",
    "region": "Alps",
    "country": "Europe",
    "lat": 46.9224889,
    "lng": 9.9913326,
    "nearest_airport": "INN",
    "description": "Auto-imported MOUNTAIN_PASS. Altitude: 2415m"
  },
  "mittelbergjoch-3240": {
    "name": "Mittelbergjoch",
    "slug": "mittelbergjoch-3240",
    "category": "MOUNTAIN_PASS",
    "region": "Alps",
    "country": "",
    "lat": 46.9224889,
    "lng": 9.9913326,
    "nearest_airport": "",
    "description": "Verified Location."
  },
  "mittelbergpass": {
    "name": "Mittelbergpass",
    "slug": "mittelbergpass",
    "category": "MOUNTAIN_PASS",
    "region": "Alps",
    "country": "Europe",
    "lat": 46.359116,
    "lng": 8.262119,
    "nearest_airport": "MXP",
    "description": "Auto-imported MOUNTAIN_PASS. Altitude: 2826m"
  },
  "mittelbergpass-3159": {
    "name": "Mittelbergpass",
    "slug": "mittelbergpass-3159",
    "category": "MOUNTAIN_PASS",
    "region": "Alps",
    "country": "",
    "lat": 46.359116,
    "lng": 8.262119,
    "nearest_airport": "",
    "description": "Verified Location."
  },
  "mittelbuck": {
    "name": "Mittelbuck",
    "slug": "mittelbuck",
    "category": "SCENIC_POINT",
    "region": "Alps",
    "country": "Europe",
    "lat": 47.7631406,
    "lng": 8.4784354,
    "nearest_airport": "ZRH",
    "description": "Auto-imported SCENIC_POINT. Altitude: N/Am"
  },
  "mittelplattten": {
    "name": "Mittelplattten",
    "slug": "mittelplattten",
    "category": "MOUNTAIN_PASS",
    "region": "Alps",
    "country": "Europe",
    "lat": 46.7084006,
    "lng": 8.7289778,
    "nearest_airport": "ZRH",
    "description": "Bergpass"
  },
  "mittelplattten-521": {
    "name": "Mittelplattten",
    "slug": "mittelplattten-521",
    "category": "MOUNTAIN_PASS",
    "region": "Alps",
    "country": "",
    "lat": 46.7084006,
    "lng": 8.7289778,
    "nearest_airport": "",
    "description": "Verified Location."
  },
  "mittelpunkt-der-zentralschweiz": {
    "name": "Mittelpunkt der Zentralschweiz",
    "slug": "mittelpunkt-der-zentralschweiz",
    "category": "SCENIC_POINT",
    "region": "Alps",
    "country": "Europe",
    "lat": 46.9678549,
    "lng": 8.420277,
    "nearest_airport": "ZRH",
    "description": "Auto-imported SCENIC_POINT. Altitude: 538m"
  },
  "mitten-im-wildbach": {
    "name": "Mitten im Wildbach",
    "slug": "mitten-im-wildbach",
    "category": "SCENIC_POINT",
    "region": "Alps",
    "country": "Europe",
    "lat": 47.2221269,
    "lng": 12.3403184,
    "nearest_airport": "INN",
    "description": "Auto-imported SCENIC_POINT. Altitude: N/Am"
  },
  "mitterbach-wasserfall": {
    "name": "Mitterbach Wasserfall",
    "slug": "mitterbach-wasserfall",
    "category": "SCENIC_POINT",
    "region": "Alps",
    "country": "Europe",
    "lat": 47.201693,
    "lng": 15.3626678,
    "nearest_airport": "VIE",
    "description": "Auto-imported SCENIC_POINT. Altitude: N/Am"
  },
  "mitterbachjoch": {
    "name": "Mitterbachjoch",
    "slug": "mitterbachjoch",
    "category": "MOUNTAIN_PASS",
    "region": "Alps",
    "country": "Europe",
    "lat": 47.000352,
    "lng": 11.8435991,
    "nearest_airport": "INN",
    "description": "Auto-imported MOUNTAIN_PASS. Altitude: 3172m"
  },
  "mitterbachjoch-3850": {
    "name": "Mitterbachjoch",
    "slug": "mitterbachjoch-3850",
    "category": "MOUNTAIN_PASS",
    "region": "Alps",
    "country": "",
    "lat": 47.000352,
    "lng": 11.8435991,
    "nearest_airport": "",
    "description": "Verified Location."
  },
  "mitterhorn-blick": {
    "name": "Mitterhorn-Blick",
    "slug": "mitterhorn-blick",
    "category": "SCENIC_POINT",
    "region": "Alps",
    "country": "Europe",
    "lat": 47.639569,
    "lng": 12.7523886,
    "nearest_airport": "SZG",
    "description": "Auto-imported SCENIC_POINT. Altitude: N/Am"
  },
  "mitterjoch": {
    "name": "Mitterjoch",
    "slug": "mitterjoch",
    "category": "MOUNTAIN_PASS",
    "region": "Alps",
    "country": "Europe",
    "lat": 46.8947275,
    "lng": 10.5686507,
    "nearest_airport": "INN",
    "description": "Auto-imported MOUNTAIN_PASS. Altitude: 2656m"
  },
  "mitterjoch-978": {
    "name": "Mitterjoch",
    "slug": "mitterjoch-978",
    "category": "MOUNTAIN_PASS",
    "region": "Alps",
    "country": "",
    "lat": 46.8947275,
    "lng": 10.5686507,
    "nearest_airport": "",
    "description": "Verified Location."
  },
  "mitterjoch-giogo-di-mezzo": {
    "name": "Mitterjoch - Giogo di Mezzo",
    "slug": "mitterjoch-giogo-di-mezzo",
    "category": "MOUNTAIN_PASS",
    "region": "Alps",
    "country": "Europe",
    "lat": 47.0499423,
    "lng": 12.0277161,
    "nearest_airport": "INN",
    "description": "Auto-imported MOUNTAIN_PASS. Altitude: 2635m"
  },
  "mitterjoch-giogo-di-mezzo-471": {
    "name": "Mitterjoch - Giogo di Mezzo",
    "slug": "mitterjoch-giogo-di-mezzo-471",
    "category": "MOUNTAIN_PASS",
    "region": "Alps",
    "country": "",
    "lat": 47.0499423,
    "lng": 12.0277161,
    "nearest_airport": "",
    "description": "Verified Location."
  },
  "mitterkarjoch": {
    "name": "Mitterkarjoch",
    "slug": "mitterkarjoch",
    "category": "MOUNTAIN_PASS",
    "region": "Alps",
    "country": "Europe",
    "lat": 46.8848574,
    "lng": 10.8565273,
    "nearest_airport": "INN",
    "description": "Auto-imported MOUNTAIN_PASS. Altitude: 3468m"
  },
  "mitterkarjoch-1762": {
    "name": "Mitterkarjoch",
    "slug": "mitterkarjoch-1762",
    "category": "MOUNTAIN_PASS",
    "region": "Alps",
    "country": "",
    "lat": 46.8848574,
    "lng": 10.8565273,
    "nearest_airport": "",
    "description": "Verified Location."
  },
  "mitterkarlscharte": {
    "name": "Mitterkarlscharte",
    "slug": "mitterkarlscharte",
    "category": "MOUNTAIN_PASS",
    "region": "Alps",
    "country": "Europe",
    "lat": 47.3794116,
    "lng": 11.5876089,
    "nearest_airport": "INN",
    "description": "Auto-imported MOUNTAIN_PASS. Altitude: N/Am"
  },
  "mittersattel": {
    "name": "Mittersattel",
    "slug": "mittersattel",
    "category": "MOUNTAIN_PASS",
    "region": "Alps",
    "country": "Europe",
    "lat": 46.6787939,
    "lng": 12.5350972,
    "nearest_airport": "INN",
    "description": "Auto-imported MOUNTAIN_PASS. Altitude: 2329m"
  },
  "mittersattel-2967": {
    "name": "Mittersattel",
    "slug": "mittersattel-2967",
    "category": "MOUNTAIN_PASS",
    "region": "Alps",
    "country": "",
    "lat": 46.6787939,
    "lng": 12.5350972,
    "nearest_airport": "",
    "description": "Verified Location."
  },
  "mittertalscharte": {
    "name": "Mittertalscharte",
    "slug": "mittertalscharte",
    "category": "MOUNTAIN_PASS",
    "region": "Alps",
    "country": "Europe",
    "lat": 47.1952971,
    "lng": 10.957685,
    "nearest_airport": "INN",
    "description": "Auto-imported MOUNTAIN_PASS. Altitude: 2630m"
  },
  "mittertalscharte-303": {
    "name": "Mittertalscharte",
    "slug": "mittertalscharte-303",
    "category": "MOUNTAIN_PASS",
    "region": "Alps",
    "country": "",
    "lat": 47.1952971,
    "lng": 10.957685,
    "nearest_airport": "",
    "description": "Verified Location."
  },
  "mittler-schwerzi": {
    "name": "Mittler Schwerzi",
    "slug": "mittler-schwerzi",
    "category": "SCENIC_POINT",
    "region": "Alps",
    "country": "Europe",
    "lat": 47.0913287,
    "lng": 8.1254488,
    "nearest_airport": "ZRH",
    "description": "Auto-imported SCENIC_POINT. Altitude: N/Am"
  }
}