{
  "na-gradu": {
    "name": "Na Gradu",
    "slug": "na-gradu",
    "category": "SCENIC_POINT",
    "region": "Alps",
    "country": "Europe",
    "lat": 46.1836373,
    "lng": 13.6594981,
    "nearest_airport": "VCE",
    "description": "Auto-imported SCENIC_POINT. Altitude: N/Am"
  },
  "na-konju": {
    "name": "Na konju",
    "slug": "na-konju",
    "category": "SCENIC_POINT",
    "region": "Alps",
    "country": "Europe",
    "lat": 45.8113929,
    "lng": 13.9935618,
    "nearest_airport": "VCE",
    "description": "Auto-imported SCENIC_POINT. Altitude: N/Am"
  },
  "na-prodih": {
    "name": "Na Prodih",
    "slug": "na-prodih",
    "category": "SCENIC_POINT",
    "region": "Alps",
    "country": "Europe",
    "lat": 46.3783472,
    "lng": 14.5434685,
    "nearest_airport": "VCE",
    "description": "Auto-imported SCENIC_POINT. Altitude: 1123m"
  },
  "na-skali": {
    "name": "Na skali",
    "slug": "na-skali",
    "category": "SCENIC_POINT",
    "region": "Alps",
    "country": "Europe",
    "lat": 46.3479564,
    "lng": 13.5641648,
    "nearest_airport": "VCE",
    "description": "Auto-imported SCENIC_POINT. Altitude: 675m"
  },
  "na-solnah": {
    "name": "Na Solnah",
    "slug": "na-solnah",
    "category": "SCENIC_POINT",
    "region": "Alps",
    "country": "Europe",
    "lat": 45.6503343,
    "lng": 14.207222,
    "nearest_airport": "VCE",
    "description": "Auto-imported SCENIC_POINT. Altitude: 750m"
  },
  "nad-strazo": {
    "name": "Nad stražo",
    "slug": "nad-strazo",
    "category": "SCENIC_POINT",
    "region": "Alps",
    "country": "Europe",
    "lat": 45.4924715,
    "lng": 13.9463805,
    "nearest_airport": "VCE",
    "description": "Auto-imported SCENIC_POINT. Altitude: N/Am"
  },
  "nadernachjoch": {
    "name": "Nadernachjoch",
    "slug": "nadernachjoch",
    "category": "MOUNTAIN_PASS",
    "region": "Alps",
    "country": "Europe",
    "lat": 47.2925979,
    "lng": 12.1522299,
    "nearest_airport": "INN",
    "description": "Auto-imported MOUNTAIN_PASS. Altitude: 2100m"
  },
  "nadernachjoch-3195": {
    "name": "Nadernachjoch",
    "slug": "nadernachjoch-3195",
    "category": "MOUNTAIN_PASS",
    "region": "Alps",
    "country": "",
    "lat": 47.2925979,
    "lng": 12.1522299,
    "nearest_airport": "",
    "description": "Verified Location."
  },
  "nagelfluhfelsen": {
    "name": "Nagelfluhfelsen",
    "slug": "nagelfluhfelsen",
    "category": "SCENIC_POINT",
    "region": "Alps",
    "country": "Europe",
    "lat": 47.690984,
    "lng": 10.8178689,
    "nearest_airport": "INN",
    "description": "Auto-imported SCENIC_POINT. Altitude: N/Am"
  },
  "nagrolle-loppio": {
    "name": "Nagrolle-Loppio",
    "slug": "nagrolle-loppio",
    "category": "SCENIC_POINT",
    "region": "Alps",
    "country": "Europe",
    "lat": 45.8632592,
    "lng": 10.9286124,
    "nearest_airport": "VCE",
    "description": "Auto-imported SCENIC_POINT. Altitude: N/Am"
  },
  "nahmloserwetterspitze-auf-225": {
    "name": "Nahmloserwetterspitze auf 225°",
    "slug": "nahmloserwetterspitze-auf-225",
    "category": "SCENIC_POINT",
    "region": "Alps",
    "country": "Europe",
    "lat": 47.392168,
    "lng": 10.729967,
    "nearest_airport": "INN",
    "description": "Auto-imported SCENIC_POINT. Altitude: N/Am"
  },
  "namlospass": {
    "name": "Namlospass",
    "slug": "namlospass",
    "category": "MOUNTAIN_PASS",
    "region": "Alps",
    "country": "Europe",
    "lat": 47.3715759,
    "lng": 10.6934033,
    "nearest_airport": "INN",
    "description": "Auto-imported MOUNTAIN_PASS. Altitude: 1359m"
  },
  "nanzlicke": {
    "name": "Nanzlicke",
    "slug": "nanzlicke",
    "category": "MOUNTAIN_PASS",
    "region": "Alps",
    "country": "Europe",
    "lat": 46.2446302,
    "lng": 7.9825643,
    "nearest_airport": "MXP",
    "description": "Auto-imported MOUNTAIN_PASS. Altitude: 2447m"
  },
  "nanzlicke-3113": {
    "name": "Nanzlicke",
    "slug": "nanzlicke-3113",
    "category": "MOUNTAIN_PASS",
    "region": "Alps",
    "country": "",
    "lat": 46.2446302,
    "lng": 7.9825643,
    "nearest_airport": "",
    "description": "Verified Location."
  },
  "napoleonseck": {
    "name": "Napoleonseck",
    "slug": "napoleonseck",
    "category": "SCENIC_POINT",
    "region": "Alps",
    "country": "Europe",
    "lat": 47.8585423,
    "lng": 8.7149703,
    "nearest_airport": "ZRH",
    "description": "Auto-imported SCENIC_POINT. Altitude: N/Am"
  },
  "nasat": {
    "name": "Nasàt",
    "slug": "nasat",
    "category": "SCENIC_POINT",
    "region": "Alps",
    "country": "Europe",
    "lat": 46.4009111,
    "lng": 12.7748224,
    "nearest_airport": "VCE",
    "description": "Auto-imported SCENIC_POINT. Altitude: N/Am"
  },
  "nase": {
    "name": "Nase",
    "slug": "nase",
    "category": "SCENIC_POINT",
    "region": "Alps",
    "country": "Europe",
    "lat": 47.736376,
    "lng": 15.983899,
    "nearest_airport": "VIE",
    "description": "Auto-imported SCENIC_POINT. Altitude: 731m"
  },
  "nasefels": {
    "name": "Nasefels",
    "slug": "nasefels",
    "category": "SCENIC_POINT",
    "region": "Alps",
    "country": "Europe",
    "lat": 47.3876316,
    "lng": 7.4838179,
    "nearest_airport": "ZRH",
    "description": "Auto-imported SCENIC_POINT. Altitude: N/Am"
  },
  "nassfeldpass-passo-di-pramollo-pas-di-pramuel": {
    "name": "Nassfeldpass / Passo di Pramollo / Pas di Pramuel",
    "slug": "nassfeldpass-passo-di-pramollo-pas-di-pramuel",
    "category": "MOUNTAIN_PASS",
    "region": "Alps",
    "country": "Europe",
    "lat": 46.5599576,
    "lng": 13.2755644,
    "nearest_airport": "VCE",
    "description": "Auto-imported MOUNTAIN_PASS. Altitude: 1530m"
  },
  "nassfeldpass-passo-di-pramollo-pas-di-pramuel-2429": {
    "name": "Nassfeldpass / Passo di Pramollo / Pas di Pramuel",
    "slug": "nassfeldpass-passo-di-pramollo-pas-di-pramuel-2429",
    "category": "MOUNTAIN_PASS",
    "region": "Alps",
    "country": "",
    "lat": 46.5599576,
    "lng": 13.2755644,
    "nearest_airport": "",
    "description": "Verified Location."
  },
  "nassfeldtorl": {
    "name": "Naßfeldtörl",
    "slug": "nassfeldtorl",
    "category": "MOUNTAIN_PASS",
    "region": "Alps",
    "country": "Europe",
    "lat": 46.7858145,
    "lng": 13.140148,
    "nearest_airport": "SZG",
    "description": "Auto-imported MOUNTAIN_PASS. Altitude: 2170m"
  },
  "nassfeldtorl-1549": {
    "name": "Naßfeldtörl",
    "slug": "nassfeldtorl-1549",
    "category": "MOUNTAIN_PASS",
    "region": "Alps",
    "country": "",
    "lat": 46.7858145,
    "lng": 13.140148,
    "nearest_airport": "",
    "description": "Verified Location."
  },
  "nationalpark-gallery": {
    "name": "Nationalpark Gallery",
    "slug": "nationalpark-gallery",
    "category": "SCENIC_POINT",
    "region": "Alps",
    "country": "Europe",
    "lat": 47.1880818,
    "lng": 12.6830702,
    "nearest_airport": "SZG",
    "description": "Auto-imported SCENIC_POINT. Altitude: N/Am"
  },
  "naturdenkmal-brunnwandquelle": {
    "name": "Naturdenkmal Brunnwandquelle",
    "slug": "naturdenkmal-brunnwandquelle",
    "category": "SCENIC_POINT",
    "region": "Alps",
    "country": "Europe",
    "lat": 47.186264,
    "lng": 13.4126451,
    "nearest_airport": "SZG",
    "description": "Auto-imported SCENIC_POINT. Altitude: N/Am"
  },
  "naturidea-naturschauplatz-gschmitz": {
    "name": "naturidea Naturschauplatz Gschmitz",
    "slug": "naturidea-naturschauplatz-gschmitz",
    "category": "SCENIC_POINT",
    "region": "Alps",
    "country": "Europe",
    "lat": 47.1374463,
    "lng": 11.322877,
    "nearest_airport": "INN",
    "description": "Auto-imported SCENIC_POINT. Altitude: N/Am"
  },
  "naturidea-naturschauplatz-huhnerspiel": {
    "name": "naturidea Naturschauplatz Hühnerspiel",
    "slug": "naturidea-naturschauplatz-huhnerspiel",
    "category": "SCENIC_POINT",
    "region": "Alps",
    "country": "Europe",
    "lat": 47.0829467,
    "lng": 11.2429847,
    "nearest_airport": "INN",
    "description": "Auto-imported SCENIC_POINT. Altitude: N/Am"
  },
  "naturidea-naturschauplatz-pfarrach": {
    "name": "naturidea Naturschauplatz Pfarrach",
    "slug": "naturidea-naturschauplatz-pfarrach",
    "category": "SCENIC_POINT",
    "region": "Alps",
    "country": "Europe",
    "lat": 47.177891,
    "lng": 11.3354398,
    "nearest_airport": "INN",
    "description": "Auto-imported SCENIC_POINT. Altitude: N/Am"
  },
  "naturidea-naturschauplatz-wildeben": {
    "name": "naturidea Naturschauplatz Wildeben",
    "slug": "naturidea-naturschauplatz-wildeben",
    "category": "SCENIC_POINT",
    "region": "Alps",
    "country": "Europe",
    "lat": 47.123528,
    "lng": 11.3599712,
    "nearest_airport": "INN",
    "description": "Auto-imported SCENIC_POINT. Altitude: N/Am"
  },
  "naturkino": {
    "name": "Naturkino",
    "slug": "naturkino",
    "category": "SCENIC_POINT",
    "region": "Alps",
    "country": "Europe",
    "lat": 47.5115174,
    "lng": 11.1419092,
    "nearest_airport": "INN",
    "description": "Auto-imported SCENIC_POINT. Altitude: N/Am"
  },
  "naturreservat": {
    "name": "Naturreservat",
    "slug": "naturreservat",
    "category": "SCENIC_POINT",
    "region": "Alps",
    "country": "Europe",
    "lat": 47.5869649,
    "lng": 7.8793674,
    "nearest_airport": "ZRH",
    "description": "Auto-imported SCENIC_POINT. Altitude: N/Am"
  },
  "naturschauplatz-gletscherblick": {
    "name": "Naturschauplatz Gletscherblick",
    "slug": "naturschauplatz-gletscherblick",
    "category": "SCENIC_POINT",
    "region": "Alps",
    "country": "Europe",
    "lat": 47.1306412,
    "lng": 11.2871382,
    "nearest_airport": "INN",
    "description": "Auto-imported SCENIC_POINT. Altitude: N/Am"
  },
  "naturschauplatz-neustiftblick": {
    "name": "Naturschauplatz Neustiftblick",
    "slug": "naturschauplatz-neustiftblick",
    "category": "SCENIC_POINT",
    "region": "Alps",
    "country": "Europe",
    "lat": 47.1228458,
    "lng": 11.3147821,
    "nearest_airport": "INN",
    "description": "Auto-imported SCENIC_POINT. Altitude: N/Am"
  },
  "naturschauplatz-telfer-wiesen": {
    "name": "Naturschauplatz Telfer Wiesen",
    "slug": "naturschauplatz-telfer-wiesen",
    "category": "SCENIC_POINT",
    "region": "Alps",
    "country": "Europe",
    "lat": 47.1794372,
    "lng": 11.3713554,
    "nearest_airport": "INN",
    "description": "Auto-imported SCENIC_POINT. Altitude: N/Am"
  },
  "naturstation-atzenberg": {
    "name": "Naturstation Atzenberg",
    "slug": "naturstation-atzenberg",
    "category": "SCENIC_POINT",
    "region": "Alps",
    "country": "Europe",
    "lat": 47.9948069,
    "lng": 9.5813242,
    "nearest_airport": "ZRH",
    "description": "Auto-imported SCENIC_POINT. Altitude: N/Am"
  },
  "naviser-jochl": {
    "name": "Naviser Jöchl",
    "slug": "naviser-jochl",
    "category": "MOUNTAIN_PASS",
    "region": "Alps",
    "country": "Europe",
    "lat": 47.1699432,
    "lng": 11.5655126,
    "nearest_airport": "INN",
    "description": "Auto-imported MOUNTAIN_PASS. Altitude: 2479m"
  },
  "naviser-jochl-305": {
    "name": "Naviser Jöchl",
    "slug": "naviser-jochl-305",
    "category": "MOUNTAIN_PASS",
    "region": "Alps",
    "country": "",
    "lat": 47.1699432,
    "lng": 11.5655126,
    "nearest_airport": "",
    "description": "Verified Location."
  }
}