{
  "nockentalblick": {
    "name": "Nöckentalblick",
    "slug": "nockentalblick",
    "category": "SCENIC_POINT",
    "region": "Alps",
    "country": "Europe",
    "lat": 47.2461643,
    "lng": 12.032069,
    "nearest_airport": "INN",
    "description": "Auto-imported SCENIC_POINT. Altitude: N/Am"
  },
  "nocksteinkehre": {
    "name": "Nocksteinkehre",
    "slug": "nocksteinkehre",
    "category": "SCENIC_POINT",
    "region": "Alps",
    "country": "Europe",
    "lat": 47.8033197,
    "lng": 13.1234059,
    "nearest_airport": "SZG",
    "description": "Auto-imported SCENIC_POINT. Altitude: N/Am"
  },
  "nogg": {
    "name": "Nogg",
    "slug": "nogg",
    "category": "SCENIC_POINT",
    "region": "Alps",
    "country": "Europe",
    "lat": 47.6820172,
    "lng": 12.0019923,
    "nearest_airport": "INN",
    "description": "Auto-imported SCENIC_POINT. Altitude: 950m"
  },
  "nojer": {
    "name": "Nojer",
    "slug": "nojer",
    "category": "SCENIC_POINT",
    "region": "Alps",
    "country": "Europe",
    "lat": 47.552338,
    "lng": 14.1038637,
    "nearest_airport": "SZG",
    "description": "Auto-imported SCENIC_POINT. Altitude: N/Am"
  },
  "norbertshohe": {
    "name": "Norbertshöhe",
    "slug": "norbertshohe",
    "category": "MOUNTAIN_PASS",
    "region": "Alps",
    "country": "Europe",
    "lat": 46.8950995,
    "lng": 10.4849879,
    "nearest_airport": "INN",
    "description": "Auto-imported MOUNTAIN_PASS. Altitude: 1405m"
  },
  "norbertshohe-1860": {
    "name": "Norbertshöhe",
    "slug": "norbertshohe-1860",
    "category": "MOUNTAIN_PASS",
    "region": "Alps",
    "country": "",
    "lat": 46.8950995,
    "lng": 10.4849879,
    "nearest_airport": "",
    "description": "Verified Location."
  },
  "norderjochl": {
    "name": "Nörderjöchl",
    "slug": "norderjochl",
    "category": "MOUNTAIN_PASS",
    "region": "Alps",
    "country": "Europe",
    "lat": 46.86477,
    "lng": 10.7240716,
    "nearest_airport": "INN",
    "description": "Auto-imported MOUNTAIN_PASS. Altitude: 2830m"
  },
  "norderjochl-1038": {
    "name": "Nörderjöchl",
    "slug": "norderjochl-1038",
    "category": "MOUNTAIN_PASS",
    "region": "Alps",
    "country": "",
    "lat": 46.86477,
    "lng": 10.7240716,
    "nearest_airport": "",
    "description": "Verified Location."
  },
  "norderscharte": {
    "name": "Nörderscharte",
    "slug": "norderscharte",
    "category": "MOUNTAIN_PASS",
    "region": "Alps",
    "country": "Europe",
    "lat": 46.6058367,
    "lng": 11.0258805,
    "nearest_airport": "INN",
    "description": "Auto-imported MOUNTAIN_PASS. Altitude: 2372m"
  },
  "norderscharte-392": {
    "name": "Nörderscharte",
    "slug": "norderscharte-392",
    "category": "MOUNTAIN_PASS",
    "region": "Alps",
    "country": "",
    "lat": 46.6058367,
    "lng": 11.0258805,
    "nearest_airport": "",
    "description": "Verified Location."
  },
  "nordliche-bockkarscharte": {
    "name": "Nördliche Bockkarscharte",
    "slug": "nordliche-bockkarscharte",
    "category": "MOUNTAIN_PASS",
    "region": "Alps",
    "country": "Europe",
    "lat": 47.2619825,
    "lng": 10.5682115,
    "nearest_airport": "INN",
    "description": "Auto-imported MOUNTAIN_PASS. Altitude: 2399m"
  },
  "nordliche-bockkarscharte-1086": {
    "name": "Nördliche Bockkarscharte",
    "slug": "nordliche-bockkarscharte-1086",
    "category": "MOUNTAIN_PASS",
    "region": "Alps",
    "country": "",
    "lat": 47.2619825,
    "lng": 10.5682115,
    "nearest_airport": "",
    "description": "Verified Location."
  },
  "nordliche-morchenscharte": {
    "name": "Nördliche Mörchenscharte",
    "slug": "nordliche-morchenscharte",
    "category": "MOUNTAIN_PASS",
    "region": "Alps",
    "country": "Europe",
    "lat": 47.0431967,
    "lng": 11.8501823,
    "nearest_airport": "INN",
    "description": "Auto-imported MOUNTAIN_PASS. Altitude: 2872m"
  },
  "nordliche-morchenscharte-1659": {
    "name": "Nördliche Mörchenscharte",
    "slug": "nordliche-morchenscharte-1659",
    "category": "MOUNTAIN_PASS",
    "region": "Alps",
    "country": "",
    "lat": 47.0431967,
    "lng": 11.8501823,
    "nearest_airport": "",
    "description": "Verified Location."
  },
  "nordliche-odkarscharte": {
    "name": "Nördliche Ödkarscharte",
    "slug": "nordliche-odkarscharte",
    "category": "MOUNTAIN_PASS",
    "region": "Alps",
    "country": "Europe",
    "lat": 47.4216176,
    "lng": 11.4109339,
    "nearest_airport": "INN",
    "description": "Auto-imported MOUNTAIN_PASS. Altitude: 2092m"
  },
  "nordliche-odkarscharte-945": {
    "name": "Nördliche Ödkarscharte",
    "slug": "nordliche-odkarscharte-945",
    "category": "MOUNTAIN_PASS",
    "region": "Alps",
    "country": "",
    "lat": 47.4216176,
    "lng": 11.4109339,
    "nearest_airport": "",
    "description": "Verified Location."
  },
  "nordliche-parzinnscharte": {
    "name": "Nördliche Parzinnscharte",
    "slug": "nordliche-parzinnscharte",
    "category": "MOUNTAIN_PASS",
    "region": "Alps",
    "country": "Europe",
    "lat": 47.2370537,
    "lng": 10.5756245,
    "nearest_airport": "INN",
    "description": "Auto-imported MOUNTAIN_PASS. Altitude: 2504m"
  },
  "nordliche-parzinnscharte-1084": {
    "name": "Nördliche Parzinnscharte",
    "slug": "nordliche-parzinnscharte-1084",
    "category": "MOUNTAIN_PASS",
    "region": "Alps",
    "country": "",
    "lat": 47.2370537,
    "lng": 10.5756245,
    "nearest_airport": "",
    "description": "Verified Location."
  },
  "nordliches-neederseitenjoch": {
    "name": "Nördliches Neederseitenjoch",
    "slug": "nordliches-neederseitenjoch",
    "category": "MOUNTAIN_PASS",
    "region": "Alps",
    "country": "Europe",
    "lat": 46.856574,
    "lng": 10.9728129,
    "nearest_airport": "INN",
    "description": "Auto-imported MOUNTAIN_PASS. Altitude: 3274m"
  },
  "nordliches-neederseitenjoch-3390": {
    "name": "Nördliches Neederseitenjoch",
    "slug": "nordliches-neederseitenjoch-3390",
    "category": "MOUNTAIN_PASS",
    "region": "Alps",
    "country": "",
    "lat": 46.856574,
    "lng": 10.9728129,
    "nearest_airport": "",
    "description": "Verified Location."
  },
  "nordliches-pollesjoch": {
    "name": "Nördliches Pollesjoch",
    "slug": "nordliches-pollesjoch",
    "category": "MOUNTAIN_PASS",
    "region": "Alps",
    "country": "Europe",
    "lat": 46.9481244,
    "lng": 10.9134553,
    "nearest_airport": "INN",
    "description": "Auto-imported MOUNTAIN_PASS. Altitude: 2927m"
  },
  "nordliches-pollesjoch-989": {
    "name": "Nördliches Pollesjoch",
    "slug": "nordliches-pollesjoch-989",
    "category": "MOUNTAIN_PASS",
    "region": "Alps",
    "country": "",
    "lat": 46.9481244,
    "lng": 10.9134553,
    "nearest_airport": "",
    "description": "Verified Location."
  },
  "noringsattel": {
    "name": "Nöringsattel",
    "slug": "noringsattel",
    "category": "MOUNTAIN_PASS",
    "region": "Alps",
    "country": "Europe",
    "lat": 46.8557963,
    "lng": 13.6275799,
    "nearest_airport": "SZG",
    "description": "Auto-imported MOUNTAIN_PASS. Altitude: 1665m"
  },
  "noringsattel-1904": {
    "name": "Nöringsattel",
    "slug": "noringsattel-1904",
    "category": "MOUNTAIN_PASS",
    "region": "Alps",
    "country": "",
    "lat": 46.8557963,
    "lng": 13.6275799,
    "nearest_airport": "",
    "description": "Verified Location."
  },
  "nostra-signora-di-palestina": {
    "name": "Nostra Signora di Palestina",
    "slug": "nostra-signora-di-palestina",
    "category": "SCENIC_POINT",
    "region": "Alps",
    "country": "Europe",
    "lat": 45.4877328,
    "lng": 7.7424809,
    "nearest_airport": "TRN",
    "description": "Auto-imported SCENIC_POINT. Altitude: N/Am"
  },
  "notlandersattel": {
    "name": "Notländersattel",
    "slug": "notlandersattel",
    "category": "MOUNTAIN_PASS",
    "region": "Alps",
    "country": "Europe",
    "lat": 47.4407914,
    "lng": 10.5651687,
    "nearest_airport": "INN",
    "description": "Auto-imported MOUNTAIN_PASS. Altitude: 1839m"
  },
  "notre-dame-de-bonne-nouvelle": {
    "name": "Notre-Dame-de-Bonne-Nouvelle",
    "slug": "notre-dame-de-bonne-nouvelle",
    "category": "SCENIC_POINT",
    "region": "Alps",
    "country": "Europe",
    "lat": 45.2812266,
    "lng": 6.3407971,
    "nearest_airport": "TRN",
    "description": "Auto-imported SCENIC_POINT. Altitude: N/Am"
  },
  "notre-dame-du-chateau": {
    "name": "Notre-dame du Château",
    "slug": "notre-dame-du-chateau",
    "category": "SCENIC_POINT",
    "region": "Alps",
    "country": "Europe",
    "lat": 45.4343628,
    "lng": 5.715192,
    "nearest_airport": "GVA",
    "description": "Auto-imported SCENIC_POINT. Altitude: N/Am"
  },
  "notre-dame-du-mont": {
    "name": "Notre-Dame du Mont",
    "slug": "notre-dame-du-mont",
    "category": "SCENIC_POINT",
    "region": "Alps",
    "country": "Europe",
    "lat": 47.1077841,
    "lng": 6.1513804,
    "nearest_airport": "GVA",
    "description": "Auto-imported SCENIC_POINT. Altitude: N/Am"
  },
  "notre-dame-du-renouveau": {
    "name": "Notre-Dame du Renouveau",
    "slug": "notre-dame-du-renouveau",
    "category": "SCENIC_POINT",
    "region": "Alps",
    "country": "Europe",
    "lat": 47.6454973,
    "lng": 5.512822,
    "nearest_airport": "GVA",
    "description": "Auto-imported SCENIC_POINT. Altitude: N/Am"
  },
  "notschrei": {
    "name": "Notschrei",
    "slug": "notschrei",
    "category": "MOUNTAIN_PASS",
    "region": "Alps",
    "country": "Europe",
    "lat": 47.8762639,
    "lng": 7.9096517,
    "nearest_airport": "ZRH",
    "description": "Auto-imported MOUNTAIN_PASS. Altitude: 1120m"
  },
  "notschrei-2430": {
    "name": "Notschrei",
    "slug": "notschrei-2430",
    "category": "MOUNTAIN_PASS",
    "region": "Alps",
    "country": "",
    "lat": 47.8762639,
    "lng": 7.9096517,
    "nearest_airport": "",
    "description": "Verified Location."
  },
  "novi-vrh": {
    "name": "Novi vrh",
    "slug": "novi-vrh",
    "category": "SCENIC_POINT",
    "region": "Alps",
    "country": "Europe",
    "lat": 46.2258927,
    "lng": 13.8757909,
    "nearest_airport": "VCE",
    "description": "Auto-imported SCENIC_POINT. Altitude: 1942m"
  }
}