{
  "passo-dal-cantun": {
    "name": "Passo dal Cantun",
    "slug": "passo-dal-cantun",
    "category": "MOUNTAIN_PASS",
    "region": "Alps",
    "country": "Europe",
    "lat": 46.3070141,
    "lng": 9.6782842,
    "nearest_airport": "MXP",
    "description": "Auto-imported MOUNTAIN_PASS. Altitude: 3261m"
  },
  "passo-dal-cantun-3609": {
    "name": "Passo dal Cantun",
    "slug": "passo-dal-cantun-3609",
    "category": "MOUNTAIN_PASS",
    "region": "Alps",
    "country": "",
    "lat": 46.3070141,
    "lng": 9.6782842,
    "nearest_airport": "",
    "description": "Verified Location."
  },
  "passo-dannibale": {
    "name": "Passo D'Annibale",
    "slug": "passo-dannibale",
    "category": "SCENIC_POINT",
    "region": "Alps",
    "country": "Europe",
    "lat": 44.1222689,
    "lng": 10.623147,
    "nearest_airport": "VCE",
    "description": "Auto-imported SCENIC_POINT. Altitude: N/Am"
  },
  "passo-daone": {
    "name": "Passo Daone",
    "slug": "passo-daone",
    "category": "MOUNTAIN_PASS",
    "region": "Alps",
    "country": "Europe",
    "lat": 46.0785849,
    "lng": 10.7455235,
    "nearest_airport": "INN",
    "description": "Auto-imported MOUNTAIN_PASS. Altitude: 1290m"
  },
  "passo-dar-loup": {
    "name": "Passo Dar Loup",
    "slug": "passo-dar-loup",
    "category": "MOUNTAIN_PASS",
    "region": "Alps",
    "country": "Europe",
    "lat": 44.8390402,
    "lng": 7.0594923,
    "nearest_airport": "TRN",
    "description": "Auto-imported MOUNTAIN_PASS. Altitude: 2532m"
  },
  "passo-dar-loup-3876": {
    "name": "Passo Dar Loup",
    "slug": "passo-dar-loup-3876",
    "category": "MOUNTAIN_PASS",
    "region": "Alps",
    "country": "",
    "lat": 44.8390402,
    "lng": 7.0594923,
    "nearest_airport": "",
    "description": "Verified Location."
  },
  "passo-darena": {
    "name": "Passo d'Arena",
    "slug": "passo-darena",
    "category": "MOUNTAIN_PASS",
    "region": "Alps",
    "country": "Europe",
    "lat": 44.4730649,
    "lng": 9.277362,
    "nearest_airport": "MXP",
    "description": "Auto-imported MOUNTAIN_PASS. Altitude: 908m"
  },
  "passo-darnigo": {
    "name": "Passo d'Arnigo",
    "slug": "passo-darnigo",
    "category": "MOUNTAIN_PASS",
    "region": "Alps",
    "country": "Europe",
    "lat": 46.0952733,
    "lng": 8.1717522,
    "nearest_airport": "MXP",
    "description": "Auto-imported MOUNTAIN_PASS. Altitude: 1990m"
  },
  "passo-dasdana": {
    "name": "Passo Dasdana",
    "slug": "passo-dasdana",
    "category": "MOUNTAIN_PASS",
    "region": "Alps",
    "country": "Europe",
    "lat": 45.8426989,
    "lng": 10.3716319,
    "nearest_airport": "MXP",
    "description": "Auto-imported MOUNTAIN_PASS. Altitude: 2086m"
  },
  "passo-dasdana-163": {
    "name": "Passo Dasdana",
    "slug": "passo-dasdana-163",
    "category": "MOUNTAIN_PASS",
    "region": "Alps",
    "country": "",
    "lat": 45.8426989,
    "lng": 10.3716319,
    "nearest_airport": "",
    "description": "Verified Location."
  },
  "passo-davero": {
    "name": "Passo d'Avero",
    "slug": "passo-davero",
    "category": "MOUNTAIN_PASS",
    "region": "Alps",
    "country": "Europe",
    "lat": 46.3600701,
    "lng": 9.420655,
    "nearest_airport": "MXP",
    "description": "Auto-imported MOUNTAIN_PASS. Altitude: 2321m"
  },
  "passo-davero-1164": {
    "name": "Passo d'Avero",
    "slug": "passo-davero-1164",
    "category": "MOUNTAIN_PASS",
    "region": "Alps",
    "country": "",
    "lat": 46.3600701,
    "lng": 9.420655,
    "nearest_airport": "",
    "description": "Verified Location."
  },
  "passo-daviasco-occidentale": {
    "name": "Passo d'Aviasco occidentale",
    "slug": "passo-daviasco-occidentale",
    "category": "MOUNTAIN_PASS",
    "region": "Alps",
    "country": "Europe",
    "lat": 46.0035763,
    "lng": 9.8398103,
    "nearest_airport": "MXP",
    "description": "Auto-imported MOUNTAIN_PASS. Altitude: 2289m"
  },
  "passo-daviasco-occidentale-3475": {
    "name": "Passo d'Aviasco occidentale",
    "slug": "passo-daviasco-occidentale-3475",
    "category": "MOUNTAIN_PASS",
    "region": "Alps",
    "country": "",
    "lat": 46.0035763,
    "lng": 9.8398103,
    "nearest_airport": "",
    "description": "Verified Location."
  },
  "passo-davolo": {
    "name": "Passo d'Avolo",
    "slug": "passo-davolo",
    "category": "MOUNTAIN_PASS",
    "region": "Alps",
    "country": "Europe",
    "lat": 46.0558775,
    "lng": 10.487702,
    "nearest_airport": "MXP",
    "description": "Auto-imported MOUNTAIN_PASS. Altitude: 2553m"
  },
  "passo-davolo-2916": {
    "name": "Passo d'Avolo",
    "slug": "passo-davolo-2916",
    "category": "MOUNTAIN_PASS",
    "region": "Alps",
    "country": "",
    "lat": 46.0558775,
    "lng": 10.487702,
    "nearest_airport": "",
    "description": "Verified Location."
  },
  "passo-de-la-nona": {
    "name": "Passo de la Nòna",
    "slug": "passo-de-la-nona",
    "category": "MOUNTAIN_PASS",
    "region": "Alps",
    "country": "Europe",
    "lat": 46.1949519,
    "lng": 10.7320412,
    "nearest_airport": "INN",
    "description": "Auto-imported MOUNTAIN_PASS. Altitude: 2318m"
  },
  "passo-de-la-nona-2551": {
    "name": "Passo de la Nòna",
    "slug": "passo-de-la-nona-2551",
    "category": "MOUNTAIN_PASS",
    "region": "Alps",
    "country": "",
    "lat": 46.1949519,
    "lng": 10.7320412,
    "nearest_airport": "",
    "description": "Verified Location."
  },
  "passo-de-la-sotan": {
    "name": "Passo de la Sotan",
    "slug": "passo-de-la-sotan",
    "category": "MOUNTAIN_PASS",
    "region": "Alps",
    "country": "Europe",
    "lat": 45.9459362,
    "lng": 11.2786907,
    "nearest_airport": "VCE",
    "description": "Auto-imported MOUNTAIN_PASS. Altitude: 1350m"
  },
  "passo-degli-acandoli": {
    "name": "Passo degli Acandoli",
    "slug": "passo-degli-acandoli",
    "category": "MOUNTAIN_PASS",
    "region": "Alps",
    "country": "Europe",
    "lat": 43.9874357,
    "lng": 11.0579775,
    "nearest_airport": "VCE",
    "description": "Auto-imported MOUNTAIN_PASS. Altitude: 860m"
  },
  "passo-degli-agnelli": {
    "name": "Passo degli Agnelli",
    "slug": "passo-degli-agnelli",
    "category": "MOUNTAIN_PASS",
    "region": "Alps",
    "country": "Europe",
    "lat": 45.9491787,
    "lng": 10.0433097,
    "nearest_airport": "MXP",
    "description": "Auto-imported MOUNTAIN_PASS. Altitude: 1950m"
  },
  "passo-degli-alberghetti": {
    "name": "Passo degli Alberghetti",
    "slug": "passo-degli-alberghetti",
    "category": "MOUNTAIN_PASS",
    "region": "Alps",
    "country": "Europe",
    "lat": 45.8001597,
    "lng": 11.2014803,
    "nearest_airport": "VCE",
    "description": "Auto-imported MOUNTAIN_PASS. Altitude: 1899m"
  },
  "passo-degli-alpini": {
    "name": "Passo degli Alpini",
    "slug": "passo-degli-alpini",
    "category": "MOUNTAIN_PASS",
    "region": "Alps",
    "country": "Europe",
    "lat": 46.1926406,
    "lng": 10.4419458,
    "nearest_airport": "INN",
    "description": "Auto-imported MOUNTAIN_PASS. Altitude: 2845m"
  },
  "passo-degli-alpini-1358": {
    "name": "Passo degli Alpini",
    "slug": "passo-degli-alpini-1358",
    "category": "MOUNTAIN_PASS",
    "region": "Alps",
    "country": "",
    "lat": 46.1926406,
    "lng": 10.4419458,
    "nearest_airport": "",
    "description": "Verified Location."
  },
  "passo-degli-inglesi": {
    "name": "Passo degli Inglesi",
    "slug": "passo-degli-inglesi",
    "category": "MOUNTAIN_PASS",
    "region": "Alps",
    "country": "Europe",
    "lat": 46.1595922,
    "lng": 10.5108567,
    "nearest_airport": "INN",
    "description": "Auto-imported MOUNTAIN_PASS. Altitude: 3311m"
  },
  "passo-degli-inglesi-1360": {
    "name": "Passo degli Inglesi",
    "slug": "passo-degli-inglesi-1360",
    "category": "MOUNTAIN_PASS",
    "region": "Alps",
    "country": "",
    "lat": 46.1595922,
    "lng": 10.5108567,
    "nearest_airport": "",
    "description": "Verified Location."
  },
  "passo-degli-italiani": {
    "name": "Passo degli Italiani",
    "slug": "passo-degli-italiani",
    "category": "MOUNTAIN_PASS",
    "region": "Alps",
    "country": "Europe",
    "lat": 46.1608826,
    "lng": 10.5149794,
    "nearest_airport": "INN",
    "description": "Auto-imported MOUNTAIN_PASS. Altitude: 3350m"
  },
  "passo-degli-italiani-947": {
    "name": "Passo degli Italiani",
    "slug": "passo-degli-italiani-947",
    "category": "MOUNTAIN_PASS",
    "region": "Alps",
    "country": "",
    "lat": 46.1608826,
    "lng": 10.5149794,
    "nearest_airport": "",
    "description": "Verified Location."
  },
  "passo-degli-ometti": {
    "name": "Passo degli Ometti",
    "slug": "passo-degli-ometti",
    "category": "MOUNTAIN_PASS",
    "region": "Alps",
    "country": "Europe",
    "lat": 46.271864,
    "lng": 9.9572037,
    "nearest_airport": "MXP",
    "description": "Auto-imported MOUNTAIN_PASS. Altitude: 2767m"
  },
  "passo-degli-ometti-3481": {
    "name": "Passo degli Ometti",
    "slug": "passo-degli-ometti-3481",
    "category": "MOUNTAIN_PASS",
    "region": "Alps",
    "country": "",
    "lat": 46.271864,
    "lng": 9.9572037,
    "nearest_airport": "",
    "description": "Verified Location."
  },
  "passo-degli-omini": {
    "name": "Passo degli Omini",
    "slug": "passo-degli-omini",
    "category": "MOUNTAIN_PASS",
    "region": "Alps",
    "country": "Europe",
    "lat": 45.9685843,
    "lng": 10.0034548,
    "nearest_airport": "MXP",
    "description": "Auto-imported MOUNTAIN_PASS. Altitude: 2078m"
  },
  "passo-degli-omini-3211": {
    "name": "Passo degli Omini",
    "slug": "passo-degli-omini-3211",
    "category": "MOUNTAIN_PASS",
    "region": "Alps",
    "country": "",
    "lat": 45.9685843,
    "lng": 10.0034548,
    "nearest_airport": "",
    "description": "Verified Location."
  },
  "passo-degli-onari": {
    "name": "Passo degli Onari",
    "slug": "passo-degli-onari",
    "category": "MOUNTAIN_PASS",
    "region": "Alps",
    "country": "Europe",
    "lat": 45.7454615,
    "lng": 11.1768995,
    "nearest_airport": "VCE",
    "description": "Auto-imported MOUNTAIN_PASS. Altitude: 1760m"
  },
  "passo-degli-scaloni": {
    "name": "Passo degli Scaloni",
    "slug": "passo-degli-scaloni",
    "category": "MOUNTAIN_PASS",
    "region": "Alps",
    "country": "Europe",
    "lat": 44.2346862,
    "lng": 10.4160163,
    "nearest_airport": "MXP",
    "description": "Auto-imported MOUNTAIN_PASS. Altitude: 1928m"
  },
  "passo-degli-spiriti": {
    "name": "Passo degli Spiriti",
    "slug": "passo-degli-spiriti",
    "category": "MOUNTAIN_PASS",
    "region": "Alps",
    "country": "Europe",
    "lat": 46.4941993,
    "lng": 10.4824167,
    "nearest_airport": "INN",
    "description": "Auto-imported MOUNTAIN_PASS. Altitude: 3373m"
  },
  "passo-degli-spiriti-1277": {
    "name": "Passo degli Spiriti",
    "slug": "passo-degli-spiriti-1277",
    "category": "MOUNTAIN_PASS",
    "region": "Alps",
    "country": "",
    "lat": 46.4941993,
    "lng": 10.4824167,
    "nearest_airport": "",
    "description": "Verified Location."
  },
  "passo-degli-uomini-della-neve": {
    "name": "Passo degli uomini della neve",
    "slug": "passo-degli-uomini-della-neve",
    "category": "MOUNTAIN_PASS",
    "region": "Alps",
    "country": "Europe",
    "lat": 44.033923,
    "lng": 10.32889,
    "nearest_airport": "MXP",
    "description": "Auto-imported MOUNTAIN_PASS. Altitude: 1670m"
  },
  "passo-dei-branchi": {
    "name": "Passo dei Branchi",
    "slug": "passo-dei-branchi",
    "category": "MOUNTAIN_PASS",
    "region": "Alps",
    "country": "Europe",
    "lat": 45.7106534,
    "lng": 11.2590382,
    "nearest_airport": "VCE",
    "description": "Auto-imported MOUNTAIN_PASS. Altitude: 728m"
  },
  "passo-dei-cacciatori": {
    "name": "Passo dei Cacciatori",
    "slug": "passo-dei-cacciatori",
    "category": "MOUNTAIN_PASS",
    "region": "Alps",
    "country": "Europe",
    "lat": 46.6240189,
    "lng": 12.7370277,
    "nearest_airport": "INN",
    "description": "Auto-imported MOUNTAIN_PASS. Altitude: 2213m"
  },
  "passo-dei-cacciatori-2379": {
    "name": "Passo dei Cacciatori",
    "slug": "passo-dei-cacciatori-2379",
    "category": "MOUNTAIN_PASS",
    "region": "Alps",
    "country": "",
    "lat": 46.6240189,
    "lng": 12.7370277,
    "nearest_airport": "",
    "description": "Verified Location."
  },
  "passo-dei-camosci-alto": {
    "name": "Passo dei Camosci Alto",
    "slug": "passo-dei-camosci-alto",
    "category": "MOUNTAIN_PASS",
    "region": "Alps",
    "country": "Europe",
    "lat": 46.4918536,
    "lng": 10.5118467,
    "nearest_airport": "INN",
    "description": "Auto-imported MOUNTAIN_PASS. Altitude: 3177m"
  },
  "passo-dei-camosci-alto-1274": {
    "name": "Passo dei Camosci Alto",
    "slug": "passo-dei-camosci-alto-1274",
    "category": "MOUNTAIN_PASS",
    "region": "Alps",
    "country": "",
    "lat": 46.4918536,
    "lng": 10.5118467,
    "nearest_airport": "",
    "description": "Verified Location."
  },
  "passo-dei-camosci-basso": {
    "name": "Passo dei Camosci Basso",
    "slug": "passo-dei-camosci-basso",
    "category": "MOUNTAIN_PASS",
    "region": "Alps",
    "country": "Europe",
    "lat": 46.4882077,
    "lng": 10.5115078,
    "nearest_airport": "INN",
    "description": "Auto-imported MOUNTAIN_PASS. Altitude: 2800m"
  },
  "passo-dei-camosci-basso-1272": {
    "name": "Passo dei Camosci Basso",
    "slug": "passo-dei-camosci-basso-1272",
    "category": "MOUNTAIN_PASS",
    "region": "Alps",
    "country": "",
    "lat": 46.4882077,
    "lng": 10.5115078,
    "nearest_airport": "",
    "description": "Verified Location."
  },
  "passo-dei-carpinelli": {
    "name": "Passo dei Carpinelli",
    "slug": "passo-dei-carpinelli",
    "category": "MOUNTAIN_PASS",
    "region": "Alps",
    "country": "Europe",
    "lat": 44.2003324,
    "lng": 10.2316052,
    "nearest_airport": "MXP",
    "description": "Auto-imported MOUNTAIN_PASS. Altitude: 842m"
  },
  "passo-dei-casoni": {
    "name": "Passo dei Casoni",
    "slug": "passo-dei-casoni",
    "category": "MOUNTAIN_PASS",
    "region": "Alps",
    "country": "Europe",
    "lat": 44.2799231,
    "lng": 9.8087512,
    "nearest_airport": "MXP",
    "description": "Auto-imported MOUNTAIN_PASS. Altitude: 992m"
  },
  "passo-dei-casoni-652": {
    "name": "Passo dei Casoni",
    "slug": "passo-dei-casoni-652",
    "category": "MOUNTAIN_PASS",
    "region": "Alps",
    "country": "",
    "lat": 44.2799231,
    "lng": 9.8087512,
    "nearest_airport": "",
    "description": "Verified Location."
  },
  "passo-dei-cavalli": {
    "name": "Passo dei Cavalli",
    "slug": "passo-dei-cavalli",
    "category": "MOUNTAIN_PASS",
    "region": "Alps",
    "country": "Europe",
    "lat": 46.3172215,
    "lng": 8.3351254,
    "nearest_airport": "MXP",
    "description": "Auto-imported MOUNTAIN_PASS. Altitude: 2403m"
  },
  "passo-dei-cavalli-3773": {
    "name": "Passo dei Cavalli",
    "slug": "passo-dei-cavalli-3773",
    "category": "MOUNTAIN_PASS",
    "region": "Alps",
    "country": "",
    "lat": 46.3172215,
    "lng": 8.3351254,
    "nearest_airport": "",
    "description": "Verified Location."
  },
  "passo-dei-cerrini": {
    "name": "Passo dei Cerrini",
    "slug": "passo-dei-cerrini",
    "category": "MOUNTAIN_PASS",
    "region": "Alps",
    "country": "Europe",
    "lat": 43.8110413,
    "lng": 11.881717,
    "nearest_airport": "VCE",
    "description": "Auto-imported MOUNTAIN_PASS. Altitude: 1229m"
  },
  "passo-dei-codognini": {
    "name": "Passo dei Codognini",
    "slug": "passo-dei-codognini",
    "category": "SCENIC_POINT",
    "region": "Alps",
    "country": "Europe",
    "lat": 44.4114389,
    "lng": 9.6350967,
    "nearest_airport": "MXP",
    "description": "Auto-imported SCENIC_POINT. Altitude: N/Am"
  },
  "passo-dei-colletti": {
    "name": "Passo dei Colletti",
    "slug": "passo-dei-colletti",
    "category": "MOUNTAIN_PASS",
    "region": "Alps",
    "country": "Europe",
    "lat": 44.5386242,
    "lng": 9.1530347,
    "nearest_airport": "MXP",
    "description": "Auto-imported MOUNTAIN_PASS. Altitude: 1297m"
  },
  "passo-dei-diavoli": {
    "name": "Passo dei Diavoli",
    "slug": "passo-dei-diavoli",
    "category": "MOUNTAIN_PASS",
    "region": "Alps",
    "country": "Europe",
    "lat": 46.1777719,
    "lng": 11.6067578,
    "nearest_airport": "VCE",
    "description": "Auto-imported MOUNTAIN_PASS. Altitude: 2729m"
  },
  "passo-dei-diavoli-3586": {
    "name": "Passo dei Diavoli",
    "slug": "passo-dei-diavoli-3586",
    "category": "MOUNTAIN_PASS",
    "region": "Alps",
    "country": "",
    "lat": 46.1777719,
    "lng": 11.6067578,
    "nearest_airport": "",
    "description": "Verified Location."
  },
  "passo-dei-duc": {
    "name": "Passo dei Duc",
    "slug": "passo-dei-duc",
    "category": "MOUNTAIN_PASS",
    "region": "Alps",
    "country": "Europe",
    "lat": 44.6306178,
    "lng": 7.1133913,
    "nearest_airport": "TRN",
    "description": "Auto-imported MOUNTAIN_PASS. Altitude: 2796m"
  },
  "passo-dei-duc-3597": {
    "name": "Passo dei Duc",
    "slug": "passo-dei-duc-3597",
    "category": "MOUNTAIN_PASS",
    "region": "Alps",
    "country": "",
    "lat": 44.6306178,
    "lng": 7.1133913,
    "nearest_airport": "",
    "description": "Verified Location."
  },
  "passo-dei-due-santi": {
    "name": "Passo dei Due Santi",
    "slug": "passo-dei-due-santi",
    "category": "MOUNTAIN_PASS",
    "region": "Alps",
    "country": "Europe",
    "lat": 44.3886164,
    "lng": 9.75274,
    "nearest_airport": "MXP",
    "description": "Auto-imported MOUNTAIN_PASS. Altitude: 1392m"
  },
  "passo-dei-due-santi-1177": {
    "name": "Passo dei Due Santi",
    "slug": "passo-dei-due-santi-1177",
    "category": "MOUNTAIN_PASS",
    "region": "Alps",
    "country": "",
    "lat": 44.3886164,
    "lng": 9.75274,
    "nearest_airport": "",
    "description": "Verified Location."
  },
  "passo-dei-garofani": {
    "name": "Passo dei Garofani",
    "slug": "passo-dei-garofani",
    "category": "MOUNTAIN_PASS",
    "region": "Alps",
    "country": "Europe",
    "lat": 46.1364143,
    "lng": 11.3889364,
    "nearest_airport": "VCE",
    "description": "Auto-imported MOUNTAIN_PASS. Altitude: 2158m"
  },
  "passo-dei-garofani-249": {
    "name": "Passo dei Garofani",
    "slug": "passo-dei-garofani-249",
    "category": "MOUNTAIN_PASS",
    "region": "Alps",
    "country": "",
    "lat": 46.1364143,
    "lng": 11.3889364,
    "nearest_airport": "",
    "description": "Verified Location."
  },
  "passo-dei-gaton": {
    "name": "Passo dei Gatòn",
    "slug": "passo-dei-gaton",
    "category": "MOUNTAIN_PASS",
    "region": "Alps",
    "country": "Europe",
    "lat": 45.8391564,
    "lng": 10.7190376,
    "nearest_airport": "VCE",
    "description": "Auto-imported MOUNTAIN_PASS. Altitude: 1632m"
  },
  "passo-dei-ghiffi": {
    "name": "Passo dei Ghiffi",
    "slug": "passo-dei-ghiffi",
    "category": "MOUNTAIN_PASS",
    "region": "Alps",
    "country": "Europe",
    "lat": 44.4380631,
    "lng": 9.4456009,
    "nearest_airport": "MXP",
    "description": "Auto-imported MOUNTAIN_PASS. Altitude: 1067m"
  },
  "passo-dei-ghiffi-1477": {
    "name": "Passo dei Ghiffi",
    "slug": "passo-dei-ghiffi-1477",
    "category": "MOUNTAIN_PASS",
    "region": "Alps",
    "country": "",
    "lat": 44.4380631,
    "lng": 9.4456009,
    "nearest_airport": "",
    "description": "Verified Location."
  },
  "passo-dei-giovi": {
    "name": "Passo dei Giovi",
    "slug": "passo-dei-giovi",
    "category": "MOUNTAIN_PASS",
    "region": "Alps",
    "country": "Europe",
    "lat": 44.5521689,
    "lng": 8.9368658,
    "nearest_airport": "MXP",
    "description": "Auto-imported MOUNTAIN_PASS. Altitude: 472m"
  },
  "passo-dei-giovi-240": {
    "name": "Passo dei Giovi",
    "slug": "passo-dei-giovi-240",
    "category": "MOUNTAIN_PASS",
    "region": "Alps",
    "country": "",
    "lat": 44.5521689,
    "lng": 8.9368658,
    "nearest_airport": "",
    "description": "Verified Location."
  },
  "passo-dei-guselli": {
    "name": "Passo dei Guselli",
    "slug": "passo-dei-guselli",
    "category": "MOUNTAIN_PASS",
    "region": "Alps",
    "country": "Europe",
    "lat": 44.7380899,
    "lng": 9.6767002,
    "nearest_airport": "MXP",
    "description": "Auto-imported MOUNTAIN_PASS. Altitude: 917m"
  },
  "passo-dei-guselli-1899": {
    "name": "Passo dei Guselli",
    "slug": "passo-dei-guselli-1899",
    "category": "MOUNTAIN_PASS",
    "region": "Alps",
    "country": "",
    "lat": 44.7380899,
    "lng": 9.6767002,
    "nearest_airport": "",
    "description": "Verified Location."
  },
  "passo-dei-laghi-gemelli": {
    "name": "Passo dei Laghi Gemelli",
    "slug": "passo-dei-laghi-gemelli",
    "category": "MOUNTAIN_PASS",
    "region": "Alps",
    "country": "Europe",
    "lat": 45.9792792,
    "lng": 9.811076,
    "nearest_airport": "MXP",
    "description": "Auto-imported MOUNTAIN_PASS. Altitude: 2139m"
  },
  "passo-dei-laghi-gemelli-3485": {
    "name": "Passo dei Laghi Gemelli",
    "slug": "passo-dei-laghi-gemelli-3485",
    "category": "MOUNTAIN_PASS",
    "region": "Alps",
    "country": "",
    "lat": 45.9792792,
    "lng": 9.811076,
    "nearest_airport": "",
    "description": "Verified Location."
  },
  "passo-dei-lupatti": {
    "name": "Passo dei Lupatti",
    "slug": "passo-dei-lupatti",
    "category": "MOUNTAIN_PASS",
    "region": "Alps",
    "country": "Europe",
    "lat": 43.8091792,
    "lng": 11.9000109,
    "nearest_airport": "VCE",
    "description": "Auto-imported MOUNTAIN_PASS. Altitude: 1169m"
  },
  "passo-dei-mandrioli": {
    "name": "Passo dei Mandrioli",
    "slug": "passo-dei-mandrioli",
    "category": "MOUNTAIN_PASS",
    "region": "Alps",
    "country": "Europe",
    "lat": 43.7975131,
    "lng": 11.9150919,
    "nearest_airport": "VCE",
    "description": "Auto-imported MOUNTAIN_PASS. Altitude: 1173m"
  },
  "passo-dei-mandrioli-2765": {
    "name": "Passo dei Mandrioli",
    "slug": "passo-dei-mandrioli-2765",
    "category": "MOUNTAIN_PASS",
    "region": "Alps",
    "country": "",
    "lat": 43.7975131,
    "lng": 11.9150919,
    "nearest_airport": "",
    "description": "Verified Location."
  },
  "passo-dei-mesceut": {
    "name": "Passo dei Mesceut",
    "slug": "passo-dei-mesceut",
    "category": "MOUNTAIN_PASS",
    "region": "Alps",
    "country": "Europe",
    "lat": 46.6051975,
    "lng": 10.0988484,
    "nearest_airport": "INN",
    "description": "Auto-imported MOUNTAIN_PASS. Altitude: 2896m"
  },
  "passo-dei-mesceut-1267": {
    "name": "Passo dei Mesceut",
    "slug": "passo-dei-mesceut-1267",
    "category": "MOUNTAIN_PASS",
    "region": "Alps",
    "country": "",
    "lat": 46.6051975,
    "lng": 10.0988484,
    "nearest_airport": "",
    "description": "Verified Location."
  },
  "passo-dei-morte": {
    "name": "Passo Dei Mortè",
    "slug": "passo-dei-morte",
    "category": "MOUNTAIN_PASS",
    "region": "Alps",
    "country": "Europe",
    "lat": 46.3789186,
    "lng": 9.4112312,
    "nearest_airport": "MXP",
    "description": "Auto-imported MOUNTAIN_PASS. Altitude: 2711m"
  },
  "passo-dei-morte-1162": {
    "name": "Passo Dei Mortè",
    "slug": "passo-dei-morte-1162",
    "category": "MOUNTAIN_PASS",
    "region": "Alps",
    "country": "",
    "lat": 46.3789186,
    "lng": 9.4112312,
    "nearest_airport": "",
    "description": "Verified Location."
  },
  "passo-dei-morti": {
    "name": "Passo dei Morti",
    "slug": "passo-dei-morti",
    "category": "MOUNTAIN_PASS",
    "region": "Alps",
    "country": "Europe",
    "lat": 44.5583782,
    "lng": 9.5785539,
    "nearest_airport": "MXP",
    "description": "Auto-imported MOUNTAIN_PASS. Altitude: 1106m"
  },
  "passo-dei-pastori": {
    "name": "Passo dei Pastori",
    "slug": "passo-dei-pastori",
    "category": "MOUNTAIN_PASS",
    "region": "Alps",
    "country": "Europe",
    "lat": 46.5536213,
    "lng": 10.3704578,
    "nearest_airport": "INN",
    "description": "Auto-imported MOUNTAIN_PASS. Altitude: 2767m"
  },
  "passo-dei-pastori-1268": {
    "name": "Passo dei Pastori",
    "slug": "passo-dei-pastori-1268",
    "category": "MOUNTAIN_PASS",
    "region": "Alps",
    "country": "",
    "lat": 46.5536213,
    "lng": 10.3704578,
    "nearest_airport": "",
    "description": "Verified Location."
  },
  "passo-dei-porcelletti": {
    "name": "Passo dei Porcelletti",
    "slug": "passo-dei-porcelletti",
    "category": "MOUNTAIN_PASS",
    "region": "Alps",
    "country": "Europe",
    "lat": 44.4687323,
    "lng": 9.4704526,
    "nearest_airport": "MXP",
    "description": "Auto-imported MOUNTAIN_PASS. Altitude: 1460m"
  },
  "passo-dei-pozzi": {
    "name": "Passo dei Pozzi",
    "slug": "passo-dei-pozzi",
    "category": "MOUNTAIN_PASS",
    "region": "Alps",
    "country": "Europe",
    "lat": 46.244974,
    "lng": 10.6434119,
    "nearest_airport": "INN",
    "description": "Auto-imported MOUNTAIN_PASS. Altitude: 2608m"
  },
  "passo-dei-pozzi-3450": {
    "name": "Passo dei Pozzi",
    "slug": "passo-dei-pozzi-3450",
    "category": "MOUNTAIN_PASS",
    "region": "Alps",
    "country": "",
    "lat": 46.244974,
    "lng": 10.6434119,
    "nearest_airport": "",
    "description": "Verified Location."
  },
  "passo-dei-pozzoni": {
    "name": "Passo dei Pozzoni",
    "slug": "passo-dei-pozzoni",
    "category": "MOUNTAIN_PASS",
    "region": "Alps",
    "country": "Europe",
    "lat": 46.1252163,
    "lng": 10.6195141,
    "nearest_airport": "INN",
    "description": "Auto-imported MOUNTAIN_PASS. Altitude: 2814m"
  },
  "passo-dei-pozzoni-545": {
    "name": "Passo dei Pozzoni",
    "slug": "passo-dei-pozzoni-545",
    "category": "MOUNTAIN_PASS",
    "region": "Alps",
    "country": "",
    "lat": 46.1252163,
    "lng": 10.6195141,
    "nearest_airport": "",
    "description": "Verified Location."
  },
  "passo-dei-ramari": {
    "name": "Passo dei Ramari",
    "slug": "passo-dei-ramari",
    "category": "MOUNTAIN_PASS",
    "region": "Alps",
    "country": "Europe",
    "lat": 44.7454344,
    "lng": 9.3132296,
    "nearest_airport": "MXP",
    "description": "Auto-imported MOUNTAIN_PASS. Altitude: 1085m"
  },
  "passo-dei-ramari-3428": {
    "name": "Passo dei Ramari",
    "slug": "passo-dei-ramari-3428",
    "category": "MOUNTAIN_PASS",
    "region": "Alps",
    "country": "",
    "lat": 44.7454344,
    "lng": 9.3132296,
    "nearest_airport": "",
    "description": "Verified Location."
  },
  "passo-dei-ronchi": {
    "name": "Passo dei Ronchi",
    "slug": "passo-dei-ronchi",
    "category": "MOUNTAIN_PASS",
    "region": "Alps",
    "country": "Europe",
    "lat": 44.1626445,
    "lng": 10.8120876,
    "nearest_airport": "VCE",
    "description": "Auto-imported MOUNTAIN_PASS. Altitude: 1344m"
  },
  "passo-dei-rossi": {
    "name": "Passo dei Rossi",
    "slug": "passo-dei-rossi",
    "category": "MOUNTAIN_PASS",
    "region": "Alps",
    "country": "Europe",
    "lat": 45.9100706,
    "lng": 8.2407041,
    "nearest_airport": "MXP",
    "description": "Auto-imported MOUNTAIN_PASS. Altitude: 2056m"
  },
  "passo-dei-rossi-3334": {
    "name": "Passo dei Rossi",
    "slug": "passo-dei-rossi-3334",
    "category": "MOUNTAIN_PASS",
    "region": "Alps",
    "country": "",
    "lat": 45.9100706,
    "lng": 8.2407041,
    "nearest_airport": "",
    "description": "Verified Location."
  },
  "passo-dei-salati": {
    "name": "Passo dei Salati",
    "slug": "passo-dei-salati",
    "category": "MOUNTAIN_PASS",
    "region": "Alps",
    "country": "Europe",
    "lat": 45.8758914,
    "lng": 7.8682554,
    "nearest_airport": "MXP",
    "description": "Auto-imported MOUNTAIN_PASS. Altitude: 2980m"
  },
  "passo-dei-salati-530": {
    "name": "Passo dei Salati",
    "slug": "passo-dei-salati-530",
    "category": "MOUNTAIN_PASS",
    "region": "Alps",
    "country": "",
    "lat": 45.8758914,
    "lng": 7.8682554,
    "nearest_airport": "",
    "description": "Verified Location."
  },
  "passo-dei-salini": {
    "name": "Passo dei Salini",
    "slug": "passo-dei-salini",
    "category": "MOUNTAIN_PASS",
    "region": "Alps",
    "country": "Europe",
    "lat": 44.0227059,
    "lng": 7.7302176,
    "nearest_airport": "NCE",
    "description": "Auto-imported MOUNTAIN_PASS. Altitude: 1370m"
  },
  "passo-dei-sappadini-bladner-joch": {
    "name": "Passo dei Sappadini / Bladner Joch",
    "slug": "passo-dei-sappadini-bladner-joch",
    "category": "MOUNTAIN_PASS",
    "region": "Alps",
    "country": "Europe",
    "lat": 46.6361342,
    "lng": 12.7397442,
    "nearest_airport": "INN",
    "description": "Auto-imported MOUNTAIN_PASS. Altitude: 2126m"
  },
  "passo-dei-sappadini-bladner-joch-1753": {
    "name": "Passo dei Sappadini / Bladner Joch",
    "slug": "passo-dei-sappadini-bladner-joch-1753",
    "category": "MOUNTAIN_PASS",
    "region": "Alps",
    "country": "",
    "lat": 46.6361342,
    "lng": 12.7397442,
    "nearest_airport": "",
    "description": "Verified Location."
  },
  "passo-dei-segni": {
    "name": "Passo dei Segni",
    "slug": "passo-dei-segni",
    "category": "MOUNTAIN_PASS",
    "region": "Alps",
    "country": "Europe",
    "lat": 46.2191908,
    "lng": 10.5927171,
    "nearest_airport": "INN",
    "description": "Auto-imported MOUNTAIN_PASS. Altitude: 2875m"
  },
  "passo-dei-segni-3692": {
    "name": "Passo dei Segni",
    "slug": "passo-dei-segni-3692",
    "category": "MOUNTAIN_PASS",
    "region": "Alps",
    "country": "",
    "lat": 46.2191908,
    "lng": 10.5927171,
    "nearest_airport": "",
    "description": "Verified Location."
  },
  "passo-dei-sii": {
    "name": "Passo dei Sii",
    "slug": "passo-dei-sii",
    "category": "MOUNTAIN_PASS",
    "region": "Alps",
    "country": "Europe",
    "lat": 44.1267825,
    "lng": 7.9678693,
    "nearest_airport": "NCE",
    "description": "Auto-imported MOUNTAIN_PASS. Altitude: N/Am"
  },
  "passo-dei-sogli": {
    "name": "Passo dei Sogli",
    "slug": "passo-dei-sogli",
    "category": "MOUNTAIN_PASS",
    "region": "Alps",
    "country": "Europe",
    "lat": 43.9774007,
    "lng": 7.8517576,
    "nearest_airport": "NCE",
    "description": "Auto-imported MOUNTAIN_PASS. Altitude: N/Am"
  },
  "passo-dei-tocci": {
    "name": "Passo dei Tocci",
    "slug": "passo-dei-tocci",
    "category": "MOUNTAIN_PASS",
    "region": "Alps",
    "country": "Europe",
    "lat": 46.5851497,
    "lng": 12.2872657,
    "nearest_airport": "INN",
    "description": "Auto-imported MOUNTAIN_PASS. Altitude: 2358m"
  },
  "passo-dei-tocci-3424": {
    "name": "Passo dei Tocci",
    "slug": "passo-dei-tocci-3424",
    "category": "MOUNTAIN_PASS",
    "region": "Alps",
    "country": "",
    "lat": 46.5851497,
    "lng": 12.2872657,
    "nearest_airport": "",
    "description": "Verified Location."
  },
  "passo-dei-topografi": {
    "name": "Passo dei Topografi",
    "slug": "passo-dei-topografi",
    "category": "MOUNTAIN_PASS",
    "region": "Alps",
    "country": "Europe",
    "lat": 46.249298,
    "lng": 10.6851074,
    "nearest_airport": "INN",
    "description": "Auto-imported MOUNTAIN_PASS. Altitude: 2874m"
  },
  "passo-dei-topografi-3775": {
    "name": "Passo dei Topografi",
    "slug": "passo-dei-topografi-3775",
    "category": "MOUNTAIN_PASS",
    "region": "Alps",
    "country": "",
    "lat": 46.249298,
    "lng": 10.6851074,
    "nearest_airport": "",
    "description": "Verified Location."
  },
  "passo-dei-tre-cappuccini": {
    "name": "Passo dei Tre Cappuccini",
    "slug": "passo-dei-tre-cappuccini",
    "category": "MOUNTAIN_PASS",
    "region": "Alps",
    "country": "Europe",
    "lat": 45.6742736,
    "lng": 7.3861137,
    "nearest_airport": "TRN",
    "description": "Auto-imported MOUNTAIN_PASS. Altitude: 3242m"
  },
  "passo-dei-tre-cappuccini-2334": {
    "name": "Passo dei Tre Cappuccini",
    "slug": "passo-dei-tre-cappuccini-2334",
    "category": "MOUNTAIN_PASS",
    "region": "Alps",
    "country": "",
    "lat": 45.6742736,
    "lng": 7.3861137,
    "nearest_airport": "",
    "description": "Verified Location."
  },
  "passo-dei-tre-termini": {
    "name": "Passo dei Tre Termini",
    "slug": "passo-dei-tre-termini",
    "category": "MOUNTAIN_PASS",
    "region": "Alps",
    "country": "Europe",
    "lat": 45.6605613,
    "lng": 10.106026,
    "nearest_airport": "MXP",
    "description": "Auto-imported MOUNTAIN_PASS. Altitude: 681m"
  },
  "passo-dei-tre-termini-3328": {
    "name": "Passo dei Tre Termini",
    "slug": "passo-dei-tre-termini-3328",
    "category": "MOUNTAIN_PASS",
    "region": "Alps",
    "country": "",
    "lat": 45.6605613,
    "lng": 10.106026,
    "nearest_airport": "",
    "description": "Verified Location."
  },
  "passo-dei-volontari": {
    "name": "Passo dei Volontari",
    "slug": "passo-dei-volontari",
    "category": "MOUNTAIN_PASS",
    "region": "Alps",
    "country": "Europe",
    "lat": 46.4883583,
    "lng": 10.5248388,
    "nearest_airport": "INN",
    "description": "Auto-imported MOUNTAIN_PASS. Altitude: 3040m"
  },
  "passo-dei-volontari-1273": {
    "name": "Passo dei Volontari",
    "slug": "passo-dei-volontari-1273",
    "category": "MOUNTAIN_PASS",
    "region": "Alps",
    "country": "",
    "lat": 46.4883583,
    "lng": 10.5248388,
    "nearest_airport": "",
    "description": "Verified Location."
  },
  "passo-del-baffelan": {
    "name": "Passo del Baffelan",
    "slug": "passo-del-baffelan",
    "category": "MOUNTAIN_PASS",
    "region": "Alps",
    "country": "Europe",
    "lat": 45.7382338,
    "lng": 11.177762,
    "nearest_airport": "VCE",
    "description": "Auto-imported MOUNTAIN_PASS. Altitude: 1661m"
  },
  "passo-del-ballino": {
    "name": "Passo Del Ballino",
    "slug": "passo-del-ballino",
    "category": "MOUNTAIN_PASS",
    "region": "Alps",
    "country": "Europe",
    "lat": 45.974404,
    "lng": 10.8199382,
    "nearest_airport": "VCE",
    "description": "Auto-imported MOUNTAIN_PASS. Altitude: 750m"
  },
  "passo-del-ballino-2326": {
    "name": "Passo Del Ballino",
    "slug": "passo-del-ballino-2326",
    "category": "MOUNTAIN_PASS",
    "region": "Alps",
    "country": "",
    "lat": 45.974404,
    "lng": 10.8199382,
    "nearest_airport": "",
    "description": "Verified Location."
  },
  "passo-del-bandito": {
    "name": "Passo del Bandito",
    "slug": "passo-del-bandito",
    "category": "MOUNTAIN_PASS",
    "region": "Alps",
    "country": "Europe",
    "lat": 43.8257887,
    "lng": 7.7103713,
    "nearest_airport": "NCE",
    "description": "Auto-imported MOUNTAIN_PASS. Altitude: N/Am"
  },
  "passo-del-barbacan": {
    "name": "Passo del Barbacan",
    "slug": "passo-del-barbacan",
    "category": "MOUNTAIN_PASS",
    "region": "Alps",
    "country": "Europe",
    "lat": 46.2645405,
    "lng": 9.5667414,
    "nearest_airport": "MXP",
    "description": "Auto-imported MOUNTAIN_PASS. Altitude: 2598m"
  },
  "passo-del-barbacan-1180": {
    "name": "Passo del Barbacan",
    "slug": "passo-del-barbacan-1180",
    "category": "MOUNTAIN_PASS",
    "region": "Alps",
    "country": "",
    "lat": 46.2645405,
    "lng": 9.5667414,
    "nearest_airport": "",
    "description": "Verified Location."
  },
  "passo-del-bardellone": {
    "name": "Passo del Bardellone",
    "slug": "passo-del-bardellone",
    "category": "MOUNTAIN_PASS",
    "region": "Alps",
    "country": "Europe",
    "lat": 44.1904375,
    "lng": 9.6538835,
    "nearest_airport": "MXP",
    "description": "Auto-imported MOUNTAIN_PASS. Altitude: 592m"
  },
  "passo-del-baremone": {
    "name": "Passo del Baremone",
    "slug": "passo-del-baremone",
    "category": "MOUNTAIN_PASS",
    "region": "Alps",
    "country": "Europe",
    "lat": 45.7919706,
    "lng": 10.4652696,
    "nearest_airport": "MXP",
    "description": "Auto-imported MOUNTAIN_PASS. Altitude: 1406m"
  },
  "passo-del-baremone-127": {
    "name": "Passo del Baremone",
    "slug": "passo-del-baremone-127",
    "category": "MOUNTAIN_PASS",
    "region": "Alps",
    "country": "",
    "lat": 45.7919706,
    "lng": 10.4652696,
    "nearest_airport": "",
    "description": "Verified Location."
  },
  "passo-del-bernina": {
    "name": "Passo del Bernina",
    "slug": "passo-del-bernina",
    "category": "MOUNTAIN_PASS",
    "region": "Alps",
    "country": "Europe",
    "lat": 46.4109262,
    "lng": 10.0276199,
    "nearest_airport": "MXP",
    "description": "Auto-imported MOUNTAIN_PASS. Altitude: 2330m"
  },
  "passo-del-bernina-47": {
    "name": "Passo del Bernina",
    "slug": "passo-del-bernina-47",
    "category": "MOUNTAIN_PASS",
    "region": "Alps",
    "country": "",
    "lat": 46.4109262,
    "lng": 10.0276199,
    "nearest_airport": "",
    "description": "Verified Location."
  },
  "passo-del-biscia": {
    "name": "Passo del Biscia",
    "slug": "passo-del-biscia",
    "category": "MOUNTAIN_PASS",
    "region": "Alps",
    "country": "Europe",
    "lat": 44.3654996,
    "lng": 9.4900715,
    "nearest_airport": "MXP",
    "description": "Auto-imported MOUNTAIN_PASS. Altitude: 885m"
  },
  "passo-del-biscia-1531": {
    "name": "Passo del Biscia",
    "slug": "passo-del-biscia-1531",
    "category": "MOUNTAIN_PASS",
    "region": "Alps",
    "country": "",
    "lat": 44.3654996,
    "lng": 9.4900715,
    "nearest_airport": "",
    "description": "Verified Location."
  },
  "passo-del-bocco": {
    "name": "Passo del Bocco",
    "slug": "passo-del-bocco",
    "category": "MOUNTAIN_PASS",
    "region": "Alps",
    "country": "Europe",
    "lat": 44.415258,
    "lng": 9.4433967,
    "nearest_airport": "MXP",
    "description": "Auto-imported MOUNTAIN_PASS. Altitude: 956m"
  },
  "passo-del-bocco-559": {
    "name": "Passo del Bocco",
    "slug": "passo-del-bocco-559",
    "category": "MOUNTAIN_PASS",
    "region": "Alps",
    "country": "",
    "lat": 44.415258,
    "lng": 9.4433967,
    "nearest_airport": "",
    "description": "Verified Location."
  },
  "passo-del-bocco-di-bargone": {
    "name": "Passo del Bocco di Bargone",
    "slug": "passo-del-bocco-di-bargone",
    "category": "MOUNTAIN_PASS",
    "region": "Alps",
    "country": "Europe",
    "lat": 44.3237493,
    "lng": 9.5029985,
    "nearest_airport": "MXP",
    "description": "Auto-imported MOUNTAIN_PASS. Altitude: 908m"
  },
  "passo-del-bojret": {
    "name": "Passo del Bojret",
    "slug": "passo-del-bojret",
    "category": "MOUNTAIN_PASS",
    "region": "Alps",
    "country": "Europe",
    "lat": 45.3930678,
    "lng": 7.3727329,
    "nearest_airport": "TRN",
    "description": "Auto-imported MOUNTAIN_PASS. Altitude: 2328m"
  },
  "passo-del-bojret-2726": {
    "name": "Passo del Bojret",
    "slug": "passo-del-bojret-2726",
    "category": "MOUNTAIN_PASS",
    "region": "Alps",
    "country": "",
    "lat": 45.3930678,
    "lng": 7.3727329,
    "nearest_airport": "",
    "description": "Verified Location."
  },
  "passo-del-bondone": {
    "name": "Passo del Bondone",
    "slug": "passo-del-bondone",
    "category": "MOUNTAIN_PASS",
    "region": "Alps",
    "country": "Europe",
    "lat": 46.0888725,
    "lng": 10.0596439,
    "nearest_airport": "MXP",
    "description": "Auto-imported MOUNTAIN_PASS. Altitude: 2720m"
  },
  "passo-del-bondone-1486": {
    "name": "Passo del Bondone",
    "slug": "passo-del-bondone-1486",
    "category": "MOUNTAIN_PASS",
    "region": "Alps",
    "country": "",
    "lat": 46.0888725,
    "lng": 10.0596439,
    "nearest_airport": "",
    "description": "Verified Location."
  },
  "passo-del-borgallo": {
    "name": "Passo del Borgallo",
    "slug": "passo-del-borgallo",
    "category": "MOUNTAIN_PASS",
    "region": "Alps",
    "country": "Europe",
    "lat": 44.4337916,
    "lng": 9.7919199,
    "nearest_airport": "MXP",
    "description": "Auto-imported MOUNTAIN_PASS. Altitude: 1013m"
  },
  "passo-del-bozale": {
    "name": "Passo del Bozale",
    "slug": "passo-del-bozale",
    "category": "MOUNTAIN_PASS",
    "region": "Alps",
    "country": "Europe",
    "lat": 44.4772084,
    "lng": 9.3578842,
    "nearest_airport": "MXP",
    "description": "Auto-imported MOUNTAIN_PASS. Altitude: 965m"
  },
  "passo-del-bracco": {
    "name": "Passo del Bracco",
    "slug": "passo-del-bracco",
    "category": "MOUNTAIN_PASS",
    "region": "Alps",
    "country": "Europe",
    "lat": 44.2494805,
    "lng": 9.5697383,
    "nearest_airport": "MXP",
    "description": "Auto-imported MOUNTAIN_PASS. Altitude: 612m"
  },
  "passo-del-bracco-1882": {
    "name": "Passo del Bracco",
    "slug": "passo-del-bracco-1882",
    "category": "MOUNTAIN_PASS",
    "region": "Alps",
    "country": "",
    "lat": 44.2494805,
    "lng": 9.5697383,
    "nearest_airport": "",
    "description": "Verified Location."
  },
  "passo-del-brallo": {
    "name": "Passo del Brallo",
    "slug": "passo-del-brallo",
    "category": "MOUNTAIN_PASS",
    "region": "Alps",
    "country": "Europe",
    "lat": 44.7383509,
    "lng": 9.2808773,
    "nearest_airport": "MXP",
    "description": "Auto-imported MOUNTAIN_PASS. Altitude: 951m"
  },
  "passo-del-brallo-3343": {
    "name": "Passo del Brallo",
    "slug": "passo-del-brallo-3343",
    "category": "MOUNTAIN_PASS",
    "region": "Alps",
    "country": "",
    "lat": 44.7383509,
    "lng": 9.2808773,
    "nearest_airport": "",
    "description": "Verified Location."
  },
  "passo-del-branchetto": {
    "name": "Passo del Branchetto",
    "slug": "passo-del-branchetto",
    "category": "MOUNTAIN_PASS",
    "region": "Alps",
    "country": "Europe",
    "lat": 45.6790494,
    "lng": 11.0701861,
    "nearest_airport": "VCE",
    "description": "Auto-imported MOUNTAIN_PASS. Altitude: 1591m"
  },
  "passo-del-branchino": {
    "name": "Passo del Branchino",
    "slug": "passo-del-branchino",
    "category": "MOUNTAIN_PASS",
    "region": "Alps",
    "country": "Europe",
    "lat": 45.9491702,
    "lng": 9.8002043,
    "nearest_airport": "MXP",
    "description": "Auto-imported MOUNTAIN_PASS. Altitude: 1821m"
  },
  "passo-del-brattello": {
    "name": "Passo del Brattello",
    "slug": "passo-del-brattello",
    "category": "MOUNTAIN_PASS",
    "region": "Alps",
    "country": "Europe",
    "lat": 44.4582637,
    "lng": 9.8247568,
    "nearest_airport": "MXP",
    "description": "Auto-imported MOUNTAIN_PASS. Altitude: 950m"
  },
  "passo-del-brattello-1409": {
    "name": "Passo del Brattello",
    "slug": "passo-del-brattello-1409",
    "category": "MOUNTAIN_PASS",
    "region": "Alps",
    "country": "",
    "lat": 44.4582637,
    "lng": 9.8247568,
    "nearest_airport": "",
    "description": "Verified Location."
  },
  "passo-del-brocan": {
    "name": "Passo del Brocan",
    "slug": "passo-del-brocan",
    "category": "MOUNTAIN_PASS",
    "region": "Alps",
    "country": "Europe",
    "lat": 44.1548507,
    "lng": 7.3075469,
    "nearest_airport": "NCE",
    "description": "Auto-imported MOUNTAIN_PASS. Altitude: 2892m"
  },
  "passo-del-brocan-2639": {
    "name": "Passo del Brocan",
    "slug": "passo-del-brocan-2639",
    "category": "MOUNTAIN_PASS",
    "region": "Alps",
    "country": "",
    "lat": 44.1548507,
    "lng": 7.3075469,
    "nearest_airport": "",
    "description": "Verified Location."
  },
  "passo-del-buco-del-tedesco": {
    "name": "Passo del Buco del Tedesco",
    "slug": "passo-del-buco-del-tedesco",
    "category": "MOUNTAIN_PASS",
    "region": "Alps",
    "country": "Europe",
    "lat": 45.6785636,
    "lng": 10.5381458,
    "nearest_airport": "MXP",
    "description": "Auto-imported MOUNTAIN_PASS. Altitude: 1232m"
  },
  "passo-del-bue": {
    "name": "Passo del Bue",
    "slug": "passo-del-bue",
    "category": "MOUNTAIN_PASS",
    "region": "Alps",
    "country": "Europe",
    "lat": 44.2302257,
    "lng": 7.055967,
    "nearest_airport": "NCE",
    "description": "Auto-imported MOUNTAIN_PASS. Altitude: 2603m"
  },
  "passo-del-bue-3231": {
    "name": "Passo del Bue",
    "slug": "passo-del-bue-3231",
    "category": "MOUNTAIN_PASS",
    "region": "Alps",
    "country": "",
    "lat": 44.2302257,
    "lng": 7.055967,
    "nearest_airport": "",
    "description": "Verified Location."
  },
  "passo-del-busan": {
    "name": "Passo del Busan",
    "slug": "passo-del-busan",
    "category": "MOUNTAIN_PASS",
    "region": "Alps",
    "country": "Europe",
    "lat": 46.2213612,
    "lng": 8.5473767,
    "nearest_airport": "MXP",
    "description": "Auto-imported MOUNTAIN_PASS. Altitude: 2006m"
  },
  "passo-del-busan-2092": {
    "name": "Passo del Busan",
    "slug": "passo-del-busan-2092",
    "category": "MOUNTAIN_PASS",
    "region": "Alps",
    "country": "",
    "lat": 46.2213612,
    "lng": 8.5473767,
    "nearest_airport": "",
    "description": "Verified Location."
  },
  "passo-del-busin": {
    "name": "Passo del Büsin",
    "slug": "passo-del-busin",
    "category": "MOUNTAIN_PASS",
    "region": "Alps",
    "country": "Europe",
    "lat": 46.1100592,
    "lng": 8.0990153,
    "nearest_airport": "MXP",
    "description": "Auto-imported MOUNTAIN_PASS. Altitude: 2487m"
  },
  "passo-del-busin-3103": {
    "name": "Passo del Büsin",
    "slug": "passo-del-busin-3103",
    "category": "MOUNTAIN_PASS",
    "region": "Alps",
    "country": "",
    "lat": 46.1100592,
    "lng": 8.0990153,
    "nearest_airport": "",
    "description": "Verified Location."
  },
  "passo-del-calvo": {
    "name": "Passo del Calvo",
    "slug": "passo-del-calvo",
    "category": "MOUNTAIN_PASS",
    "region": "Alps",
    "country": "Europe",
    "lat": 46.2254762,
    "lng": 9.5688617,
    "nearest_airport": "MXP",
    "description": "Auto-imported MOUNTAIN_PASS. Altitude: 2750m"
  },
  "passo-del-calvo-3727": {
    "name": "Passo del Calvo",
    "slug": "passo-del-calvo-3727",
    "category": "MOUNTAIN_PASS",
    "region": "Alps",
    "country": "",
    "lat": 46.2254762,
    "lng": 9.5688617,
    "nearest_airport": "",
    "description": "Verified Location."
  },
  "passo-del-camerozzo": {
    "name": "Passo del Camerozzo",
    "slug": "passo-del-camerozzo",
    "category": "MOUNTAIN_PASS",
    "region": "Alps",
    "country": "Europe",
    "lat": 46.2750835,
    "lng": 9.6145493,
    "nearest_airport": "MXP",
    "description": "Auto-imported MOUNTAIN_PASS. Altitude: 2766m"
  },
  "passo-del-camerozzo-1188": {
    "name": "Passo del Camerozzo",
    "slug": "passo-del-camerozzo-1188",
    "category": "MOUNTAIN_PASS",
    "region": "Alps",
    "country": "",
    "lat": 46.2750835,
    "lng": 9.6145493,
    "nearest_airport": "",
    "description": "Verified Location."
  },
  "passo-del-camilla": {
    "name": "Passo del Camilla",
    "slug": "passo-del-camilla",
    "category": "MOUNTAIN_PASS",
    "region": "Alps",
    "country": "Europe",
    "lat": 44.3784318,
    "lng": 9.4310336,
    "nearest_airport": "MXP",
    "description": "Auto-imported MOUNTAIN_PASS. Altitude: 679m"
  },
  "passo-del-camino": {
    "name": "Passo del Camino",
    "slug": "passo-del-camino",
    "category": "MOUNTAIN_PASS",
    "region": "Alps",
    "country": "Europe",
    "lat": 45.7504972,
    "lng": 7.8984516,
    "nearest_airport": "TRN",
    "description": "Auto-imported MOUNTAIN_PASS. Altitude: 2472m"
  },
  "passo-del-camino-3411": {
    "name": "Passo del Camino",
    "slug": "passo-del-camino-3411",
    "category": "MOUNTAIN_PASS",
    "region": "Alps",
    "country": "",
    "lat": 45.7504972,
    "lng": 7.8984516,
    "nearest_airport": "",
    "description": "Verified Location."
  },
  "passo-del-campivel": {
    "name": "Passo del Campivèl",
    "slug": "passo-del-campivel",
    "category": "MOUNTAIN_PASS",
    "region": "Alps",
    "country": "Europe",
    "lat": 46.1593591,
    "lng": 11.340959,
    "nearest_airport": "VCE",
    "description": "Auto-imported MOUNTAIN_PASS. Altitude: 1831m"
  },
  "passo-del-canalone-ghiacciato": {
    "name": "Passo del Canalone Ghiacciato",
    "slug": "passo-del-canalone-ghiacciato",
    "category": "MOUNTAIN_PASS",
    "region": "Alps",
    "country": "Europe",
    "lat": 46.177761,
    "lng": 10.4428798,
    "nearest_airport": "INN",
    "description": "Auto-imported MOUNTAIN_PASS. Altitude: 3070m"
  },
  "passo-del-canalone-ghiacciato-1355": {
    "name": "Passo del Canalone Ghiacciato",
    "slug": "passo-del-canalone-ghiacciato-1355",
    "category": "MOUNTAIN_PASS",
    "region": "Alps",
    "country": "",
    "lat": 46.177761,
    "lng": 10.4428798,
    "nearest_airport": "",
    "description": "Verified Location."
  },
  "passo-del-cancellino": {
    "name": "Passo del Cancellino",
    "slug": "passo-del-cancellino",
    "category": "MOUNTAIN_PASS",
    "region": "Alps",
    "country": "Europe",
    "lat": 44.1101346,
    "lng": 10.8398228,
    "nearest_airport": "VCE",
    "description": "Auto-imported MOUNTAIN_PASS. Altitude: 1630m"
  },
  "passo-del-cane": {
    "name": "Passo del Cane",
    "slug": "passo-del-cane",
    "category": "MOUNTAIN_PASS",
    "region": "Alps",
    "country": "Europe",
    "lat": 43.8704403,
    "lng": 7.5897904,
    "nearest_airport": "NCE",
    "description": "Auto-imported MOUNTAIN_PASS. Altitude: 591m"
  },
  "passo-del-canto": {
    "name": "Passo del Canto",
    "slug": "passo-del-canto",
    "category": "MOUNTAIN_PASS",
    "region": "Alps",
    "country": "Europe",
    "lat": 45.7966009,
    "lng": 9.593182,
    "nearest_airport": "MXP",
    "description": "Auto-imported MOUNTAIN_PASS. Altitude: 817m"
  },
  "passo-del-cap": {
    "name": "Passo del Cap",
    "slug": "passo-del-cap",
    "category": "MOUNTAIN_PASS",
    "region": "Alps",
    "country": "Europe",
    "lat": 45.8324721,
    "lng": 10.6593327,
    "nearest_airport": "VCE",
    "description": "Auto-imported MOUNTAIN_PASS. Altitude: 1786m"
  },
  "passo-del-capannaccio": {
    "name": "Passo del Capannaccio",
    "slug": "passo-del-capannaccio",
    "category": "MOUNTAIN_PASS",
    "region": "Alps",
    "country": "Europe",
    "lat": 43.99825,
    "lng": 11.00487,
    "nearest_airport": "VCE",
    "description": "Auto-imported MOUNTAIN_PASS. Altitude: 1008m"
  },
  "passo-del-capriolo": {
    "name": "Passo del Capriolo",
    "slug": "passo-del-capriolo",
    "category": "MOUNTAIN_PASS",
    "region": "Alps",
    "country": "Europe",
    "lat": 46.0957025,
    "lng": 11.2584844,
    "nearest_airport": "VCE",
    "description": "Auto-imported MOUNTAIN_PASS. Altitude: 1221m"
  },
  "passo-del-cardellino": {
    "name": "Passo del Cardellino",
    "slug": "passo-del-cardellino",
    "category": "MOUNTAIN_PASS",
    "region": "Alps",
    "country": "Europe",
    "lat": 43.815638,
    "lng": 7.5237921,
    "nearest_airport": "NCE",
    "description": "Auto-imported MOUNTAIN_PASS. Altitude: 770m"
  },
  "passo-del-carmine": {
    "name": "Passo del Carmine",
    "slug": "passo-del-carmine",
    "category": "MOUNTAIN_PASS",
    "region": "Alps",
    "country": "Europe",
    "lat": 44.9142977,
    "lng": 9.2636816,
    "nearest_airport": "MXP",
    "description": "Auto-imported MOUNTAIN_PASS. Altitude: 600m"
  },
  "passo-del-carmine-90": {
    "name": "Passo del Carmine",
    "slug": "passo-del-carmine-90",
    "category": "MOUNTAIN_PASS",
    "region": "Alps",
    "country": "",
    "lat": 44.9142977,
    "lng": 9.2636816,
    "nearest_airport": "",
    "description": "Verified Location."
  },
  "passo-del-carnaio": {
    "name": "Passo del Carnaio",
    "slug": "passo-del-carnaio",
    "category": "MOUNTAIN_PASS",
    "region": "Alps",
    "country": "Europe",
    "lat": 43.8950479,
    "lng": 11.9564939,
    "nearest_airport": "VCE",
    "description": "Auto-imported MOUNTAIN_PASS. Altitude: 776m"
  },
  "passo-del-carnaio-328": {
    "name": "Passo del Carnaio",
    "slug": "passo-del-carnaio-328",
    "category": "MOUNTAIN_PASS",
    "region": "Alps",
    "country": "",
    "lat": 43.8950479,
    "lng": 11.9564939,
    "nearest_airport": "",
    "description": "Verified Location."
  },
  "passo-del-carpi": {
    "name": "Passo del Carpi",
    "slug": "passo-del-carpi",
    "category": "MOUNTAIN_PASS",
    "region": "Alps",
    "country": "Europe",
    "lat": 44.3423366,
    "lng": 8.382658,
    "nearest_airport": "TRN",
    "description": "Auto-imported MOUNTAIN_PASS. Altitude: N/Am"
  },
  "passo-del-casello": {
    "name": "Passo del Casello",
    "slug": "passo-del-casello",
    "category": "MOUNTAIN_PASS",
    "region": "Alps",
    "country": "Europe",
    "lat": 45.6833149,
    "lng": 10.8627393,
    "nearest_airport": "VCE",
    "description": "Auto-imported MOUNTAIN_PASS. Altitude: 1055m"
  },
  "passo-del-cason-di-lanza-lanzenpass-pas-di-lance": {
    "name": "Passo del Cason di Lanza / Lanzenpass / Pas di Lance",
    "slug": "passo-del-cason-di-lanza-lanzenpass-pas-di-lance",
    "category": "MOUNTAIN_PASS",
    "region": "Alps",
    "country": "Europe",
    "lat": 46.5659799,
    "lng": 13.1709748,
    "nearest_airport": "VCE",
    "description": "Auto-imported MOUNTAIN_PASS. Altitude: 1555m"
  },
  "passo-del-cason-di-lanza-lanzenpass-pas-di-lance-583": {
    "name": "Passo del Cason di Lanza / Lanzenpass / Pas di Lance",
    "slug": "passo-del-cason-di-lanza-lanzenpass-pas-di-lance-583",
    "category": "MOUNTAIN_PASS",
    "region": "Alps",
    "country": "",
    "lat": 46.5659799,
    "lng": 13.1709748,
    "nearest_airport": "",
    "description": "Verified Location."
  },
  "passo-del-castellaccio": {
    "name": "Passo del Castellaccio",
    "slug": "passo-del-castellaccio",
    "category": "MOUNTAIN_PASS",
    "region": "Alps",
    "country": "Europe",
    "lat": 46.231257,
    "lng": 10.5682046,
    "nearest_airport": "INN",
    "description": "Auto-imported MOUNTAIN_PASS. Altitude: 2962m"
  },
  "passo-del-castellaccio-3244": {
    "name": "Passo del Castellaccio",
    "slug": "passo-del-castellaccio-3244",
    "category": "MOUNTAIN_PASS",
    "region": "Alps",
    "country": "",
    "lat": 46.231257,
    "lng": 10.5682046,
    "nearest_airport": "",
    "description": "Verified Location."
  },
  "passo-del-castello": {
    "name": "Passo del Castello",
    "slug": "passo-del-castello",
    "category": "MOUNTAIN_PASS",
    "region": "Alps",
    "country": "Europe",
    "lat": 46.63293,
    "lng": 12.7309108,
    "nearest_airport": "INN",
    "description": "Auto-imported MOUNTAIN_PASS. Altitude: 2318m"
  },
  "passo-del-castello-2378": {
    "name": "Passo del Castello",
    "slug": "passo-del-castello-2378",
    "category": "MOUNTAIN_PASS",
    "region": "Alps",
    "country": "",
    "lat": 46.63293,
    "lng": 12.7309108,
    "nearest_airport": "",
    "description": "Verified Location."
  },
  "passo-del-cavaione": {
    "name": "Passo del Cavaione",
    "slug": "passo-del-cavaione",
    "category": "MOUNTAIN_PASS",
    "region": "Alps",
    "country": "Europe",
    "lat": 45.8707719,
    "lng": 8.1210835,
    "nearest_airport": "MXP",
    "description": "Auto-imported MOUNTAIN_PASS. Altitude: 1753m"
  },
  "passo-del-cavalletto": {
    "name": "Passo del Cavalletto",
    "slug": "passo-del-cavalletto",
    "category": "MOUNTAIN_PASS",
    "region": "Alps",
    "country": "Europe",
    "lat": 45.7826594,
    "lng": 10.2934804,
    "nearest_airport": "MXP",
    "description": "Auto-imported MOUNTAIN_PASS. Altitude: 1202m"
  },
  "passo-del-cavallino-della-fobbia": {
    "name": "Passo del Cavallino della Fobbia",
    "slug": "passo-del-cavallino-della-fobbia",
    "category": "MOUNTAIN_PASS",
    "region": "Alps",
    "country": "Europe",
    "lat": 45.7283548,
    "lng": 10.5182985,
    "nearest_airport": "MXP",
    "description": "Auto-imported MOUNTAIN_PASS. Altitude: 1090m"
  },
  "passo-del-cavallo": {
    "name": "Passo del Cavallo",
    "slug": "passo-del-cavallo",
    "category": "MOUNTAIN_PASS",
    "region": "Alps",
    "country": "Europe",
    "lat": 44.3612575,
    "lng": 10.0820835,
    "nearest_airport": "MXP",
    "description": "Auto-imported MOUNTAIN_PASS. Altitude: 1745m"
  },
  "passo-del-cavallo-1143": {
    "name": "Passo del Cavallo",
    "slug": "passo-del-cavallo-1143",
    "category": "MOUNTAIN_PASS",
    "region": "Alps",
    "country": "",
    "lat": 45.6462887,
    "lng": 10.3044839,
    "nearest_airport": "",
    "description": "Verified Location."
  },
  "passo-del-cedrino": {
    "name": "Passo del Cedrino",
    "slug": "passo-del-cedrino",
    "category": "MOUNTAIN_PASS",
    "region": "Alps",
    "country": "Europe",
    "lat": 45.9746054,
    "lng": 9.4963154,
    "nearest_airport": "MXP",
    "description": "Auto-imported MOUNTAIN_PASS. Altitude: 1650m"
  },
  "passo-del-cerighetto": {
    "name": "Passo del Cerighetto",
    "slug": "passo-del-cerighetto",
    "category": "MOUNTAIN_PASS",
    "region": "Alps",
    "country": "Europe",
    "lat": 44.4913642,
    "lng": 9.4395896,
    "nearest_airport": "MXP",
    "description": "Auto-imported MOUNTAIN_PASS. Altitude: 1470m"
  },
  "passo-del-cerreto": {
    "name": "Passo del Cerreto",
    "slug": "passo-del-cerreto",
    "category": "MOUNTAIN_PASS",
    "region": "Alps",
    "country": "Europe",
    "lat": 44.3040839,
    "lng": 10.2171298,
    "nearest_airport": "MXP",
    "description": "Auto-imported MOUNTAIN_PASS. Altitude: 1243m"
  },
  "passo-del-cerreto-113": {
    "name": "Passo del Cerreto",
    "slug": "passo-del-cerreto-113",
    "category": "MOUNTAIN_PASS",
    "region": "Alps",
    "country": "",
    "lat": 44.3040839,
    "lng": 10.2171298,
    "nearest_airport": "",
    "description": "Verified Location."
  },
  "passo-del-cerro": {
    "name": "Passo del Cerro",
    "slug": "passo-del-cerro",
    "category": "MOUNTAIN_PASS",
    "region": "Alps",
    "country": "Europe",
    "lat": 44.7870749,
    "lng": 9.5516314,
    "nearest_airport": "MXP",
    "description": "Auto-imported MOUNTAIN_PASS. Altitude: 750m"
  },
  "passo-del-cerro-1900": {
    "name": "Passo del Cerro",
    "slug": "passo-del-cerro-1900",
    "category": "MOUNTAIN_PASS",
    "region": "Alps",
    "country": "",
    "lat": 44.7870749,
    "lng": 9.5516314,
    "nearest_airport": "",
    "description": "Verified Location."
  },
  "passo-del-chiapous": {
    "name": "Passo del Chiapous",
    "slug": "passo-del-chiapous",
    "category": "MOUNTAIN_PASS",
    "region": "Alps",
    "country": "Europe",
    "lat": 44.1837243,
    "lng": 7.3182904,
    "nearest_airport": "NCE",
    "description": "Auto-imported MOUNTAIN_PASS. Altitude: 2526m"
  },
  "passo-del-chiapous-2447": {
    "name": "Passo del Chiapous",
    "slug": "passo-del-chiapous-2447",
    "category": "MOUNTAIN_PASS",
    "region": "Alps",
    "country": "",
    "lat": 44.1837243,
    "lng": 7.3182904,
    "nearest_airport": "",
    "description": "Verified Location."
  },
  "passo-del-chiodo": {
    "name": "Passo del Chiodo",
    "slug": "passo-del-chiodo",
    "category": "MOUNTAIN_PASS",
    "region": "Alps",
    "country": "Europe",
    "lat": 44.4968732,
    "lng": 9.4946471,
    "nearest_airport": "MXP",
    "description": "Auto-imported MOUNTAIN_PASS. Altitude: 1457m"
  },
  "passo-del-cimirlo": {
    "name": "Passo del Cimirlo",
    "slug": "passo-del-cimirlo",
    "category": "MOUNTAIN_PASS",
    "region": "Alps",
    "country": "Europe",
    "lat": 46.0676009,
    "lng": 11.1846466,
    "nearest_airport": "VCE",
    "description": "Auto-imported MOUNTAIN_PASS. Altitude: 730m"
  },
  "passo-del-cimirlo-152": {
    "name": "Passo del Cimirlo",
    "slug": "passo-del-cimirlo-152",
    "category": "MOUNTAIN_PASS",
    "region": "Alps",
    "country": "",
    "lat": 46.0676009,
    "lng": 11.1846466,
    "nearest_airport": "",
    "description": "Verified Location."
  },
  "passo-del-clamer": {
    "name": "Passo del Clamer",
    "slug": "passo-del-clamer",
    "category": "MOUNTAIN_PASS",
    "region": "Alps",
    "country": "Europe",
    "lat": 46.1794152,
    "lng": 10.9453179,
    "nearest_airport": "INN",
    "description": "Auto-imported MOUNTAIN_PASS. Altitude: 2164m"
  },
  "passo-del-clamer-1680": {
    "name": "Passo del Clamer",
    "slug": "passo-del-clamer-1680",
    "category": "MOUNTAIN_PASS",
    "region": "Alps",
    "country": "",
    "lat": 46.1794152,
    "lng": 10.9453179,
    "nearest_airport": "",
    "description": "Verified Location."
  },
  "passo-del-col-becher": {
    "name": "Passo del Col Becher",
    "slug": "passo-del-col-becher",
    "category": "MOUNTAIN_PASS",
    "region": "Alps",
    "country": "Europe",
    "lat": 46.3977812,
    "lng": 11.8680784,
    "nearest_airport": "INN",
    "description": "Auto-imported MOUNTAIN_PASS. Altitude: N/Am"
  },
  "passo-del-colino": {
    "name": "Passo del Colino",
    "slug": "passo-del-colino",
    "category": "MOUNTAIN_PASS",
    "region": "Alps",
    "country": "Europe",
    "lat": 46.1963552,
    "lng": 9.5620803,
    "nearest_airport": "MXP",
    "description": "Auto-imported MOUNTAIN_PASS. Altitude: 2630m"
  },
  "passo-del-colino-1237": {
    "name": "Passo del Colino",
    "slug": "passo-del-colino-1237",
    "category": "MOUNTAIN_PASS",
    "region": "Alps",
    "country": "",
    "lat": 46.1963552,
    "lng": 9.5620803,
    "nearest_airport": "",
    "description": "Verified Location."
  },
  "passo-del-colletto": {
    "name": "Passo del Colletto",
    "slug": "passo-del-colletto",
    "category": "MOUNTAIN_PASS",
    "region": "Alps",
    "country": "Europe",
    "lat": 44.051552,
    "lng": 7.7933122,
    "nearest_airport": "NCE",
    "description": "Auto-imported MOUNTAIN_PASS. Altitude: 1553m"
  },
  "passo-del-colombaccio": {
    "name": "Passo del Colombaccio",
    "slug": "passo-del-colombaccio",
    "category": "MOUNTAIN_PASS",
    "region": "Alps",
    "country": "Europe",
    "lat": 44.4166248,
    "lng": 10.8091196,
    "nearest_airport": "VCE",
    "description": "Auto-imported MOUNTAIN_PASS. Altitude: 821m"
  },
  "passo-del-colombino": {
    "name": "Passo del Colombino",
    "slug": "passo-del-colombino",
    "category": "MOUNTAIN_PASS",
    "region": "Alps",
    "country": "Europe",
    "lat": 44.1719749,
    "lng": 10.7657024,
    "nearest_airport": "VCE",
    "description": "Auto-imported MOUNTAIN_PASS. Altitude: 1526m"
  },
  "passo-del-colombo": {
    "name": "Passo del Colombo",
    "slug": "passo-del-colombo",
    "category": "MOUNTAIN_PASS",
    "region": "Alps",
    "country": "Europe",
    "lat": 45.8156702,
    "lng": 11.2362299,
    "nearest_airport": "VCE",
    "description": "Auto-imported MOUNTAIN_PASS. Altitude: 1390m"
  },
  "passo-del-comedon": {
    "name": "Passo del Comedon",
    "slug": "passo-del-comedon",
    "category": "MOUNTAIN_PASS",
    "region": "Alps",
    "country": "Europe",
    "lat": 46.1698867,
    "lng": 11.9495323,
    "nearest_airport": "VCE",
    "description": "Auto-imported MOUNTAIN_PASS. Altitude: 2130m"
  },
  "passo-del-comedon-2557": {
    "name": "Passo del Comedon",
    "slug": "passo-del-comedon-2557",
    "category": "MOUNTAIN_PASS",
    "region": "Alps",
    "country": "",
    "lat": 46.1698867,
    "lng": 11.9495323,
    "nearest_airport": "",
    "description": "Verified Location."
  },
  "passo-del-compet": {
    "name": "Passo del Compet",
    "slug": "passo-del-compet",
    "category": "MOUNTAIN_PASS",
    "region": "Alps",
    "country": "Europe",
    "lat": 46.0393189,
    "lng": 11.2999145,
    "nearest_airport": "VCE",
    "description": "Auto-imported MOUNTAIN_PASS. Altitude: 1383m"
  },
  "passo-del-conio": {
    "name": "Passo del Conio",
    "slug": "passo-del-conio",
    "category": "MOUNTAIN_PASS",
    "region": "Alps",
    "country": "Europe",
    "lat": 43.9797686,
    "lng": 7.8709182,
    "nearest_airport": "NCE",
    "description": "Auto-imported MOUNTAIN_PASS. Altitude: 1147m"
  },
  "passo-del-coppetto": {
    "name": "Passo del Coppetto",
    "slug": "passo-del-coppetto",
    "category": "MOUNTAIN_PASS",
    "region": "Alps",
    "country": "Europe",
    "lat": 46.1121923,
    "lng": 10.4199363,
    "nearest_airport": "MXP",
    "description": "Auto-imported MOUNTAIN_PASS. Altitude: 2530m"
  },
  "passo-del-coppetto-1348": {
    "name": "Passo del Coppetto",
    "slug": "passo-del-coppetto-1348",
    "category": "MOUNTAIN_PASS",
    "region": "Alps",
    "country": "",
    "lat": 46.1121923,
    "lng": 10.4199363,
    "nearest_airport": "",
    "description": "Verified Location."
  },
  "passo-del-coppo": {
    "name": "Passo del Coppo",
    "slug": "passo-del-coppo",
    "category": "MOUNTAIN_PASS",
    "region": "Alps",
    "country": "Europe",
    "lat": 46.1114243,
    "lng": 10.4373215,
    "nearest_airport": "MXP",
    "description": "Auto-imported MOUNTAIN_PASS. Altitude: 2620m"
  },
  "passo-del-coppo-1347": {
    "name": "Passo del Coppo",
    "slug": "passo-del-coppo-1347",
    "category": "MOUNTAIN_PASS",
    "region": "Alps",
    "country": "",
    "lat": 46.1114243,
    "lng": 10.4373215,
    "nearest_airport": "",
    "description": "Verified Location."
  },
  "passo-del-corno": {
    "name": "Passo del Corno",
    "slug": "passo-del-corno",
    "category": "MOUNTAIN_PASS",
    "region": "Alps",
    "country": "Europe",
    "lat": 46.4587405,
    "lng": 8.38233,
    "nearest_airport": "MXP",
    "description": "Auto-imported MOUNTAIN_PASS. Altitude: 2500m"
  },
  "passo-del-corno-3362": {
    "name": "Passo del Corno",
    "slug": "passo-del-corno-3362",
    "category": "MOUNTAIN_PASS",
    "region": "Alps",
    "country": "",
    "lat": 46.4587405,
    "lng": 8.38233,
    "nearest_airport": "",
    "description": "Verified Location."
  },
  "passo-del-corso": {
    "name": "Passo del CORSO",
    "slug": "passo-del-corso",
    "category": "MOUNTAIN_PASS",
    "region": "Alps",
    "country": "Europe",
    "lat": 44.2351112,
    "lng": 11.5947273,
    "nearest_airport": "VCE",
    "description": "Auto-imported MOUNTAIN_PASS. Altitude: 532m"
  },
  "passo-del-cost": {
    "name": "Passo del Cost",
    "slug": "passo-del-cost",
    "category": "MOUNTAIN_PASS",
    "region": "Alps",
    "country": "Europe",
    "lat": 45.937296,
    "lng": 11.2868293,
    "nearest_airport": "VCE",
    "description": "Auto-imported MOUNTAIN_PASS. Altitude: 1290m"
  },
  "passo-del-costone": {
    "name": "Passo del Costone",
    "slug": "passo-del-costone",
    "category": "MOUNTAIN_PASS",
    "region": "Alps",
    "country": "Europe",
    "lat": 45.9665687,
    "lng": 10.1570027,
    "nearest_airport": "MXP",
    "description": "Auto-imported MOUNTAIN_PASS. Altitude: 1896m"
  },
  "passo-del-crapinel": {
    "name": "Passo del Crapinel",
    "slug": "passo-del-crapinel",
    "category": "MOUNTAIN_PASS",
    "region": "Alps",
    "country": "Europe",
    "lat": 46.5108141,
    "lng": 10.4429129,
    "nearest_airport": "INN",
    "description": "Auto-imported MOUNTAIN_PASS. Altitude: 2791m"
  },
  "passo-del-crapinel-1276": {
    "name": "Passo del Crapinel",
    "slug": "passo-del-crapinel-1276",
    "category": "MOUNTAIN_PASS",
    "region": "Alps",
    "country": "",
    "lat": 46.5108141,
    "lng": 10.4429129,
    "nearest_airport": "",
    "description": "Verified Location."
  },
  "passo-del-crestoso": {
    "name": "Passo del Crestoso",
    "slug": "passo-del-crestoso",
    "category": "MOUNTAIN_PASS",
    "region": "Alps",
    "country": "Europe",
    "lat": 45.8573054,
    "lng": 10.3099546,
    "nearest_airport": "MXP",
    "description": "Auto-imported MOUNTAIN_PASS. Altitude: 2053m"
  },
  "passo-del-crestoso-2266": {
    "name": "Passo del Crestoso",
    "slug": "passo-del-crestoso-2266",
    "category": "MOUNTAIN_PASS",
    "region": "Alps",
    "country": "",
    "lat": 45.8573054,
    "lng": 10.3099546,
    "nearest_airport": "",
    "description": "Verified Location."
  },
  "passo-del-cristallo": {
    "name": "Passo del Cristallo",
    "slug": "passo-del-cristallo",
    "category": "MOUNTAIN_PASS",
    "region": "Alps",
    "country": "Europe",
    "lat": 46.4918049,
    "lng": 10.4381199,
    "nearest_airport": "INN",
    "description": "Auto-imported MOUNTAIN_PASS. Altitude: 3016m"
  },
  "passo-del-cristallo-1271": {
    "name": "Passo del Cristallo",
    "slug": "passo-del-cristallo-1271",
    "category": "MOUNTAIN_PASS",
    "region": "Alps",
    "country": "",
    "lat": 46.4918049,
    "lng": 10.4381199,
    "nearest_airport": "",
    "description": "Verified Location."
  },
  "passo-del-crocione": {
    "name": "Passo del Crocione",
    "slug": "passo-del-crocione",
    "category": "MOUNTAIN_PASS",
    "region": "Alps",
    "country": "Europe",
    "lat": 44.5781106,
    "lng": 10.281336,
    "nearest_airport": "MXP",
    "description": "Auto-imported MOUNTAIN_PASS. Altitude: 636m"
  },
  "passo-del-cul": {
    "name": "Passo del Cul",
    "slug": "passo-del-cul",
    "category": "MOUNTAIN_PASS",
    "region": "Alps",
    "country": "Europe",
    "lat": 45.691712,
    "lng": 10.478873,
    "nearest_airport": "MXP",
    "description": "Auto-imported MOUNTAIN_PASS. Altitude: 1000m"
  },
  "passo-del-cuvignone": {
    "name": "Passo del Cuvignone",
    "slug": "passo-del-cuvignone",
    "category": "MOUNTAIN_PASS",
    "region": "Alps",
    "country": "Europe",
    "lat": 45.9269745,
    "lng": 8.6705299,
    "nearest_airport": "MXP",
    "description": "Auto-imported MOUNTAIN_PASS. Altitude: 1036m"
  },
  "passo-del-cuvignone-345": {
    "name": "Passo del Cuvignone",
    "slug": "passo-del-cuvignone-345",
    "category": "MOUNTAIN_PASS",
    "region": "Alps",
    "country": "",
    "lat": 45.9269745,
    "lng": 8.6705299,
    "nearest_airport": "",
    "description": "Verified Location."
  },
  "passo-del-demignone-occidentale": {
    "name": "Passo del Demignone occidentale",
    "slug": "passo-del-demignone-occidentale",
    "category": "MOUNTAIN_PASS",
    "region": "Alps",
    "country": "Europe",
    "lat": 46.0551836,
    "lng": 10.1442071,
    "nearest_airport": "MXP",
    "description": "Auto-imported MOUNTAIN_PASS. Altitude: 2485m"
  },
  "passo-del-demignone-occidentale-1332": {
    "name": "Passo del Demignone occidentale",
    "slug": "passo-del-demignone-occidentale-1332",
    "category": "MOUNTAIN_PASS",
    "region": "Alps",
    "country": "",
    "lat": 46.0551836,
    "lng": 10.1442071,
    "nearest_airport": "",
    "description": "Verified Location."
  },
  "passo-del-dente": {
    "name": "Passo del Dente",
    "slug": "passo-del-dente",
    "category": "MOUNTAIN_PASS",
    "region": "Alps",
    "country": "Europe",
    "lat": 44.4182704,
    "lng": 9.3038299,
    "nearest_airport": "MXP",
    "description": "Auto-imported MOUNTAIN_PASS. Altitude: 900m"
  },
  "passo-del-diavolo": {
    "name": "Passo del Diavolo",
    "slug": "passo-del-diavolo",
    "category": "MOUNTAIN_PASS",
    "region": "Alps",
    "country": "Europe",
    "lat": 46.0299103,
    "lng": 8.533731,
    "nearest_airport": "MXP",
    "description": "Auto-imported MOUNTAIN_PASS. Altitude: 1878m"
  },
  "passo-del-diavolo-1266": {
    "name": "Passo del Diavolo",
    "slug": "passo-del-diavolo-1266",
    "category": "MOUNTAIN_PASS",
    "region": "Alps",
    "country": "",
    "lat": 46.6062496,
    "lng": 10.1179503,
    "nearest_airport": "",
    "description": "Verified Location."
  },
  "passo-del-dil": {
    "name": "Passo del Dil",
    "slug": "passo-del-dil",
    "category": "MOUNTAIN_PASS",
    "region": "Alps",
    "country": "Europe",
    "lat": 45.8313203,
    "lng": 10.6750223,
    "nearest_airport": "VCE",
    "description": "Auto-imported MOUNTAIN_PASS. Altitude: 1721m"
  },
  "passo-del-duca": {
    "name": "Passo del Duca",
    "slug": "passo-del-duca",
    "category": "MOUNTAIN_PASS",
    "region": "Alps",
    "country": "Europe",
    "lat": 44.1918692,
    "lng": 7.6602103,
    "nearest_airport": "NCE",
    "description": "Auto-imported MOUNTAIN_PASS. Altitude: 1989m"
  },
  "passo-del-durone": {
    "name": "Passo del Durone",
    "slug": "passo-del-durone",
    "category": "MOUNTAIN_PASS",
    "region": "Alps",
    "country": "Europe",
    "lat": 46.0371735,
    "lng": 10.7956527,
    "nearest_airport": "VCE",
    "description": "Auto-imported MOUNTAIN_PASS. Altitude: 1010m"
  },
  "passo-del-faiallo": {
    "name": "Passo del Faiallo",
    "slug": "passo-del-faiallo",
    "category": "MOUNTAIN_PASS",
    "region": "Alps",
    "country": "Europe",
    "lat": 44.4588445,
    "lng": 8.6691893,
    "nearest_airport": "TRN",
    "description": "Auto-imported MOUNTAIN_PASS. Altitude: 1060m"
  },
  "passo-del-faiallo-354": {
    "name": "Passo del Faiallo",
    "slug": "passo-del-faiallo-354",
    "category": "MOUNTAIN_PASS",
    "region": "Alps",
    "country": "",
    "lat": 44.4588445,
    "lng": 8.6691893,
    "nearest_airport": "",
    "description": "Verified Location."
  },
  "passo-del-fante": {
    "name": "Passo del Fante",
    "slug": "passo-del-fante",
    "category": "MOUNTAIN_PASS",
    "region": "Alps",
    "country": "Europe",
    "lat": 44.5324001,
    "lng": 9.3347922,
    "nearest_airport": "MXP",
    "description": "Auto-imported MOUNTAIN_PASS. Altitude: 1261m"
  },
  "passo-del-ferro": {
    "name": "Passo del Ferro",
    "slug": "passo-del-ferro",
    "category": "MOUNTAIN_PASS",
    "region": "Alps",
    "country": "Europe",
    "lat": 46.2876914,
    "lng": 9.6200087,
    "nearest_airport": "MXP",
    "description": "Auto-imported MOUNTAIN_PASS. Altitude: 3205m"
  },
  "passo-del-ferro-2078": {
    "name": "Passo del Ferro",
    "slug": "passo-del-ferro-2078",
    "category": "MOUNTAIN_PASS",
    "region": "Alps",
    "country": "",
    "lat": 46.2876914,
    "lng": 9.6200087,
    "nearest_airport": "",
    "description": "Verified Location."
  },
  "passo-del-fieno": {
    "name": "Passo del Fieno",
    "slug": "passo-del-fieno",
    "category": "MOUNTAIN_PASS",
    "region": "Alps",
    "country": "Europe",
    "lat": 46.4615706,
    "lng": 10.0525169,
    "nearest_airport": "INN",
    "description": "Auto-imported MOUNTAIN_PASS. Altitude: 2465m"
  },
  "passo-del-fieno-225": {
    "name": "Passo del Fieno",
    "slug": "passo-del-fieno-225",
    "category": "MOUNTAIN_PASS",
    "region": "Alps",
    "country": "",
    "lat": 46.4615706,
    "lng": 10.0525169,
    "nearest_airport": "",
    "description": "Verified Location."
  },
  "passo-del-fo": {
    "name": "Passo del Fò",
    "slug": "passo-del-fo",
    "category": "MOUNTAIN_PASS",
    "region": "Alps",
    "country": "Europe",
    "lat": 45.8504597,
    "lng": 9.4608731,
    "nearest_airport": "MXP",
    "description": "Auto-imported MOUNTAIN_PASS. Altitude: 1284m"
  },
  "passo-del-forcellino": {
    "name": "Passo del Forcellino",
    "slug": "passo-del-forcellino",
    "category": "MOUNTAIN_PASS",
    "region": "Alps",
    "country": "Europe",
    "lat": 46.4647378,
    "lng": 10.4761693,
    "nearest_airport": "INN",
    "description": "Auto-imported MOUNTAIN_PASS. Altitude: 2777m"
  },
  "passo-del-forcellino-3274": {
    "name": "Passo del Forcellino",
    "slug": "passo-del-forcellino-3274",
    "category": "MOUNTAIN_PASS",
    "region": "Alps",
    "country": "",
    "lat": 46.4647378,
    "lng": 10.4761693,
    "nearest_airport": "",
    "description": "Verified Location."
  },
  "passo-del-forcellino-di-valsorda": {
    "name": "Passo del Forcellino (di Valsorda)",
    "slug": "passo-del-forcellino-di-valsorda",
    "category": "MOUNTAIN_PASS",
    "region": "Alps",
    "country": "Europe",
    "lat": 46.0964,
    "lng": 10.6345,
    "nearest_airport": "INN",
    "description": "Auto-imported MOUNTAIN_PASS. Altitude: 2473m"
  },
  "passo-del-forcellino-di-valsorda-3306": {
    "name": "Passo del Forcellino (di Valsorda)",
    "slug": "passo-del-forcellino-di-valsorda-3306",
    "category": "MOUNTAIN_PASS",
    "region": "Alps",
    "country": "",
    "lat": 46.0964,
    "lng": 10.6345,
    "nearest_airport": "",
    "description": "Verified Location."
  },
  "passo-del-fornalino": {
    "name": "Passo del Fornalino",
    "slug": "passo-del-fornalino",
    "category": "MOUNTAIN_PASS",
    "region": "Alps",
    "country": "Europe",
    "lat": 46.0939536,
    "lng": 8.1463409,
    "nearest_airport": "MXP",
    "description": "Auto-imported MOUNTAIN_PASS. Altitude: 2345m"
  },
  "passo-del-fornalino-3002": {
    "name": "Passo del Fornalino",
    "slug": "passo-del-fornalino-3002",
    "category": "MOUNTAIN_PASS",
    "region": "Alps",
    "country": "",
    "lat": 46.0939536,
    "lng": 8.1463409,
    "nearest_airport": "",
    "description": "Verified Location."
  },
  "passo-del-fornetto": {
    "name": "Passo del Fornetto",
    "slug": "passo-del-fornetto",
    "category": "MOUNTAIN_PASS",
    "region": "Alps",
    "country": "Europe",
    "lat": 46.0848228,
    "lng": 8.1510537,
    "nearest_airport": "MXP",
    "description": "Auto-imported MOUNTAIN_PASS. Altitude: 2263m"
  },
  "passo-del-fornetto-3107": {
    "name": "Passo del Fornetto",
    "slug": "passo-del-fornetto-3107",
    "category": "MOUNTAIN_PASS",
    "region": "Alps",
    "country": "",
    "lat": 46.0848228,
    "lng": 8.1510537,
    "nearest_airport": "",
    "description": "Verified Location."
  },
  "passo-del-fuoco": {
    "name": "Passo del Fuoco",
    "slug": "passo-del-fuoco",
    "category": "MOUNTAIN_PASS",
    "region": "Alps",
    "country": "Europe",
    "lat": 44.4842458,
    "lng": 9.0912543,
    "nearest_airport": "MXP",
    "description": "Auto-imported MOUNTAIN_PASS. Altitude: 981m"
  },
  "passo-del-fusli": {
    "name": "Passo del Fùslì",
    "slug": "passo-del-fusli",
    "category": "SCENIC_POINT",
    "region": "Alps",
    "country": "Europe",
    "lat": 45.9608918,
    "lng": 9.7595134,
    "nearest_airport": "MXP",
    "description": "Auto-imported SCENIC_POINT. Altitude: N/Am"
  },
  "passo-del-gallo": {
    "name": "Passo del Gallo",
    "slug": "passo-del-gallo",
    "category": "MOUNTAIN_PASS",
    "region": "Alps",
    "country": "Europe",
    "lat": 44.3823182,
    "lng": 9.1801857,
    "nearest_airport": "MXP",
    "description": "Auto-imported MOUNTAIN_PASS. Altitude: 478m"
  },
  "passo-del-gandazzo": {
    "name": "Passo del Gandazzo",
    "slug": "passo-del-gandazzo",
    "category": "MOUNTAIN_PASS",
    "region": "Alps",
    "country": "Europe",
    "lat": 45.9821868,
    "lng": 9.4980507,
    "nearest_airport": "MXP",
    "description": "Auto-imported MOUNTAIN_PASS. Altitude: 1660m"
  },
  "passo-del-gatto": {
    "name": "Passo del Gatto",
    "slug": "passo-del-gatto",
    "category": "MOUNTAIN_PASS",
    "region": "Alps",
    "country": "Europe",
    "lat": 44.3041361,
    "lng": 10.2205313,
    "nearest_airport": "MXP",
    "description": "Auto-imported MOUNTAIN_PASS. Altitude: 1255m"
  },
  "passo-del-gatto-3589": {
    "name": "Passo del Gatto",
    "slug": "passo-del-gatto-3589",
    "category": "MOUNTAIN_PASS",
    "region": "Alps",
    "country": "",
    "lat": 45.8687707,
    "lng": 7.9729779,
    "nearest_airport": "",
    "description": "Verified Location."
  },
  "passo-del-gellino": {
    "name": "Passo del Gellino",
    "slug": "passo-del-gellino",
    "category": "MOUNTAIN_PASS",
    "region": "Alps",
    "country": "Europe",
    "lat": 46.0022006,
    "lng": 10.4575719,
    "nearest_airport": "MXP",
    "description": "Auto-imported MOUNTAIN_PASS. Altitude: 2601m"
  },
  "passo-del-gellino-1320": {
    "name": "Passo del Gellino",
    "slug": "passo-del-gellino-1320",
    "category": "MOUNTAIN_PASS",
    "region": "Alps",
    "country": "",
    "lat": 46.0022006,
    "lng": 10.4575719,
    "nearest_airport": "",
    "description": "Verified Location."
  },
  "passo-del-gelo": {
    "name": "Passo del Gelo",
    "slug": "passo-del-gelo",
    "category": "MOUNTAIN_PASS",
    "region": "Alps",
    "country": "Europe",
    "lat": 45.9680865,
    "lng": 10.4798912,
    "nearest_airport": "MXP",
    "description": "Auto-imported MOUNTAIN_PASS. Altitude: 2322m"
  },
  "passo-del-gelo-1384": {
    "name": "Passo del Gelo",
    "slug": "passo-del-gelo-1384",
    "category": "MOUNTAIN_PASS",
    "region": "Alps",
    "country": "",
    "lat": 45.9680865,
    "lng": 10.4798912,
    "nearest_airport": "",
    "description": "Verified Location."
  },
  "passo-del-gifarco": {
    "name": "Passo del Gifarco",
    "slug": "passo-del-gifarco",
    "category": "MOUNTAIN_PASS",
    "region": "Alps",
    "country": "Europe",
    "lat": 44.5346808,
    "lng": 9.3354625,
    "nearest_airport": "MXP",
    "description": "Auto-imported MOUNTAIN_PASS. Altitude: 1268m"
  },
  "passo-del-ginestro": {
    "name": "Passo del Ginestro",
    "slug": "passo-del-ginestro",
    "category": "MOUNTAIN_PASS",
    "region": "Alps",
    "country": "Europe",
    "lat": 44.0070935,
    "lng": 7.9909455,
    "nearest_airport": "NCE",
    "description": "Auto-imported MOUNTAIN_PASS. Altitude: 677m"
  },
  "passo-del-ginestro-556": {
    "name": "Passo del Ginestro",
    "slug": "passo-del-ginestro-556",
    "category": "MOUNTAIN_PASS",
    "region": "Alps",
    "country": "",
    "lat": 44.0070935,
    "lng": 7.9909455,
    "nearest_airport": "",
    "description": "Verified Location."
  },
  "passo-del-giogo": {
    "name": "Passo del Giogo",
    "slug": "passo-del-giogo",
    "category": "MOUNTAIN_PASS",
    "region": "Alps",
    "country": "Europe",
    "lat": 44.0468431,
    "lng": 11.3880595,
    "nearest_airport": "VCE",
    "description": "Auto-imported MOUNTAIN_PASS. Altitude: 882m"
  },
  "passo-del-giogo-3349": {
    "name": "Passo del Giogo",
    "slug": "passo-del-giogo-3349",
    "category": "MOUNTAIN_PASS",
    "region": "Alps",
    "country": "",
    "lat": 44.0468431,
    "lng": 11.3880595,
    "nearest_airport": "",
    "description": "Verified Location."
  },
  "passo-del-giova": {
    "name": "Passo del Giovà",
    "slug": "passo-del-giova",
    "category": "MOUNTAIN_PASS",
    "region": "Alps",
    "country": "Europe",
    "lat": 44.6837628,
    "lng": 9.216941,
    "nearest_airport": "MXP",
    "description": "Auto-imported MOUNTAIN_PASS. Altitude: 1366m"
  },
  "passo-del-giova-91": {
    "name": "Passo del Giovà",
    "slug": "passo-del-giova-91",
    "category": "MOUNTAIN_PASS",
    "region": "Alps",
    "country": "",
    "lat": 44.6837628,
    "lng": 9.216941,
    "nearest_airport": "",
    "description": "Verified Location."
  },
  "passo-del-giovarello": {
    "name": "Passo del Giovarello",
    "slug": "passo-del-giovarello",
    "category": "MOUNTAIN_PASS",
    "region": "Alps",
    "country": "Europe",
    "lat": 44.2281714,
    "lng": 10.4678508,
    "nearest_airport": "VCE",
    "description": "Auto-imported MOUNTAIN_PASS. Altitude: 1660m"
  },
  "passo-del-giovetto": {
    "name": "Passo del Giovetto",
    "slug": "passo-del-giovetto",
    "category": "MOUNTAIN_PASS",
    "region": "Alps",
    "country": "Europe",
    "lat": 46.0328489,
    "lng": 10.2429613,
    "nearest_airport": "MXP",
    "description": "Auto-imported MOUNTAIN_PASS. Altitude: 1771m"
  },
  "passo-del-giovo": {
    "name": "Passo del Giovo",
    "slug": "passo-del-giovo",
    "category": "MOUNTAIN_PASS",
    "region": "Alps",
    "country": "Europe",
    "lat": 44.4290836,
    "lng": 8.4735456,
    "nearest_airport": "TRN",
    "description": "Auto-imported MOUNTAIN_PASS. Altitude: 516m"
  },
  "passo-del-giovo-362": {
    "name": "Passo del Giovo",
    "slug": "passo-del-giovo-362",
    "category": "MOUNTAIN_PASS",
    "region": "Alps",
    "country": "",
    "lat": 44.4290836,
    "lng": 8.4735456,
    "nearest_airport": "",
    "description": "Verified Location."
  },
  "passo-del-giuff": {
    "name": "Passo del Giuff",
    "slug": "passo-del-giuff",
    "category": "MOUNTAIN_PASS",
    "region": "Alps",
    "country": "Europe",
    "lat": 45.8728377,
    "lng": 9.4680537,
    "nearest_airport": "MXP",
    "description": "Auto-imported MOUNTAIN_PASS. Altitude: 1520m"
  },
  "passo-del-gotro": {
    "name": "Passo del Gotro",
    "slug": "passo-del-gotro",
    "category": "MOUNTAIN_PASS",
    "region": "Alps",
    "country": "Europe",
    "lat": 46.1526192,
    "lng": 10.8140324,
    "nearest_airport": "INN",
    "description": "Auto-imported MOUNTAIN_PASS. Altitude: 1858m"
  },
  "passo-del-groste": {
    "name": "Passo del Grostè",
    "slug": "passo-del-groste",
    "category": "MOUNTAIN_PASS",
    "region": "Alps",
    "country": "Europe",
    "lat": 46.2155098,
    "lng": 10.9026487,
    "nearest_airport": "INN",
    "description": "Auto-imported MOUNTAIN_PASS. Altitude: 2442m"
  },
  "passo-del-groste-724": {
    "name": "Passo del Grostè",
    "slug": "passo-del-groste-724",
    "category": "MOUNTAIN_PASS",
    "region": "Alps",
    "country": "",
    "lat": 46.2155098,
    "lng": 10.9026487,
    "nearest_airport": "",
    "description": "Verified Location."
  },
  "passo-del-gualdo": {
    "name": "Passo del Gualdo",
    "slug": "passo-del-gualdo",
    "category": "MOUNTAIN_PASS",
    "region": "Alps",
    "country": "Europe",
    "lat": 46.4954266,
    "lng": 9.4621381,
    "nearest_airport": "MXP",
    "description": "Auto-imported MOUNTAIN_PASS. Altitude: 1990m"
  },
  "passo-del-lagadello": {
    "name": "Passo del Lagadello",
    "slug": "passo-del-lagadello",
    "category": "MOUNTAIN_PASS",
    "region": "Alps",
    "country": "Europe",
    "lat": 44.201156,
    "lng": 10.4879901,
    "nearest_airport": "VCE",
    "description": "Auto-imported MOUNTAIN_PASS. Altitude: 1617m"
  },
  "passo-del-lagare": {
    "name": "Passo del Lagarè",
    "slug": "passo-del-lagare",
    "category": "MOUNTAIN_PASS",
    "region": "Alps",
    "country": "Europe",
    "lat": 44.1391025,
    "lng": 7.7311936,
    "nearest_airport": "NCE",
    "description": "Auto-imported MOUNTAIN_PASS. Altitude: 1746m"
  },
  "passo-del-lagastrello": {
    "name": "Passo del Lagastrello",
    "slug": "passo-del-lagastrello",
    "category": "MOUNTAIN_PASS",
    "region": "Alps",
    "country": "Europe",
    "lat": 44.3402625,
    "lng": 10.1297705,
    "nearest_airport": "MXP",
    "description": "Auto-imported MOUNTAIN_PASS. Altitude: 1200m"
  },
  "passo-del-lagastrello-2704": {
    "name": "Passo del Lagastrello",
    "slug": "passo-del-lagastrello-2704",
    "category": "MOUNTAIN_PASS",
    "region": "Alps",
    "country": "",
    "lat": 44.3402625,
    "lng": 10.1297705,
    "nearest_airport": "",
    "description": "Verified Location."
  },
  "passo-del-lago": {
    "name": "Passo del Lago",
    "slug": "passo-del-lago",
    "category": "MOUNTAIN_PASS",
    "region": "Alps",
    "country": "Europe",
    "lat": 46.1051239,
    "lng": 11.376981,
    "nearest_airport": "VCE",
    "description": "Auto-imported MOUNTAIN_PASS. Altitude: 2213m"
  },
  "passo-del-lago-254": {
    "name": "Passo del Lago",
    "slug": "passo-del-lago-254",
    "category": "MOUNTAIN_PASS",
    "region": "Alps",
    "country": "",
    "lat": 46.1051239,
    "lng": 11.376981,
    "nearest_airport": "",
    "description": "Verified Location."
  },
  "passo-del-lago-cavegna": {
    "name": "Passo del Lago Cavegna",
    "slug": "passo-del-lago-cavegna",
    "category": "MOUNTAIN_PASS",
    "region": "Alps",
    "country": "Europe",
    "lat": 46.2426917,
    "lng": 8.4653343,
    "nearest_airport": "MXP",
    "description": "Auto-imported MOUNTAIN_PASS. Altitude: 2381m"
  },
  "passo-del-lago-cavegna-3356": {
    "name": "Passo del Lago Cavegna",
    "slug": "passo-del-lago-cavegna-3356",
    "category": "MOUNTAIN_PASS",
    "region": "Alps",
    "country": "",
    "lat": 46.2426917,
    "lng": 8.4653343,
    "nearest_airport": "",
    "description": "Verified Location."
  },
  "passo-del-lago-nero": {
    "name": "Passo del Lago Nero",
    "slug": "passo-del-lago-nero",
    "category": "MOUNTAIN_PASS",
    "region": "Alps",
    "country": "Europe",
    "lat": 46.4893111,
    "lng": 9.3719953,
    "nearest_airport": "MXP",
    "description": "Auto-imported MOUNTAIN_PASS. Altitude: 2574m"
  },
  "passo-del-lago-nero-1167": {
    "name": "Passo del Lago Nero",
    "slug": "passo-del-lago-nero-1167",
    "category": "MOUNTAIN_PASS",
    "region": "Alps",
    "country": "",
    "lat": 46.4893111,
    "lng": 9.3719953,
    "nearest_airport": "",
    "description": "Verified Location."
  },
  "passo-del-landro": {
    "name": "Passo del Landro",
    "slug": "passo-del-landro",
    "category": "MOUNTAIN_PASS",
    "region": "Alps",
    "country": "Europe",
    "lat": 46.4681748,
    "lng": 12.5414355,
    "nearest_airport": "VCE",
    "description": "Auto-imported MOUNTAIN_PASS. Altitude: N/Am"
  },
  "passo-del-lasso": {
    "name": "Passo del Lasso",
    "slug": "passo-del-lasso",
    "category": "MOUNTAIN_PASS",
    "region": "Alps",
    "country": "Europe",
    "lat": 45.7589936,
    "lng": 10.3399403,
    "nearest_airport": "MXP",
    "description": "Auto-imported MOUNTAIN_PASS. Altitude: 1175m"
  },
  "passo-del-leverone": {
    "name": "Passo del Leverone",
    "slug": "passo-del-leverone",
    "category": "MOUNTAIN_PASS",
    "region": "Alps",
    "country": "Europe",
    "lat": 46.5393991,
    "lng": 10.0438777,
    "nearest_airport": "INN",
    "description": "Auto-imported MOUNTAIN_PASS. Altitude: 2818m"
  },
  "passo-del-leverone-1264": {
    "name": "Passo del Leverone",
    "slug": "passo-del-leverone-1264",
    "category": "MOUNTAIN_PASS",
    "region": "Alps",
    "country": "",
    "lat": 46.5393991,
    "lng": 10.0438777,
    "nearest_airport": "",
    "description": "Verified Location."
  },
  "passo-del-listino": {
    "name": "Passo del Listino",
    "slug": "passo-del-listino",
    "category": "MOUNTAIN_PASS",
    "region": "Alps",
    "country": "Europe",
    "lat": 45.9814327,
    "lng": 10.4523816,
    "nearest_airport": "MXP",
    "description": "Auto-imported MOUNTAIN_PASS. Altitude: 2651m"
  },
  "passo-del-listino-1377": {
    "name": "Passo del Listino",
    "slug": "passo-del-listino-1377",
    "category": "MOUNTAIN_PASS",
    "region": "Alps",
    "country": "",
    "lat": 45.9814327,
    "lng": 10.4523816,
    "nearest_airport": "",
    "description": "Verified Location."
  },
  "passo-del-lucese": {
    "name": "Passo del Lucese",
    "slug": "passo-del-lucese",
    "category": "MOUNTAIN_PASS",
    "region": "Alps",
    "country": "Europe",
    "lat": 43.9364847,
    "lng": 10.3821737,
    "nearest_airport": "MXP",
    "description": "Auto-imported MOUNTAIN_PASS. Altitude: 558m"
  },
  "passo-del-lucomagno": {
    "name": "Passo del Lucomagno",
    "slug": "passo-del-lucomagno",
    "category": "MOUNTAIN_PASS",
    "region": "Alps",
    "country": "Europe",
    "lat": 46.5743059,
    "lng": 8.8011831,
    "nearest_airport": "ZRH",
    "description": "Auto-imported MOUNTAIN_PASS. Altitude: 1972m"
  },
  "passo-del-lucomagno-2298": {
    "name": "Passo del Lucomagno",
    "slug": "passo-del-lucomagno-2298",
    "category": "MOUNTAIN_PASS",
    "region": "Alps",
    "country": "",
    "lat": 46.5743059,
    "lng": 8.8011831,
    "nearest_airport": "",
    "description": "Verified Location."
  },
  "passo-del-lupo": {
    "name": "Passo del Lupo",
    "slug": "passo-del-lupo",
    "category": "MOUNTAIN_PASS",
    "region": "Alps",
    "country": "Europe",
    "lat": 44.004161,
    "lng": 7.9013285,
    "nearest_airport": "NCE",
    "description": "Auto-imported MOUNTAIN_PASS. Altitude: 1118m"
  },
  "passo-del-maccagno": {
    "name": "Passo del Maccagno",
    "slug": "passo-del-maccagno",
    "category": "MOUNTAIN_PASS",
    "region": "Alps",
    "country": "Europe",
    "lat": 45.7430994,
    "lng": 7.9197363,
    "nearest_airport": "MXP",
    "description": "Auto-imported MOUNTAIN_PASS. Altitude: 2495m"
  },
  "passo-del-maccagno-2230": {
    "name": "Passo del Maccagno",
    "slug": "passo-del-maccagno-2230",
    "category": "MOUNTAIN_PASS",
    "region": "Alps",
    "country": "",
    "lat": 45.7430994,
    "lng": 7.9197363,
    "nearest_airport": "",
    "description": "Verified Location."
  },
  "passo-del-madriccio": {
    "name": "Passo del Madriccio",
    "slug": "passo-del-madriccio",
    "category": "MOUNTAIN_PASS",
    "region": "Alps",
    "country": "Europe",
    "lat": 46.4980343,
    "lng": 10.6293266,
    "nearest_airport": "INN",
    "description": "Auto-imported MOUNTAIN_PASS. Altitude: 3123m"
  },
  "passo-del-madriccio-65": {
    "name": "Passo del Madriccio",
    "slug": "passo-del-madriccio-65",
    "category": "MOUNTAIN_PASS",
    "region": "Alps",
    "country": "",
    "lat": 46.4980343,
    "lng": 10.6293266,
    "nearest_airport": "",
    "description": "Verified Location."
  },
  "passo-del-maroccaro": {
    "name": "Passo del Maroccaro",
    "slug": "passo-del-maroccaro",
    "category": "MOUNTAIN_PASS",
    "region": "Alps",
    "country": "Europe",
    "lat": 46.2192613,
    "lng": 10.5777204,
    "nearest_airport": "INN",
    "description": "Auto-imported MOUNTAIN_PASS. Altitude: 2973m"
  },
  "passo-del-maroccaro-2552": {
    "name": "Passo del Maroccaro",
    "slug": "passo-del-maroccaro-2552",
    "category": "MOUNTAIN_PASS",
    "region": "Alps",
    "country": "",
    "lat": 46.2192613,
    "lng": 10.5777204,
    "nearest_airport": "",
    "description": "Verified Location."
  },
  "passo-del-mater": {
    "name": "Passo del Mater",
    "slug": "passo-del-mater",
    "category": "MOUNTAIN_PASS",
    "region": "Alps",
    "country": "Europe",
    "lat": 46.4446112,
    "lng": 9.3964472,
    "nearest_airport": "MXP",
    "description": "Auto-imported MOUNTAIN_PASS. Altitude: 2920m"
  },
  "passo-del-mater-1171": {
    "name": "Passo del Mater",
    "slug": "passo-del-mater-1171",
    "category": "MOUNTAIN_PASS",
    "region": "Alps",
    "country": "",
    "lat": 46.4446112,
    "lng": 9.3964472,
    "nearest_airport": "",
    "description": "Verified Location."
  },
  "passo-del-matterot": {
    "name": "Passo del Matterot",
    "slug": "passo-del-matterot",
    "category": "MOUNTAIN_PASS",
    "region": "Alps",
    "country": "Europe",
    "lat": 46.1825947,
    "lng": 10.6046974,
    "nearest_airport": "INN",
    "description": "Auto-imported MOUNTAIN_PASS. Altitude: 2608m"
  },
  "passo-del-matterot-3816": {
    "name": "Passo del Matterot",
    "slug": "passo-del-matterot-3816",
    "category": "MOUNTAIN_PASS",
    "region": "Alps",
    "country": "",
    "lat": 46.1825947,
    "lng": 10.6046974,
    "nearest_airport": "",
    "description": "Verified Location."
  },
  "passo-del-mercatello": {
    "name": "Passo del Mercatello",
    "slug": "passo-del-mercatello",
    "category": "MOUNTAIN_PASS",
    "region": "Alps",
    "country": "Europe",
    "lat": 44.653996,
    "lng": 9.4510271,
    "nearest_airport": "MXP",
    "description": "Auto-imported MOUNTAIN_PASS. Altitude: 1053m"
  },
  "passo-del-mercatello-1503": {
    "name": "Passo del Mercatello",
    "slug": "passo-del-mercatello-1503",
    "category": "MOUNTAIN_PASS",
    "region": "Alps",
    "country": "",
    "lat": 44.653996,
    "lng": 9.4510271,
    "nearest_airport": "",
    "description": "Verified Location."
  },
  "passo-del-mesole": {
    "name": "Passo del Mesole",
    "slug": "passo-del-mesole",
    "category": "MOUNTAIN_PASS",
    "region": "Alps",
    "country": "Europe",
    "lat": 45.676036,
    "lng": 11.1720027,
    "nearest_airport": "VCE",
    "description": "Auto-imported MOUNTAIN_PASS. Altitude: 1552m"
  },
  "passo-del-miller": {
    "name": "Passo del Miller",
    "slug": "passo-del-miller",
    "category": "MOUNTAIN_PASS",
    "region": "Alps",
    "country": "Europe",
    "lat": 46.1262702,
    "lng": 10.4794078,
    "nearest_airport": "INN",
    "description": "Auto-imported MOUNTAIN_PASS. Altitude: 2858m"
  },
  "passo-del-miller-749": {
    "name": "Passo del Miller",
    "slug": "passo-del-miller-749",
    "category": "MOUNTAIN_PASS",
    "region": "Alps",
    "country": "",
    "lat": 46.1262702,
    "lng": 10.4794078,
    "nearest_airport": "",
    "description": "Verified Location."
  },
  "passo-del-montanel": {
    "name": "Passo del Montanèl",
    "slug": "passo-del-montanel",
    "category": "MOUNTAIN_PASS",
    "region": "Alps",
    "country": "Europe",
    "lat": 46.26046,
    "lng": 10.7119044,
    "nearest_airport": "INN",
    "description": "Auto-imported MOUNTAIN_PASS. Altitude: 2569m"
  },
  "passo-del-montanel-3657": {
    "name": "Passo del Montanèl",
    "slug": "passo-del-montanel-3657",
    "category": "MOUNTAIN_PASS",
    "region": "Alps",
    "country": "",
    "lat": 46.26046,
    "lng": 10.7119044,
    "nearest_airport": "",
    "description": "Verified Location."
  },
  "passo-del-monte-trebbio": {
    "name": "Passo del Monte Trebbio",
    "slug": "passo-del-monte-trebbio",
    "category": "MOUNTAIN_PASS",
    "region": "Alps",
    "country": "Europe",
    "lat": 44.1293316,
    "lng": 11.8283151,
    "nearest_airport": "VCE",
    "description": "Auto-imported MOUNTAIN_PASS. Altitude: 565m"
  },
  "passo-del-mortirolo": {
    "name": "Passo del Mortirolo",
    "slug": "passo-del-mortirolo",
    "category": "MOUNTAIN_PASS",
    "region": "Alps",
    "country": "Europe",
    "lat": 46.2478567,
    "lng": 10.2983094,
    "nearest_airport": "INN",
    "description": "Auto-imported MOUNTAIN_PASS. Altitude: 1852m"
  },
  "passo-del-mortirolo-3755": {
    "name": "Passo del Mortirolo",
    "slug": "passo-del-mortirolo-3755",
    "category": "MOUNTAIN_PASS",
    "region": "Alps",
    "country": "",
    "lat": 46.2478567,
    "lng": 10.2983094,
    "nearest_airport": "",
    "description": "Verified Location."
  },
  "passo-del-mucchione": {
    "name": "Passo del Mucchione",
    "slug": "passo-del-mucchione",
    "category": "MOUNTAIN_PASS",
    "region": "Alps",
    "country": "Europe",
    "lat": 45.6704603,
    "lng": 11.3262091,
    "nearest_airport": "VCE",
    "description": "Auto-imported MOUNTAIN_PASS. Altitude: 635m"
  },
  "passo-del-mulo": {
    "name": "Passo del Mulo",
    "slug": "passo-del-mulo",
    "category": "MOUNTAIN_PASS",
    "region": "Alps",
    "country": "Europe",
    "lat": 46.6002912,
    "lng": 12.6875234,
    "nearest_airport": "VCE",
    "description": "Auto-imported MOUNTAIN_PASS. Altitude: 2356m"
  },
  "passo-del-mulo-2810": {
    "name": "Passo del Mulo",
    "slug": "passo-del-mulo-2810",
    "category": "MOUNTAIN_PASS",
    "region": "Alps",
    "country": "",
    "lat": 46.6002912,
    "lng": 12.6875234,
    "nearest_airport": "",
    "description": "Verified Location."
  },
  "passo-del-muraglione": {
    "name": "Passo del Muraglione",
    "slug": "passo-del-muraglione",
    "category": "MOUNTAIN_PASS",
    "region": "Alps",
    "country": "Europe",
    "lat": 43.9328957,
    "lng": 11.6547827,
    "nearest_airport": "VCE",
    "description": "Auto-imported MOUNTAIN_PASS. Altitude: 907m"
  },
  "passo-del-muraglione-3685": {
    "name": "Passo del Muraglione",
    "slug": "passo-del-muraglione-3685",
    "category": "MOUNTAIN_PASS",
    "region": "Alps",
    "country": "",
    "lat": 43.9328957,
    "lng": 11.6547827,
    "nearest_airport": "",
    "description": "Verified Location."
  },
  "passo-del-muretto": {
    "name": "Passo del Muretto",
    "slug": "passo-del-muretto",
    "category": "MOUNTAIN_PASS",
    "region": "Alps",
    "country": "Europe",
    "lat": 46.3153672,
    "lng": 8.3347801,
    "nearest_airport": "MXP",
    "description": "Auto-imported MOUNTAIN_PASS. Altitude: 2347m"
  },
  "passo-del-muretto-2318": {
    "name": "Passo del Muretto",
    "slug": "passo-del-muretto-2318",
    "category": "MOUNTAIN_PASS",
    "region": "Alps",
    "country": "",
    "lat": 46.3153672,
    "lng": 8.3347801,
    "nearest_airport": "",
    "description": "Verified Location."
  },
  "passo-del-mus": {
    "name": "Passo del Mus",
    "slug": "passo-del-mus",
    "category": "MOUNTAIN_PASS",
    "region": "Alps",
    "country": "Europe",
    "lat": 46.3786276,
    "lng": 12.5502907,
    "nearest_airport": "VCE",
    "description": "Auto-imported MOUNTAIN_PASS. Altitude: 2063m"
  },