{
  "passo-malandrini": {
    "name": "Passo Malandrini",
    "slug": "passo-malandrini",
    "category": "MOUNTAIN_PASS",
    "region": "Alps",
    "country": "Europe",
    "lat": 44.0857041,
    "lng": 10.8479724,
    "nearest_airport": "VCE",
    "description": "Auto-imported MOUNTAIN_PASS. Altitude: 1577m"
  },
  "passo-maleet": {
    "name": "Passo Maleet",
    "slug": "passo-maleet",
    "category": "MOUNTAIN_PASS",
    "region": "Alps",
    "country": "Europe",
    "lat": 46.3639717,
    "lng": 13.1842914,
    "nearest_airport": "VCE",
    "description": "Auto-imported MOUNTAIN_PASS. Altitude: 1620m"
  },
  "passo-malera": {
    "name": "Passo Malera",
    "slug": "passo-malera",
    "category": "MOUNTAIN_PASS",
    "region": "Alps",
    "country": "Europe",
    "lat": 45.6863113,
    "lng": 11.1064207,
    "nearest_airport": "VCE",
    "description": "Auto-imported MOUNTAIN_PASS. Altitude: 1722m"
  },
  "passo-malgina": {
    "name": "Passo Malgina",
    "slug": "passo-malgina",
    "category": "MOUNTAIN_PASS",
    "region": "Alps",
    "country": "Europe",
    "lat": 46.2358613,
    "lng": 10.0536942,
    "nearest_airport": "MXP",
    "description": "Auto-imported MOUNTAIN_PASS. Altitude: 2619m"
  },
  "passo-malgina-3603": {
    "name": "Passo Malgina",
    "slug": "passo-malgina-3603",
    "category": "MOUNTAIN_PASS",
    "region": "Alps",
    "country": "",
    "lat": 46.2358613,
    "lng": 10.0536942,
    "nearest_airport": "",
    "description": "Verified Location."
  },
  "passo-manfron": {
    "name": "Passo Manfron",
    "slug": "passo-manfron",
    "category": "MOUNTAIN_PASS",
    "region": "Alps",
    "country": "Europe",
    "lat": 45.7026106,
    "lng": 11.288331,
    "nearest_airport": "VCE",
    "description": "Auto-imported MOUNTAIN_PASS. Altitude: 706m"
  },
  "passo-manghen": {
    "name": "Passo Manghen",
    "slug": "passo-manghen",
    "category": "MOUNTAIN_PASS",
    "region": "Alps",
    "country": "Europe",
    "lat": 46.1732517,
    "lng": 11.4414698,
    "nearest_airport": "VCE",
    "description": "Auto-imported MOUNTAIN_PASS. Altitude: 2047m"
  },
  "passo-manghen-154": {
    "name": "Passo Manghen",
    "slug": "passo-manghen-154",
    "category": "MOUNTAIN_PASS",
    "region": "Alps",
    "country": "",
    "lat": 46.1732517,
    "lng": 11.4414698,
    "nearest_airport": "",
    "description": "Verified Location."
  },
  "passo-marilleva": {
    "name": "Passo Marilleva",
    "slug": "passo-marilleva",
    "category": "MOUNTAIN_PASS",
    "region": "Alps",
    "country": "Europe",
    "lat": 46.2984208,
    "lng": 10.8191058,
    "nearest_airport": "INN",
    "description": "Auto-imported MOUNTAIN_PASS. Altitude: 1525m"
  },
  "passo-marinelli-occidentale": {
    "name": "Passo Marinelli Occidentale",
    "slug": "passo-marinelli-occidentale",
    "category": "MOUNTAIN_PASS",
    "region": "Alps",
    "country": "Europe",
    "lat": 46.3506478,
    "lng": 9.9128171,
    "nearest_airport": "MXP",
    "description": "Auto-imported MOUNTAIN_PASS. Altitude: 3014m"
  },
  "passo-marinelli-occidentale-1221": {
    "name": "Passo Marinelli Occidentale",
    "slug": "passo-marinelli-occidentale-1221",
    "category": "MOUNTAIN_PASS",
    "region": "Alps",
    "country": "",
    "lat": 46.3506478,
    "lng": 9.9128171,
    "nearest_airport": "",
    "description": "Verified Location."
  },
  "passo-marinelli-orientale": {
    "name": "Passo Marinelli Orientale",
    "slug": "passo-marinelli-orientale",
    "category": "MOUNTAIN_PASS",
    "region": "Alps",
    "country": "Europe",
    "lat": 46.3481607,
    "lng": 9.9196042,
    "nearest_airport": "MXP",
    "description": "Auto-imported MOUNTAIN_PASS. Altitude: 3030m"
  },
  "passo-marinelli-orientale-1224": {
    "name": "Passo Marinelli Orientale",
    "slug": "passo-marinelli-orientale-1224",
    "category": "MOUNTAIN_PASS",
    "region": "Alps",
    "country": "",
    "lat": 46.3481607,
    "lng": 9.9196042,
    "nearest_airport": "",
    "description": "Verified Location."
  },
  "passo-maurone": {
    "name": "Passo Maurone",
    "slug": "passo-maurone",
    "category": "MOUNTAIN_PASS",
    "region": "Alps",
    "country": "Europe",
    "lat": 46.3277654,
    "lng": 10.412829,
    "nearest_airport": "INN",
    "description": "Auto-imported MOUNTAIN_PASS. Altitude: 2694m"
  },
  "passo-maurone-1299": {
    "name": "Passo Maurone",
    "slug": "passo-maurone-1299",
    "category": "MOUNTAIN_PASS",
    "region": "Alps",
    "country": "",
    "lat": 46.3277654,
    "lng": 10.412829,
    "nearest_airport": "",
    "description": "Verified Location."
  },
  "passo-mezzano": {
    "name": "Passo Mezzano",
    "slug": "passo-mezzano",
    "category": "MOUNTAIN_PASS",
    "region": "Alps",
    "country": "Europe",
    "lat": 44.5624392,
    "lng": 8.8447815,
    "nearest_airport": "TRN",
    "description": "Auto-imported MOUNTAIN_PASS. Altitude: 1066m"
  },
  "passo-mignone": {
    "name": "Passo Mignone",
    "slug": "passo-mignone",
    "category": "MOUNTAIN_PASS",
    "region": "Alps",
    "country": "Europe",
    "lat": 45.977292,
    "lng": 10.2112238,
    "nearest_airport": "MXP",
    "description": "Auto-imported MOUNTAIN_PASS. Altitude: 1527m"
  },
  "passo-mimoias": {
    "name": "Passo Mimoias",
    "slug": "passo-mimoias",
    "category": "MOUNTAIN_PASS",
    "region": "Alps",
    "country": "Europe",
    "lat": 46.5157847,
    "lng": 12.6297258,
    "nearest_airport": "VCE",
    "description": "Auto-imported MOUNTAIN_PASS. Altitude: 1976m"
  },
  "passo-mirafiori": {
    "name": "Passo Mirafiori",
    "slug": "passo-mirafiori",
    "category": "MOUNTAIN_PASS",
    "region": "Alps",
    "country": "Europe",
    "lat": 46.1942593,
    "lng": 11.3720427,
    "nearest_airport": "VCE",
    "description": "Auto-imported MOUNTAIN_PASS. Altitude: 2047m"
  },
  "passo-mirafiori-2566": {
    "name": "Passo Mirafiori",
    "slug": "passo-mirafiori-2566",
    "category": "MOUNTAIN_PASS",
    "region": "Alps",
    "country": "",
    "lat": 46.1942593,
    "lng": 11.3720427,
    "nearest_airport": "",
    "description": "Verified Location."
  },
  "passo-mistadella": {
    "name": "Passo Mistadella",
    "slug": "passo-mistadella",
    "category": "MOUNTAIN_PASS",
    "region": "Alps",
    "country": "Europe",
    "lat": 44.3385198,
    "lng": 9.8142522,
    "nearest_airport": "MXP",
    "description": "Auto-imported MOUNTAIN_PASS. Altitude: 1034m"
  },
  "passo-moglio": {
    "name": "Passo Moglio",
    "slug": "passo-moglio",
    "category": "MOUNTAIN_PASS",
    "region": "Alps",
    "country": "Europe",
    "lat": 44.4520371,
    "lng": 8.4527738,
    "nearest_airport": "TRN",
    "description": "Auto-imported MOUNTAIN_PASS. Altitude: N/Am"
  },
  "passo-monte-finocchio": {
    "name": "Passo Monte Finocchio",
    "slug": "passo-monte-finocchio",
    "category": "MOUNTAIN_PASS",
    "region": "Alps",
    "country": "Europe",
    "lat": 43.9468948,
    "lng": 12.1334412,
    "nearest_airport": "VCE",
    "description": "Auto-imported MOUNTAIN_PASS. Altitude: 607m"
  },
  "passo-montevacca": {
    "name": "Passo Montevaccà",
    "slug": "passo-montevacca",
    "category": "MOUNTAIN_PASS",
    "region": "Alps",
    "country": "Europe",
    "lat": 44.5352042,
    "lng": 9.6097392,
    "nearest_airport": "MXP",
    "description": "Auto-imported MOUNTAIN_PASS. Altitude: 805m"
  },
  "passo-montevacca-1890": {
    "name": "Passo Montevaccà",
    "slug": "passo-montevacca-1890",
    "category": "MOUNTAIN_PASS",
    "region": "Alps",
    "country": "",
    "lat": 44.5352042,
    "lng": 9.6097392,
    "nearest_airport": "",
    "description": "Verified Location."
  },
  "passo-mulaz": {
    "name": "Passo Mulaz",
    "slug": "passo-mulaz",
    "category": "MOUNTAIN_PASS",
    "region": "Alps",
    "country": "Europe",
    "lat": 46.309954,
    "lng": 11.8353821,
    "nearest_airport": "VCE",
    "description": "Auto-imported MOUNTAIN_PASS. Altitude: 2619m"
  },
  "passo-mulaz-1823": {
    "name": "Passo Mulaz",
    "slug": "passo-mulaz-1823",
    "category": "MOUNTAIN_PASS",
    "region": "Alps",
    "country": "",
    "lat": 46.309954,
    "lng": 11.8353821,
    "nearest_airport": "",
    "description": "Verified Location."
  }
}