{
  "passo-la-colla": {
    "name": "Passo la Colla",
    "slug": "passo-la-colla",
    "category": "MOUNTAIN_PASS",
    "region": "Alps",
    "country": "Europe",
    "lat": 44.4795448,
    "lng": 9.1367902,
    "nearest_airport": "MXP",
    "description": "Auto-imported MOUNTAIN_PASS. Altitude: 845m"
  },
  "passo-la-costea": {
    "name": "Passo La Costea",
    "slug": "passo-la-costea",
    "category": "MOUNTAIN_PASS",
    "region": "Alps",
    "country": "Europe",
    "lat": 44.3831469,
    "lng": 8.588852,
    "nearest_airport": "TRN",
    "description": "Auto-imported MOUNTAIN_PASS. Altitude: N/Am"
  },
  "passo-la-croce-occidentale": {
    "name": "Passo la Croce Occidentale",
    "slug": "passo-la-croce-occidentale",
    "category": "MOUNTAIN_PASS",
    "region": "Alps",
    "country": "Europe",
    "lat": 44.4086541,
    "lng": 6.9680121,
    "nearest_airport": "NCE",
    "description": "Auto-imported MOUNTAIN_PASS. Altitude: 2650m"
  },
  "passo-la-croce-occidentale-1449": {
    "name": "Passo la Croce Occidentale",
    "slug": "passo-la-croce-occidentale-1449",
    "category": "MOUNTAIN_PASS",
    "region": "Alps",
    "country": "",
    "lat": 44.4086541,
    "lng": 6.9680121,
    "nearest_airport": "",
    "description": "Verified Location."
  },
  "passo-la-croce-orientale": {
    "name": "Passo la Croce Orientale",
    "slug": "passo-la-croce-orientale",
    "category": "MOUNTAIN_PASS",
    "region": "Alps",
    "country": "Europe",
    "lat": 44.4079514,
    "lng": 6.9699494,
    "nearest_airport": "NCE",
    "description": "Auto-imported MOUNTAIN_PASS. Altitude: N/Am"
  },
  "passo-la-crocetta": {
    "name": "Passo La Crocetta",
    "slug": "passo-la-crocetta",
    "category": "MOUNTAIN_PASS",
    "region": "Alps",
    "country": "Europe",
    "lat": 44.3935745,
    "lng": 9.0635138,
    "nearest_airport": "MXP",
    "description": "Auto-imported MOUNTAIN_PASS. Altitude: N/Am"
  },
  "passo-la-porta": {
    "name": "Passo La Porta",
    "slug": "passo-la-porta",
    "category": "MOUNTAIN_PASS",
    "region": "Alps",
    "country": "Europe",
    "lat": 45.8417084,
    "lng": 9.4881885,
    "nearest_airport": "MXP",
    "description": "Auto-imported MOUNTAIN_PASS. Altitude: 1123m"
  },
  "passo-la-stacca": {
    "name": "Passo La Stacca",
    "slug": "passo-la-stacca",
    "category": "MOUNTAIN_PASS",
    "region": "Alps",
    "country": "Europe",
    "lat": 45.627277,
    "lng": 10.535996,
    "nearest_airport": "MXP",
    "description": "Auto-imported MOUNTAIN_PASS. Altitude: 450m"
  },
  "passo-la-stretta": {
    "name": "Passo La Stretta",
    "slug": "passo-la-stretta",
    "category": "MOUNTAIN_PASS",
    "region": "Alps",
    "country": "Europe",
    "lat": 46.4748011,
    "lng": 10.0477056,
    "nearest_airport": "INN",
    "description": "Auto-imported MOUNTAIN_PASS. Altitude: 3000m"
  },
  "passo-la-stretta-1262": {
    "name": "Passo La Stretta",
    "slug": "passo-la-stretta-1262",
    "category": "MOUNTAIN_PASS",
    "region": "Alps",
    "country": "",
    "lat": 46.4748011,
    "lng": 10.0477056,
    "nearest_airport": "",
    "description": "Verified Location."
  },
  "passo-laghetto": {
    "name": "Passo Laghetto",
    "slug": "passo-laghetto",
    "category": "MOUNTAIN_PASS",
    "region": "Alps",
    "country": "Europe",
    "lat": 45.6714568,
    "lng": 11.1540032,
    "nearest_airport": "VCE",
    "description": "Auto-imported MOUNTAIN_PASS. Altitude: N/Am"
  },
  "passo-larnaia": {
    "name": "Passo Larnaia",
    "slug": "passo-larnaia",
    "category": "MOUNTAIN_PASS",
    "region": "Alps",
    "country": "Europe",
    "lat": 44.4745973,
    "lng": 9.2381102,
    "nearest_airport": "MXP",
    "description": "Auto-imported MOUNTAIN_PASS. Altitude: 1110m"
  },
  "passo-lastra": {
    "name": "Passo Lastra",
    "slug": "passo-lastra",
    "category": "MOUNTAIN_PASS",
    "region": "Alps",
    "country": "Europe",
    "lat": 46.1543717,
    "lng": 10.4604379,
    "nearest_airport": "INN",
    "description": "Auto-imported MOUNTAIN_PASS. Altitude: 2900m"
  },
  "passo-lastra-1369": {
    "name": "Passo Lastra",
    "slug": "passo-lastra-1369",
    "category": "MOUNTAIN_PASS",
    "region": "Alps",
    "country": "",
    "lat": 46.1543717,
    "lng": 10.4604379,
    "nearest_airport": "",
    "description": "Verified Location."
  },
  "passo-lauset": {
    "name": "Passo Lauset",
    "slug": "passo-lauset",
    "category": "MOUNTAIN_PASS",
    "region": "Alps",
    "country": "Europe",
    "lat": 44.5299006,
    "lng": 6.9373403,
    "nearest_airport": "TRN",
    "description": "Auto-imported MOUNTAIN_PASS. Altitude: 2889m"
  },
  "passo-lauset-2761": {
    "name": "Passo Lauset",
    "slug": "passo-lauset-2761",
    "category": "MOUNTAIN_PASS",
    "region": "Alps",
    "country": "",
    "lat": 44.5299006,
    "lng": 6.9373403,
    "nearest_airport": "",
    "description": "Verified Location."
  },
  "passo-lavinal": {
    "name": "Passo Lavinal",
    "slug": "passo-lavinal",
    "category": "MOUNTAIN_PASS",
    "region": "Alps",
    "country": "Europe",
    "lat": 46.4034023,
    "lng": 12.5486886,
    "nearest_airport": "VCE",
    "description": "Auto-imported MOUNTAIN_PASS. Altitude: 1968m"
  },
  "passo-le-fraine": {
    "name": "Passo Le Fraine",
    "slug": "passo-le-fraine",
    "category": "MOUNTAIN_PASS",
    "region": "Alps",
    "country": "Europe",
    "lat": 46.331352,
    "lng": 10.9652837,
    "nearest_airport": "INN",
    "description": "Auto-imported MOUNTAIN_PASS. Altitude: 1706m"
  },
  "passo-le-vette-grandi": {
    "name": "Passo Le Vette Grandi",
    "slug": "passo-le-vette-grandi",
    "category": "MOUNTAIN_PASS",
    "region": "Alps",
    "country": "Europe",
    "lat": 46.0900005,
    "lng": 11.8432831,
    "nearest_airport": "VCE",
    "description": "Auto-imported MOUNTAIN_PASS. Altitude: 1994m"
  },
  "passo-ligoncio": {
    "name": "Passo Ligoncio",
    "slug": "passo-ligoncio",
    "category": "MOUNTAIN_PASS",
    "region": "Alps",
    "country": "Europe",
    "lat": 46.2459034,
    "lng": 9.5536211,
    "nearest_airport": "MXP",
    "description": "Auto-imported MOUNTAIN_PASS. Altitude: 2572m"
  },
  "passo-ligoncio-1181": {
    "name": "Passo Ligoncio",
    "slug": "passo-ligoncio-1181",
    "category": "MOUNTAIN_PASS",
    "region": "Alps",
    "country": "",
    "lat": 46.2459034,
    "lng": 9.5536211,
    "nearest_airport": "",
    "description": "Verified Location."
  },
  "passo-linguada": {
    "name": "Passo Linguadà",
    "slug": "passo-linguada",
    "category": "MOUNTAIN_PASS",
    "region": "Alps",
    "country": "Europe",
    "lat": 44.6692182,
    "lng": 9.6483507,
    "nearest_airport": "MXP",
    "description": "Auto-imported MOUNTAIN_PASS. Altitude: 930m"
  },
  "passo-linguada-3182": {
    "name": "Passo Linguadà",
    "slug": "passo-linguada-3182",
    "category": "MOUNTAIN_PASS",
    "region": "Alps",
    "country": "",
    "lat": 44.6692182,
    "lng": 9.6483507,
    "nearest_airport": "",
    "description": "Verified Location."
  },
  "passo-lividino": {
    "name": "Passo Lividino",
    "slug": "passo-lividino",
    "category": "MOUNTAIN_PASS",
    "region": "Alps",
    "country": "Europe",
    "lat": 45.7276756,
    "lng": 10.195126,
    "nearest_airport": "MXP",
    "description": "Auto-imported MOUNTAIN_PASS. Altitude: 1335m"
  },
  "passo-lodinut-noblingpass": {
    "name": "Passo Lodinut / Nöblingpass",
    "slug": "passo-lodinut-noblingpass",
    "category": "MOUNTAIN_PASS",
    "region": "Alps",
    "country": "Europe",
    "lat": 46.6005278,
    "lng": 13.0922778,
    "nearest_airport": "SZG",
    "description": "Auto-imported MOUNTAIN_PASS. Altitude: 1817m"
  },
  "passo-lucco": {
    "name": "Passo Lucco",
    "slug": "passo-lucco",
    "category": "MOUNTAIN_PASS",
    "region": "Alps",
    "country": "Europe",
    "lat": 45.8407726,
    "lng": 11.1895139,
    "nearest_airport": "VCE",
    "description": "Auto-imported MOUNTAIN_PASS. Altitude: 1373m"
  },
  "passo-luisaras": {
    "name": "Passo Luisaras",
    "slug": "passo-luisaras",
    "category": "MOUNTAIN_PASS",
    "region": "Alps",
    "country": "Europe",
    "lat": 44.7140141,
    "lng": 7.0640539,
    "nearest_airport": "TRN",
    "description": "Auto-imported MOUNTAIN_PASS. Altitude: 2940m"
  },
  "passo-luisaras-1776": {
    "name": "Passo Luisaras",
    "slug": "passo-luisaras-1776",
    "category": "MOUNTAIN_PASS",
    "region": "Alps",
    "country": "",
    "lat": 44.7140141,
    "lng": 7.0640539,
    "nearest_airport": "",
    "description": "Verified Location."
  },
  "passo-luisas": {
    "name": "Passo Luisàs",
    "slug": "passo-luisas",
    "category": "MOUNTAIN_PASS",
    "region": "Alps",
    "country": "Europe",
    "lat": 44.7170127,
    "lng": 7.0702167,
    "nearest_airport": "TRN",
    "description": "Auto-imported MOUNTAIN_PASS. Altitude: 3019m"
  },
  "passo-luisas-2289": {
    "name": "Passo Luisàs",
    "slug": "passo-luisas-2289",
    "category": "MOUNTAIN_PASS",
    "region": "Alps",
    "country": "",
    "lat": 44.7170127,
    "lng": 7.0702167,
    "nearest_airport": "",
    "description": "Verified Location."
  },
  "passo-lurani": {
    "name": "Passo Lurani",
    "slug": "passo-lurani",
    "category": "MOUNTAIN_PASS",
    "region": "Alps",
    "country": "Europe",
    "lat": 46.3008813,
    "lng": 9.6799341,
    "nearest_airport": "MXP",
    "description": "Auto-imported MOUNTAIN_PASS. Altitude: 3222m"
  },
  "passo-lurani-2082": {
    "name": "Passo Lurani",
    "slug": "passo-lurani-2082",
    "category": "MOUNTAIN_PASS",
    "region": "Alps",
    "country": "",
    "lat": 46.3008813,
    "lng": 9.6799341,
    "nearest_airport": "",
    "description": "Verified Location."
  }
}