{
  "pian-crosc": {
    "name": "Pian Crosc",
    "slug": "pian-crosc",
    "category": "MOUNTAIN_PASS",
    "region": "Alps",
    "country": "Europe",
    "lat": 46.3065453,
    "lng": 8.5130118,
    "nearest_airport": "MXP",
    "description": "Auto-imported MOUNTAIN_PASS. Altitude: 1926m"
  },
  "pian-cuvinicc": {
    "name": "Pian Cuvinicc",
    "slug": "pian-cuvinicc",
    "category": "SCENIC_POINT",
    "region": "Alps",
    "country": "Europe",
    "lat": 45.9442992,
    "lng": 8.7117482,
    "nearest_airport": "MXP",
    "description": "Auto-imported SCENIC_POINT. Altitude: N/Am"
  },
  "pian-dei-massi": {
    "name": "Pian dei Massi",
    "slug": "pian-dei-massi",
    "category": "SCENIC_POINT",
    "region": "Alps",
    "country": "Europe",
    "lat": 43.9617882,
    "lng": 11.0876767,
    "nearest_airport": "VCE",
    "description": "Auto-imported SCENIC_POINT. Altitude: N/Am"
  },
  "pian-del-soglio": {
    "name": "Pian del Soglio",
    "slug": "pian-del-soglio",
    "category": "SCENIC_POINT",
    "region": "Alps",
    "country": "Europe",
    "lat": 44.2966708,
    "lng": 7.5484758,
    "nearest_airport": "NCE",
    "description": "Auto-imported SCENIC_POINT. Altitude: N/Am"
  },
  "pian-della-vergine": {
    "name": "Pian della Vergine",
    "slug": "pian-della-vergine",
    "category": "SCENIC_POINT",
    "region": "Alps",
    "country": "Europe",
    "lat": 43.628876,
    "lng": 11.587519,
    "nearest_airport": "VCE",
    "description": "Auto-imported SCENIC_POINT. Altitude: N/Am"
  },
  "pian-delle-fugazze": {
    "name": "Pian delle Fugazze",
    "slug": "pian-delle-fugazze",
    "category": "MOUNTAIN_PASS",
    "region": "Alps",
    "country": "Europe",
    "lat": 45.7601964,
    "lng": 11.1733246,
    "nearest_airport": "VCE",
    "description": "Auto-imported MOUNTAIN_PASS. Altitude: 1163m"
  },
  "pian-delle-fugazze-365": {
    "name": "Pian delle Fugazze",
    "slug": "pian-delle-fugazze-365",
    "category": "MOUNTAIN_PASS",
    "region": "Alps",
    "country": "",
    "lat": 45.7601964,
    "lng": 11.1733246,
    "nearest_airport": "",
    "description": "Verified Location."
  },
  "pian-dello-stellaio": {
    "name": "Pian dello Stellaio",
    "slug": "pian-dello-stellaio",
    "category": "MOUNTAIN_PASS",
    "region": "Alps",
    "country": "Europe",
    "lat": 44.1066186,
    "lng": 10.8884184,
    "nearest_airport": "VCE",
    "description": "Auto-imported MOUNTAIN_PASS. Altitude: 1350m"
  },
  "pian-di-bensi": {
    "name": "Pian di Bensi",
    "slug": "pian-di-bensi",
    "category": "MOUNTAIN_PASS",
    "region": "Alps",
    "country": "Europe",
    "lat": 45.3629744,
    "lng": 7.5300613,
    "nearest_airport": "TRN",
    "description": "Auto-imported MOUNTAIN_PASS. Altitude: 1680m"
  },
  "pian-di-vito": {
    "name": "Pian di Vito",
    "slug": "pian-di-vito",
    "category": "SCENIC_POINT",
    "region": "Alps",
    "country": "Europe",
    "lat": 45.4894568,
    "lng": 7.8077663,
    "nearest_airport": "TRN",
    "description": "Auto-imported SCENIC_POINT. Altitude: N/Am"
  },
  "pian-fret": {
    "name": "Pian Fret",
    "slug": "pian-fret",
    "category": "MOUNTAIN_PASS",
    "region": "Alps",
    "country": "Europe",
    "lat": 45.6792433,
    "lng": 7.5218911,
    "nearest_airport": "TRN",
    "description": "Auto-imported MOUNTAIN_PASS. Altitude: 2424m"
  },
  "pian-fret-2454": {
    "name": "Pian Fret",
    "slug": "pian-fret-2454",
    "category": "MOUNTAIN_PASS",
    "region": "Alps",
    "country": "",
    "lat": 45.6792433,
    "lng": 7.5218911,
    "nearest_airport": "",
    "description": "Verified Location."
  },
  "pianela-di-ros": {
    "name": "Pianela di Ros",
    "slug": "pianela-di-ros",
    "category": "MOUNTAIN_PASS",
    "region": "Alps",
    "country": "Europe",
    "lat": 46.2316699,
    "lng": 9.3421274,
    "nearest_airport": "MXP",
    "description": "Auto-imported MOUNTAIN_PASS. Altitude: 2185m"
  },
  "pianela-di-ros-3507": {
    "name": "Pianela di Ros",
    "slug": "pianela-di-ros-3507",
    "category": "MOUNTAIN_PASS",
    "region": "Alps",
    "country": "",
    "lat": 46.2316699,
    "lng": 9.3421274,
    "nearest_airport": "",
    "description": "Verified Location."
  },
  "pianeze": {
    "name": "Pianeze",
    "slug": "pianeze",
    "category": "SCENIC_POINT",
    "region": "Alps",
    "country": "Europe",
    "lat": 45.8665027,
    "lng": 10.9581182,
    "nearest_airport": "VCE",
    "description": "Auto-imported SCENIC_POINT. Altitude: N/Am"
  },
  "piattaforma-panoramica-nord": {
    "name": "Piattaforma panoramica nord",
    "slug": "piattaforma-panoramica-nord",
    "category": "SCENIC_POINT",
    "region": "Alps",
    "country": "Europe",
    "lat": 44.8754094,
    "lng": 7.2125181,
    "nearest_airport": "TRN",
    "description": "Auto-imported SCENIC_POINT. Altitude: N/Am"
  },
  "piattaforma-panoramica-sud": {
    "name": "Piattaforma panoramica sud",
    "slug": "piattaforma-panoramica-sud",
    "category": "SCENIC_POINT",
    "region": "Alps",
    "country": "Europe",
    "lat": 44.8742217,
    "lng": 7.2122949,
    "nearest_airport": "TRN",
    "description": "Auto-imported SCENIC_POINT. Altitude: N/Am"
  },
  "piaza-foleto": {
    "name": "Piaza Foleto",
    "slug": "piaza-foleto",
    "category": "SCENIC_POINT",
    "region": "Alps",
    "country": "Europe",
    "lat": 46.5508941,
    "lng": 12.3649514,
    "nearest_airport": "INN",
    "description": "Auto-imported SCENIC_POINT. Altitude: 1650m"
  },
  "piazza-nuova": {
    "name": "Piazza Nuova",
    "slug": "piazza-nuova",
    "category": "SCENIC_POINT",
    "region": "Alps",
    "country": "Europe",
    "lat": 43.5143528,
    "lng": 13.6238038,
    "nearest_airport": "VCE",
    "description": "Auto-imported SCENIC_POINT. Altitude: N/Am"
  },
  "piazza-roma": {
    "name": "Piazza Roma",
    "slug": "piazza-roma",
    "category": "SCENIC_POINT",
    "region": "Alps",
    "country": "Europe",
    "lat": 45.5364679,
    "lng": 11.4710732,
    "nearest_airport": "VCE",
    "description": "Auto-imported SCENIC_POINT. Altitude: N/Am"
  },
  "piazzale-del-bizzarro": {
    "name": "Piazzale del Bizzarro",
    "slug": "piazzale-del-bizzarro",
    "category": "SCENIC_POINT",
    "region": "Alps",
    "country": "Europe",
    "lat": 44.0720286,
    "lng": 10.1731004,
    "nearest_airport": "MXP",
    "description": "Auto-imported SCENIC_POINT. Altitude: N/Am"
  },
  "piazzale-delluccelliera": {
    "name": "Piazzale dell'Uccelliera",
    "slug": "piazzale-delluccelliera",
    "category": "SCENIC_POINT",
    "region": "Alps",
    "country": "Europe",
    "lat": 44.114719,
    "lng": 10.1229849,
    "nearest_airport": "MXP",
    "description": "Auto-imported SCENIC_POINT. Altitude: N/Am"
  },
  "piazzale-deposito-minerale": {
    "name": "Piazzale Deposito Minerale",
    "slug": "piazzale-deposito-minerale",
    "category": "SCENIC_POINT",
    "region": "Alps",
    "country": "Europe",
    "lat": 45.730421,
    "lng": 7.7388324,
    "nearest_airport": "TRN",
    "description": "Auto-imported SCENIC_POINT. Altitude: N/Am"
  },
  "piazzale-lecco": {
    "name": "Piazzale Lecco",
    "slug": "piazzale-lecco",
    "category": "SCENIC_POINT",
    "region": "Alps",
    "country": "Europe",
    "lat": 45.8322217,
    "lng": 9.3708169,
    "nearest_airport": "MXP",
    "description": "Auto-imported SCENIC_POINT. Altitude: N/Am"
  },
  "piazzale-michelangiolo": {
    "name": "Piazzale Michelangiolo",
    "slug": "piazzale-michelangiolo",
    "category": "SCENIC_POINT",
    "region": "Alps",
    "country": "Europe",
    "lat": 43.7631193,
    "lng": 11.2648796,
    "nearest_airport": "VCE",
    "description": "Auto-imported SCENIC_POINT. Altitude: N/Am"
  },
  "piazzale-panoramico": {
    "name": "Piazzale panoramico",
    "slug": "piazzale-panoramico",
    "category": "SCENIC_POINT",
    "region": "Alps",
    "country": "Europe",
    "lat": 45.0428875,
    "lng": 7.696797,
    "nearest_airport": "TRN",
    "description": "Auto-imported SCENIC_POINT. Altitude: N/Am"
  },
  "piazzetta-del-castello": {
    "name": "Piazzetta del Castello",
    "slug": "piazzetta-del-castello",
    "category": "SCENIC_POINT",
    "region": "Alps",
    "country": "Europe",
    "lat": 45.0231486,
    "lng": 9.1949733,
    "nearest_airport": "MXP",
    "description": "Auto-imported SCENIC_POINT. Altitude: N/Am"
  },
  "piazzetta-via-dei-gerani": {
    "name": "Piazzetta Via dei Gerani",
    "slug": "piazzetta-via-dei-gerani",
    "category": "SCENIC_POINT",
    "region": "Alps",
    "country": "Europe",
    "lat": 44.3677613,
    "lng": 8.6108968,
    "nearest_airport": "TRN",
    "description": "Auto-imported SCENIC_POINT. Altitude: N/Am"
  },
  "piazzola-di-valentino": {
    "name": "Piazzola di Valentino",
    "slug": "piazzola-di-valentino",
    "category": "SCENIC_POINT",
    "region": "Alps",
    "country": "Europe",
    "lat": 43.6950197,
    "lng": 11.5638237,
    "nearest_airport": "VCE",
    "description": "Auto-imported SCENIC_POINT. Altitude: N/Am"
  },
  "piazzola-elicottero": {
    "name": "piazzola elicottero",
    "slug": "piazzola-elicottero",
    "category": "SCENIC_POINT",
    "region": "Alps",
    "country": "Europe",
    "lat": 45.9349351,
    "lng": 11.132255,
    "nearest_airport": "VCE",
    "description": "Auto-imported SCENIC_POINT. Altitude: N/Am"
  },
  "piazzola-panoramica": {
    "name": "Piazzola Panoramica",
    "slug": "piazzola-panoramica",
    "category": "SCENIC_POINT",
    "region": "Alps",
    "country": "Europe",
    "lat": 45.7912456,
    "lng": 10.5244783,
    "nearest_airport": "MXP",
    "description": "Auto-imported SCENIC_POINT. Altitude: N/Am"
  },
  "pic-chaussy": {
    "name": "Pic Chaussy",
    "slug": "pic-chaussy",
    "category": "SCENIC_POINT",
    "region": "Alps",
    "country": "Europe",
    "lat": 46.3770486,
    "lng": 7.1127845,
    "nearest_airport": "GVA",
    "description": "Auto-imported SCENIC_POINT. Altitude: N/Am"
  },
  "pic-de-ceuse": {
    "name": "Pic de Céüse",
    "slug": "pic-de-ceuse",
    "category": "SCENIC_POINT",
    "region": "Alps",
    "country": "Europe",
    "lat": 44.508554,
    "lng": 5.9617107,
    "nearest_airport": "NCE",
    "description": "Auto-imported SCENIC_POINT. Altitude: 2016m"
  },
  "pic-de-chaudun": {
    "name": "Pic de Chaudun",
    "slug": "pic-de-chaudun",
    "category": "SCENIC_POINT",
    "region": "Alps",
    "country": "Europe",
    "lat": 44.6338727,
    "lng": 6.0403537,
    "nearest_airport": "TRN",
    "description": "Auto-imported SCENIC_POINT. Altitude: 2146m"
  },
  "pic-de-crigne": {
    "name": "Pic de Crigne",
    "slug": "pic-de-crigne",
    "category": "SCENIC_POINT",
    "region": "Alps",
    "country": "Europe",
    "lat": 44.4083776,
    "lng": 5.9374763,
    "nearest_airport": "NCE",
    "description": "Auto-imported SCENIC_POINT. Altitude: 1263m"
  },
  "pic-de-gleize": {
    "name": "Pic de Gleize",
    "slug": "pic-de-gleize",
    "category": "SCENIC_POINT",
    "region": "Alps",
    "country": "Europe",
    "lat": 44.6338268,
    "lng": 6.0433488,
    "nearest_airport": "TRN",
    "description": "Auto-imported SCENIC_POINT. Altitude: 2161m"
  },
  "pic-de-laiguille": {
    "name": "Pic de l'Aiguille",
    "slug": "pic-de-laiguille",
    "category": "SCENIC_POINT",
    "region": "Alps",
    "country": "Europe",
    "lat": 44.6408412,
    "lng": 6.0490247,
    "nearest_airport": "TRN",
    "description": "Auto-imported SCENIC_POINT. Altitude: 2140m"
  },
  "pic-de-saint-cyr": {
    "name": "Pic de Saint-Cyr",
    "slug": "pic-de-saint-cyr",
    "category": "SCENIC_POINT",
    "region": "Alps",
    "country": "Europe",
    "lat": 44.2441937,
    "lng": 5.790239,
    "nearest_airport": "NCE",
    "description": "Auto-imported SCENIC_POINT. Altitude: 1365m"
  },
  "pic-doise": {
    "name": "Pic d'Oise",
    "slug": "pic-doise",
    "category": "SCENIC_POINT",
    "region": "Alps",
    "country": "Europe",
    "lat": 44.0979812,
    "lng": 6.1389234,
    "nearest_airport": "NCE",
    "description": "Auto-imported SCENIC_POINT. Altitude: 1140m"
  },
  "pic-doliferne": {
    "name": "Pic d'Oliferne",
    "slug": "pic-doliferne",
    "category": "SCENIC_POINT",
    "region": "Alps",
    "country": "Europe",
    "lat": 46.3193285,
    "lng": 5.5886204,
    "nearest_airport": "GVA",
    "description": "Auto-imported SCENIC_POINT. Altitude: N/Am"
  },
  "pic-ouest-de-la-cote-belle": {
    "name": "Pic Ouest de la Côte Belle",
    "slug": "pic-ouest-de-la-cote-belle",
    "category": "SCENIC_POINT",
    "region": "Alps",
    "country": "Europe",
    "lat": 44.8135874,
    "lng": 6.7485736,
    "nearest_airport": "TRN",
    "description": "Auto-imported SCENIC_POINT. Altitude: 2856m"
  },
  "picco-merli": {
    "name": "Picco Merli",
    "slug": "picco-merli",
    "category": "SCENIC_POINT",
    "region": "Alps",
    "country": "Europe",
    "lat": 44.2994761,
    "lng": 9.4604172,
    "nearest_airport": "MXP",
    "description": "Auto-imported SCENIC_POINT. Altitude: N/Am"
  },
  "piccolo-belvedere": {
    "name": "Piccolo Belvedere",
    "slug": "piccolo-belvedere",
    "category": "SCENIC_POINT",
    "region": "Alps",
    "country": "Europe",
    "lat": 46.3276611,
    "lng": 12.1730899,
    "nearest_airport": "VCE",
    "description": "Auto-imported SCENIC_POINT. Altitude: N/Am"
  },
  "pichlbergscharte-forcella-di-montecolle": {
    "name": "Pichlbergscharte - Forcella di Montecolle",
    "slug": "pichlbergscharte-forcella-di-montecolle",
    "category": "MOUNTAIN_PASS",
    "region": "Alps",
    "country": "Europe",
    "lat": 46.8623737,
    "lng": 11.8176236,
    "nearest_airport": "INN",
    "description": "Auto-imported MOUNTAIN_PASS. Altitude: 2311m"
  },
  "pichlbergscharte-forcella-di-montecolle-376": {
    "name": "Pichlbergscharte - Forcella di Montecolle",
    "slug": "pichlbergscharte-forcella-di-montecolle-376",
    "category": "MOUNTAIN_PASS",
    "region": "Alps",
    "country": "",
    "lat": 46.8623737,
    "lng": 11.8176236,
    "nearest_airport": "",
    "description": "Verified Location."
  },
  "pidinger-klettersteig-ende": {
    "name": "Pidinger Klettersteig Ende",
    "slug": "pidinger-klettersteig-ende",
    "category": "SCENIC_POINT",
    "region": "Alps",
    "country": "Europe",
    "lat": 47.755758,
    "lng": 12.8493944,
    "nearest_airport": "SZG",
    "description": "Auto-imported SCENIC_POINT. Altitude: N/Am"
  },
  "pielachtaler-gscheid": {
    "name": "Pielachtaler Gscheid",
    "slug": "pielachtaler-gscheid",
    "category": "MOUNTAIN_PASS",
    "region": "Alps",
    "country": "Europe",
    "lat": 47.9388759,
    "lng": 15.4271712,
    "nearest_airport": "VIE",
    "description": "Auto-imported MOUNTAIN_PASS. Altitude: 841m"
  },
  "pielachtaler-gscheid-2048": {
    "name": "Pielachtaler Gscheid",
    "slug": "pielachtaler-gscheid-2048",
    "category": "MOUNTAIN_PASS",
    "region": "Alps",
    "country": "",
    "lat": 47.9388759,
    "lng": 15.4271712,
    "nearest_airport": "",
    "description": "Verified Location."
  },
  "piera-tsarva": {
    "name": "Piëra Tsarva",
    "slug": "piera-tsarva",
    "category": "SCENIC_POINT",
    "region": "Alps",
    "country": "Europe",
    "lat": 45.1354899,
    "lng": 7.0242737,
    "nearest_airport": "TRN",
    "description": "Auto-imported SCENIC_POINT. Altitude: 738m"
  },
  "pierre-a-faille": {
    "name": "Pierre à Faille",
    "slug": "pierre-a-faille",
    "category": "SCENIC_POINT",
    "region": "Alps",
    "country": "Europe",
    "lat": 46.1727426,
    "lng": 7.0154961,
    "nearest_airport": "GVA",
    "description": "Auto-imported SCENIC_POINT. Altitude: N/Am"
  },
  "pierre-a-feu-dartifices": {
    "name": "Pierre à feu d'artifices",
    "slug": "pierre-a-feu-dartifices",
    "category": "SCENIC_POINT",
    "region": "Alps",
    "country": "Europe",
    "lat": 45.2625195,
    "lng": 6.372797,
    "nearest_airport": "TRN",
    "description": "Auto-imported SCENIC_POINT. Altitude: N/Am"
  },
  "pierre-a-la-dame": {
    "name": "Pierre à la Dame",
    "slug": "pierre-a-la-dame",
    "category": "SCENIC_POINT",
    "region": "Alps",
    "country": "Europe",
    "lat": 45.9284213,
    "lng": 6.3487245,
    "nearest_airport": "GVA",
    "description": "Auto-imported SCENIC_POINT. Altitude: N/Am"
  },
  "pierre-avoi": {
    "name": "Pierre Avoi",
    "slug": "pierre-avoi",
    "category": "SCENIC_POINT",
    "region": "Alps",
    "country": "Europe",
    "lat": 46.1181471,
    "lng": 7.1999978,
    "nearest_airport": "GVA",
    "description": "Auto-imported SCENIC_POINT. Altitude: 2473m"
  },
  "pierre-avoi-2103": {
    "name": "Pierre Avoi",
    "slug": "pierre-avoi-2103",
    "category": "SCENIC_POINT",
    "region": "Alps",
    "country": "",
    "lat": 46.1181471,
    "lng": 7.1999978,
    "nearest_airport": "",
    "description": "Verified Location."
  },
  "pierre-besse": {
    "name": "Pierre Besse",
    "slug": "pierre-besse",
    "category": "SCENIC_POINT",
    "region": "Alps",
    "country": "Europe",
    "lat": 45.6010145,
    "lng": 6.1690354,
    "nearest_airport": "GVA",
    "description": "Auto-imported SCENIC_POINT. Altitude: N/Am"
  },
  "pierre-blonde": {
    "name": "Pierre Blonde",
    "slug": "pierre-blonde",
    "category": "SCENIC_POINT",
    "region": "Alps",
    "country": "Europe",
    "lat": 44.6175166,
    "lng": 6.2206836,
    "nearest_airport": "TRN",
    "description": "Auto-imported SCENIC_POINT. Altitude: N/Am"
  },
  "pierre-des-deux-eveques": {
    "name": "Pierre des Deux Évêques",
    "slug": "pierre-des-deux-eveques",
    "category": "SCENIC_POINT",
    "region": "Alps",
    "country": "Europe",
    "lat": 45.7786627,
    "lng": 5.7954172,
    "nearest_airport": "GVA",
    "description": "Auto-imported SCENIC_POINT. Altitude: N/Am"
  },
  "pierre-nioule": {
    "name": "Pierre Nioule",
    "slug": "pierre-nioule",
    "category": "SCENIC_POINT",
    "region": "Alps",
    "country": "Europe",
    "lat": 45.6640322,
    "lng": 5.8424181,
    "nearest_airport": "GVA",
    "description": "Auto-imported SCENIC_POINT. Altitude: 710m"
  },
  "piessling-ursprung": {
    "name": "Pießling Ursprung",
    "slug": "piessling-ursprung",
    "category": "SCENIC_POINT",
    "region": "Alps",
    "country": "Europe",
    "lat": 47.6917427,
    "lng": 14.275804,
    "nearest_airport": "SZG",
    "description": "Auto-imported SCENIC_POINT. Altitude: N/Am"
  },
  "pietersteiner-alm-malga-della-pietra": {
    "name": "Pietersteiner Alm - Malga della Pietra",
    "slug": "pietersteiner-alm-malga-della-pietra",
    "category": "SCENIC_POINT",
    "region": "Alps",
    "country": "Europe",
    "lat": 46.9084547,
    "lng": 11.9115849,
    "nearest_airport": "INN",
    "description": "Auto-imported SCENIC_POINT. Altitude: N/Am"
  },
  "pietra-corva": {
    "name": "Pietra Corva",
    "slug": "pietra-corva",
    "category": "SCENIC_POINT",
    "region": "Alps",
    "country": "Europe",
    "lat": 44.7131762,
    "lng": 10.0187454,
    "nearest_airport": "MXP",
    "description": "Auto-imported SCENIC_POINT. Altitude: 543m"
  },
  "pietra-di-bismantova": {
    "name": "Pietra Di Bismantova",
    "slug": "pietra-di-bismantova",
    "category": "SCENIC_POINT",
    "region": "Alps",
    "country": "Europe",
    "lat": 44.4211553,
    "lng": 10.414128,
    "nearest_airport": "MXP",
    "description": "Auto-imported SCENIC_POINT. Altitude: 1041m"
  },
  "pietra-di-bismantova-1505": {
    "name": "Pietra Di Bismantova",
    "slug": "pietra-di-bismantova-1505",
    "category": "SCENIC_POINT",
    "region": "Alps",
    "country": "",
    "lat": 44.4211553,
    "lng": 10.414128,
    "nearest_airport": "",
    "description": "Verified Location."
  },
  "pietra-miliare-fd": {
    "name": "pietra miliare FD",
    "slug": "pietra-miliare-fd",
    "category": "SCENIC_POINT",
    "region": "Alps",
    "country": "Europe",
    "lat": 44.4714654,
    "lng": 9.4750523,
    "nearest_airport": "MXP",
    "description": "Auto-imported SCENIC_POINT. Altitude: N/Am"
  },
  "pietra-voiara": {
    "name": "Pietra Voiara",
    "slug": "pietra-voiara",
    "category": "MOUNTAIN_PASS",
    "region": "Alps",
    "country": "Europe",
    "lat": 44.3872055,
    "lng": 8.452935,
    "nearest_airport": "TRN",
    "description": "Auto-imported MOUNTAIN_PASS. Altitude: N/Am"
  },
  "pignarul": {
    "name": "Pignarul",
    "slug": "pignarul",
    "category": "SCENIC_POINT",
    "region": "Alps",
    "country": "Europe",
    "lat": 46.2450484,
    "lng": 13.1983298,
    "nearest_airport": "VCE",
    "description": "Auto-imported SCENIC_POINT. Altitude: N/Am"
  },
  "pihapper": {
    "name": "Pihapper",
    "slug": "pihapper",
    "category": "SCENIC_POINT",
    "region": "Alps",
    "country": "Europe",
    "lat": 47.2340895,
    "lng": 12.4612746,
    "nearest_airport": "SZG",
    "description": "Auto-imported SCENIC_POINT. Altitude: 2513m"
  },
  "pihapper-1746": {
    "name": "Pihapper",
    "slug": "pihapper-1746",
    "category": "SCENIC_POINT",
    "region": "Alps",
    "country": "",
    "lat": 47.2340895,
    "lng": 12.4612746,
    "nearest_airport": "",
    "description": "Verified Location."
  },
  "pilatusscharte": {
    "name": "Pilatusscharte",
    "slug": "pilatusscharte",
    "category": "MOUNTAIN_PASS",
    "region": "Alps",
    "country": "Europe",
    "lat": 47.0560819,
    "lng": 12.9501522,
    "nearest_airport": "SZG",
    "description": "Auto-imported MOUNTAIN_PASS. Altitude: 2905m"
  },
  "pilatusscharte-1854": {
    "name": "Pilatusscharte",
    "slug": "pilatusscharte-1854",
    "category": "MOUNTAIN_PASS",
    "region": "Alps",
    "country": "",
    "lat": 47.0560819,
    "lng": 12.9501522,
    "nearest_airport": "",
    "description": "Verified Location."
  },
  "pilgerbank-kreidler": {
    "name": "Pilgerbank Kreidler",
    "slug": "pilgerbank-kreidler",
    "category": "SCENIC_POINT",
    "region": "Alps",
    "country": "Europe",
    "lat": 47.7107037,
    "lng": 9.4286688,
    "nearest_airport": "ZRH",
    "description": "Auto-imported SCENIC_POINT. Altitude: N/Am"
  },
  "pilgerraststatte": {
    "name": "Pilgerraststätte",
    "slug": "pilgerraststatte",
    "category": "SCENIC_POINT",
    "region": "Alps",
    "country": "Europe",
    "lat": 46.9775907,
    "lng": 14.2503052,
    "nearest_airport": "SZG",
    "description": "Auto-imported SCENIC_POINT. Altitude: N/Am"
  },
  "piller-kreuz": {
    "name": "Piller Kreuz",
    "slug": "piller-kreuz",
    "category": "SCENIC_POINT",
    "region": "Alps",
    "country": "Europe",
    "lat": 47.1477641,
    "lng": 10.6596422,
    "nearest_airport": "INN",
    "description": "Auto-imported SCENIC_POINT. Altitude: N/Am"
  },
  "pillerhohe": {
    "name": "Pillerhöhe",
    "slug": "pillerhohe",
    "category": "MOUNTAIN_PASS",
    "region": "Alps",
    "country": "Europe",
    "lat": 47.1180564,
    "lng": 10.6669403,
    "nearest_airport": "INN",
    "description": "Auto-imported MOUNTAIN_PASS. Altitude: 1559m"
  },
  "pillerhohe-3282": {
    "name": "Pillerhöhe",
    "slug": "pillerhohe-3282",
    "category": "MOUNTAIN_PASS",
    "region": "Alps",
    "country": "",
    "lat": 47.1180564,
    "lng": 10.6669403,
    "nearest_airport": "",
    "description": "Verified Location."
  },
  "pilone-di-santa-croce": {
    "name": "Pilone di Santa Croce",
    "slug": "pilone-di-santa-croce",
    "category": "SCENIC_POINT",
    "region": "Alps",
    "country": "Europe",
    "lat": 44.8407868,
    "lng": 7.2855241,
    "nearest_airport": "TRN",
    "description": "Auto-imported SCENIC_POINT. Altitude: N/Am"
  },
  "pin-pourri": {
    "name": "Pin Pourri",
    "slug": "pin-pourri",
    "category": "SCENIC_POINT",
    "region": "Alps",
    "country": "Europe",
    "lat": 44.0895069,
    "lng": 7.0195592,
    "nearest_airport": "NCE",
    "description": "Auto-imported SCENIC_POINT. Altitude: 1826m"
  },
  "pin-umbrela": {
    "name": "Pin Umbrela",
    "slug": "pin-umbrela",
    "category": "SCENIC_POINT",
    "region": "Alps",
    "country": "Europe",
    "lat": 45.819304,
    "lng": 9.0438008,
    "nearest_airport": "MXP",
    "description": "Auto-imported SCENIC_POINT. Altitude: 621m"
  },
  "pincerie": {
    "name": "Pincerie",
    "slug": "pincerie",
    "category": "SCENIC_POINT",
    "region": "Alps",
    "country": "Europe",
    "lat": 45.2754218,
    "lng": 6.0410586,
    "nearest_airport": "GVA",
    "description": "Auto-imported SCENIC_POINT. Altitude: 1900m"
  },
  "pincol": {
    "name": "Pincol",
    "slug": "pincol",
    "category": "SCENIC_POINT",
    "region": "Alps",
    "country": "Europe",
    "lat": 45.8519866,
    "lng": 9.6759798,
    "nearest_airport": "MXP",
    "description": "Auto-imported SCENIC_POINT. Altitude: N/Am"
  },
  "pindarplatz": {
    "name": "Pindarplatz",
    "slug": "pindarplatz",
    "category": "SCENIC_POINT",
    "region": "Alps",
    "country": "Europe",
    "lat": 47.5530863,
    "lng": 10.729745,
    "nearest_airport": "INN",
    "description": "Auto-imported SCENIC_POINT. Altitude: N/Am"
  },
  "pindarplatz-260": {
    "name": "Pindarplatz",
    "slug": "pindarplatz-260",
    "category": "SCENIC_POINT",
    "region": "Alps",
    "country": "",
    "lat": 47.5530863,
    "lng": 10.729745,
    "nearest_airport": "",
    "description": "Verified Location."
  },
  "pinetti": {
    "name": "Pinetti",
    "slug": "pinetti",
    "category": "SCENIC_POINT",
    "region": "Alps",
    "country": "Europe",
    "lat": 44.4205899,
    "lng": 8.9720213,
    "nearest_airport": "TRN",
    "description": "Auto-imported SCENIC_POINT. Altitude: N/Am"
  },
  "pinnisjoch": {
    "name": "Pinnisjoch",
    "slug": "pinnisjoch",
    "category": "MOUNTAIN_PASS",
    "region": "Alps",
    "country": "Europe",
    "lat": 47.0437223,
    "lng": 11.3116152,
    "nearest_airport": "INN",
    "description": "Auto-imported MOUNTAIN_PASS. Altitude: 2372m"
  },
  "pinnisjoch-308": {
    "name": "Pinnisjoch",
    "slug": "pinnisjoch-308",
    "category": "MOUNTAIN_PASS",
    "region": "Alps",
    "country": "",
    "lat": 47.0437223,
    "lng": 11.3116152,
    "nearest_airport": "",
    "description": "Verified Location."
  },
  "piodera": {
    "name": "Piodera",
    "slug": "piodera",
    "category": "SCENIC_POINT",
    "region": "Alps",
    "country": "Europe",
    "lat": 46.0450163,
    "lng": 8.9626322,
    "nearest_airport": "MXP",
    "description": "Auto-imported SCENIC_POINT. Altitude: N/Am"
  },
  "pipjilicke": {
    "name": "Pipjilicke",
    "slug": "pipjilicke",
    "category": "MOUNTAIN_PASS",
    "region": "Alps",
    "country": "Europe",
    "lat": 46.1683223,
    "lng": 7.7303141,
    "nearest_airport": "MXP",
    "description": "Auto-imported MOUNTAIN_PASS. Altitude: 3050m"
  },
  "pipjilicke-3667": {
    "name": "Pipjilicke",
    "slug": "pipjilicke-3667",
    "category": "MOUNTAIN_PASS",
    "region": "Alps",
    "country": "",
    "lat": 46.1683223,
    "lng": 7.7303141,
    "nearest_airport": "",
    "description": "Verified Location."
  },
  "piramida": {
    "name": "Piramida",
    "slug": "piramida",
    "category": "SCENIC_POINT",
    "region": "Alps",
    "country": "Europe",
    "lat": 43.558866,
    "lng": 16.4560404,
    "nearest_airport": "VCE",
    "description": "Auto-imported SCENIC_POINT. Altitude: N/Am"
  },
  "piramida-402": {
    "name": "Piramida",
    "slug": "piramida-402",
    "category": "SCENIC_POINT",
    "region": "Alps",
    "country": "",
    "lat": 46.5680831,
    "lng": 15.6523331,
    "nearest_airport": "",
    "description": "Verified Location."
  },
  "piramida-ravna-gora": {
    "name": "Piramida Ravna Gora",
    "slug": "piramida-ravna-gora",
    "category": "SCENIC_POINT",
    "region": "Alps",
    "country": "Europe",
    "lat": 46.2716394,
    "lng": 15.983855,
    "nearest_airport": "VIE",
    "description": "Auto-imported SCENIC_POINT. Altitude: 694m"
  },
  "pisgiu": {
    "name": "Pisgiù",
    "slug": "pisgiu",
    "category": "SCENIC_POINT",
    "region": "Alps",
    "country": "Europe",
    "lat": 45.752717,
    "lng": 9.6604386,
    "nearest_airport": "MXP",
    "description": "Auto-imported SCENIC_POINT. Altitude: N/Am"
  },
  "pistallegra": {
    "name": "Pistallegra",
    "slug": "pistallegra",
    "category": "SCENIC_POINT",
    "region": "Alps",
    "country": "Europe",
    "lat": 43.7722049,
    "lng": 11.015432,
    "nearest_airport": "VCE",
    "description": "Auto-imported SCENIC_POINT. Altitude: N/Am"
  },
  "pitztaler-jochl": {
    "name": "Pitztaler Jöchl",
    "slug": "pitztaler-jochl",
    "category": "MOUNTAIN_PASS",
    "region": "Alps",
    "country": "Europe",
    "lat": 46.9407679,
    "lng": 10.919692,
    "nearest_airport": "INN",
    "description": "Auto-imported MOUNTAIN_PASS. Altitude: 2996m"
  },
  "pitztaler-jochl-991": {
    "name": "Pitztaler Jöchl",
    "slug": "pitztaler-jochl-991",
    "category": "MOUNTAIN_PASS",
    "region": "Alps",
    "country": "",
    "lat": 46.9407679,
    "lng": 10.919692,
    "nearest_airport": "",
    "description": "Verified Location."
  },
  "piz-belvedere": {
    "name": "Piz Belvedere",
    "slug": "piz-belvedere",
    "category": "SCENIC_POINT",
    "region": "Alps",
    "country": "Europe",
    "lat": 45.8179043,
    "lng": 9.0946422,
    "nearest_airport": "MXP",
    "description": "punto panoramico fornito di cannocchiale"
  },
  "piz-campasc": {
    "name": "Piz Campasc",
    "slug": "piz-campasc",
    "category": "SCENIC_POINT",
    "region": "Alps",
    "country": "Europe",
    "lat": 46.396811,
    "lng": 10.0446913,
    "nearest_airport": "MXP",
    "description": "Auto-imported SCENIC_POINT. Altitude: 2598m"
  },
  "piz-de-corn": {
    "name": "Piz de Corn",
    "slug": "piz-de-corn",
    "category": "SCENIC_POINT",
    "region": "Alps",
    "country": "Europe",
    "lat": 46.688573,
    "lng": 11.9192958,
    "nearest_airport": "INN",
    "description": "Auto-imported SCENIC_POINT. Altitude: 1893m"
  },
  "piz-de-pares": {
    "name": "Piz de Pares",
    "slug": "piz-de-pares",
    "category": "SCENIC_POINT",
    "region": "Alps",
    "country": "Europe",
    "lat": 46.6602134,
    "lng": 11.9702885,
    "nearest_airport": "INN",
    "description": "Auto-imported SCENIC_POINT. Altitude: 2394m"
  },
  "piz-de-pares-1872": {
    "name": "Piz de Pares",
    "slug": "piz-de-pares-1872",
    "category": "SCENIC_POINT",
    "region": "Alps",
    "country": "",
    "lat": 46.6602134,
    "lng": 11.9702885,
    "nearest_airport": "",
    "description": "Verified Location."
  },
  "piz-mundaun": {
    "name": "Piz Mundaun",
    "slug": "piz-mundaun",
    "category": "SCENIC_POINT",
    "region": "Alps",
    "country": "Europe",
    "lat": 46.7426239,
    "lng": 9.1604973,
    "nearest_airport": "ZRH",
    "description": "Auto-imported SCENIC_POINT. Altitude: 2064m"
  },
  "piz-munschuns": {
    "name": "Piz Munschuns",
    "slug": "piz-munschuns",
    "category": "SCENIC_POINT",
    "region": "Alps",
    "country": "Europe",
    "lat": 46.9704836,
    "lng": 10.3743849,
    "nearest_airport": "INN",
    "description": "Auto-imported SCENIC_POINT. Altitude: N/Am"
  },
  "piza-dales-diesc": {
    "name": "Piza dales Diesc",
    "slug": "piza-dales-diesc",
    "category": "SCENIC_POINT",
    "region": "Alps",
    "country": "Europe",
    "lat": 46.6223325,
    "lng": 11.9608891,
    "nearest_airport": "INN",
    "description": "Auto-imported SCENIC_POINT. Altitude: 3026m"
  },
  "piza-dales-diesc-3457": {
    "name": "Piza dales Diesc",
    "slug": "piza-dales-diesc-3457",
    "category": "SCENIC_POINT",
    "region": "Alps",
    "country": "",
    "lat": 46.6223325,
    "lng": 11.9608891,
    "nearest_airport": "",
    "description": "Verified Location."
  },
  "piza-dales-nu": {
    "name": "Piza dales Nü",
    "slug": "piza-dales-nu",
    "category": "SCENIC_POINT",
    "region": "Alps",
    "country": "Europe",
    "lat": 46.6303454,
    "lng": 11.9810725,
    "nearest_airport": "INN",
    "description": "Auto-imported SCENIC_POINT. Altitude: 2968m"
  },
  "piza-dales-nu-374": {
    "name": "Piza dales Nü",
    "slug": "piza-dales-nu-374",
    "category": "SCENIC_POINT",
    "region": "Alps",
    "country": "",
    "lat": 46.6303454,
    "lng": 11.9810725,
    "nearest_airport": "",
    "description": "Verified Location."
  },
  "piza-de-gherdenacia": {
    "name": "Piza de Gherdenacia",
    "slug": "piza-de-gherdenacia",
    "category": "SCENIC_POINT",
    "region": "Alps",
    "country": "Europe",
    "lat": 46.5945886,
    "lng": 11.8482211,
    "nearest_airport": "INN",
    "description": "Auto-imported SCENIC_POINT. Altitude: 2673m"
  },
  "pizzi-dei-piani": {
    "name": "Pizzi dei Piani",
    "slug": "pizzi-dei-piani",
    "category": "SCENIC_POINT",
    "region": "Alps",
    "country": "Europe",
    "lat": 46.455088,
    "lng": 9.272192,
    "nearest_airport": "MXP",
    "description": "Auto-imported SCENIC_POINT. Altitude: 3157m"
  },
  "pizzi-dei-piani-759": {
    "name": "Pizzi dei Piani",
    "slug": "pizzi-dei-piani-759",
    "category": "SCENIC_POINT",
    "region": "Alps",
    "country": "",
    "lat": 46.455088,
    "lng": 9.272192,
    "nearest_airport": "",
    "description": "Verified Location."
  },
  "pizzo": {
    "name": "pizzo",
    "slug": "pizzo",
    "category": "SCENIC_POINT",
    "region": "Alps",
    "country": "Europe",
    "lat": 45.8853715,
    "lng": 8.1409045,
    "nearest_airport": "MXP",
    "description": "Auto-imported SCENIC_POINT. Altitude: N/Am"
  },
  "pizzo-bianco": {
    "name": "Pizzo Bianco",
    "slug": "pizzo-bianco",
    "category": "SCENIC_POINT",
    "region": "Alps",
    "country": "Europe",
    "lat": 46.4499215,
    "lng": 9.2579486,
    "nearest_airport": "MXP",
    "description": "Auto-imported SCENIC_POINT. Altitude: 3037m"
  },
  "pizzo-coppa": {
    "name": "Pizzo Coppa",
    "slug": "pizzo-coppa",
    "category": "SCENIC_POINT",
    "region": "Alps",
    "country": "Europe",
    "lat": 46.0574897,
    "lng": 9.2157797,
    "nearest_airport": "MXP",
    "description": "Auto-imported SCENIC_POINT. Altitude: 1420m"
  },
  "pizzo-di-casina": {
    "name": "Pizzo di Casina",
    "slug": "pizzo-di-casina",
    "category": "SCENIC_POINT",
    "region": "Alps",
    "country": "Europe",
    "lat": 44.1974067,
    "lng": 10.8358975,
    "nearest_airport": "VCE",
    "description": "Auto-imported SCENIC_POINT. Altitude: N/Am"
  },
  "pizzo-gallino": {
    "name": "Pizzo Gallino",
    "slug": "pizzo-gallino",
    "category": "SCENIC_POINT",
    "region": "Alps",
    "country": "Europe",
    "lat": 46.1776827,
    "lng": 10.9624745,
    "nearest_airport": "INN",
    "description": "Auto-imported SCENIC_POINT. Altitude: 2442m"
  },
  "pizzo-gallino-371": {
    "name": "Pizzo Gallino",
    "slug": "pizzo-gallino-371",
    "category": "SCENIC_POINT",
    "region": "Alps",
    "country": "",
    "lat": 46.1776827,
    "lng": 10.9624745,
    "nearest_airport": "",
    "description": "Verified Location."
  },
  "pizzo-latta": {
    "name": "Pizzo Latta",
    "slug": "pizzo-latta",
    "category": "SCENIC_POINT",
    "region": "Alps",
    "country": "Europe",
    "lat": 46.4489598,
    "lng": 9.2845542,
    "nearest_airport": "MXP",
    "description": "Auto-imported SCENIC_POINT. Altitude: 2598m"
  },
  "pizzo-rabbioso": {
    "name": "Pizzo Rabbioso",
    "slug": "pizzo-rabbioso",
    "category": "SCENIC_POINT",
    "region": "Alps",
    "country": "Europe",
    "lat": 45.8379826,
    "lng": 9.7034663,
    "nearest_airport": "MXP",
    "description": "Auto-imported SCENIC_POINT. Altitude: 1151m"
  },
  "pizzo-tamborello": {
    "name": "Pizzo Tamborello",
    "slug": "pizzo-tamborello",
    "category": "SCENIC_POINT",
    "region": "Alps",
    "country": "Europe",
    "lat": 46.5040457,
    "lng": 9.3109352,
    "nearest_airport": "MXP",
    "description": "Auto-imported SCENIC_POINT. Altitude: 2669m"
  },
  "pizzo-tamborello-714": {
    "name": "Pizzo Tamborello",
    "slug": "pizzo-tamborello-714",
    "category": "SCENIC_POINT",
    "region": "Alps",
    "country": "",
    "lat": 46.5040457,
    "lng": 9.3109352,
    "nearest_airport": "",
    "description": "Verified Location."
  }
}