{
  "rabenfels": {
    "name": "Rabenfels",
    "slug": "rabenfels",
    "category": "SCENIC_POINT",
    "region": "Alps",
    "country": "Europe",
    "lat": 47.7112318,
    "lng": 8.2233723,
    "nearest_airport": "ZRH",
    "description": "Auto-imported SCENIC_POINT. Altitude: N/Am"
  },
  "rabenflue": {
    "name": "Rabenflue",
    "slug": "rabenflue",
    "category": "SCENIC_POINT",
    "region": "Alps",
    "country": "Europe",
    "lat": 46.7621276,
    "lng": 7.6426106,
    "nearest_airport": "ZRH",
    "description": "Auto-imported SCENIC_POINT. Altitude: N/Am"
  },
  "rabenkanzel": {
    "name": "Rabenkanzel",
    "slug": "rabenkanzel",
    "category": "SCENIC_POINT",
    "region": "Alps",
    "country": "Europe",
    "lat": 47.3395018,
    "lng": 13.2069986,
    "nearest_airport": "SZG",
    "description": "Auto-imported SCENIC_POINT. Altitude: N/Am"
  },
  "rabenkogel": {
    "name": "Rabenkogel",
    "slug": "rabenkogel",
    "category": "SCENIC_POINT",
    "region": "Alps",
    "country": "Europe",
    "lat": 46.6638541,
    "lng": 14.0156966,
    "nearest_airport": "SZG",
    "description": "Auto-imported SCENIC_POINT. Altitude: N/Am"
  },
  "rabenkropf": {
    "name": "Rabenkropf",
    "slug": "rabenkropf",
    "category": "SCENIC_POINT",
    "region": "Alps",
    "country": "Europe",
    "lat": 47.572792,
    "lng": 15.8768434,
    "nearest_airport": "VIE",
    "description": "Auto-imported SCENIC_POINT. Altitude: 1464m"
  },
  "rabenstein": {
    "name": "Rabenstein",
    "slug": "rabenstein",
    "category": "SCENIC_POINT",
    "region": "Alps",
    "country": "Europe",
    "lat": 47.8743536,
    "lng": 14.1358542,
    "nearest_airport": "SZG",
    "description": "Auto-imported SCENIC_POINT. Altitude: N/Am"
  },
  "rabenstein-aussichtskanzel": {
    "name": "Rabenstein Aussichtskanzel",
    "slug": "rabenstein-aussichtskanzel",
    "category": "SCENIC_POINT",
    "region": "Alps",
    "country": "Europe",
    "lat": 47.6656843,
    "lng": 15.5863446,
    "nearest_airport": "VIE",
    "description": "Aussichtspunkt mit vom Verein \"Miteinander für Neuberg\" neu angebrachter gravierter Metallplatte der umliegenden Berge sowie (sehr viel) weiter entfernten Städten und Orten. Überdeckt den alten, verwitterten, gravierten Stein der seit 1908 hier steht."
  },
  "radlingpass": {
    "name": "Radlingpass",
    "slug": "radlingpass",
    "category": "MOUNTAIN_PASS",
    "region": "Alps",
    "country": "Europe",
    "lat": 47.5835273,
    "lng": 13.8321226,
    "nearest_airport": "SZG",
    "description": "Auto-imported MOUNTAIN_PASS. Altitude: 853m"
  },
  "radlingpass-3": {
    "name": "Radlingpass",
    "slug": "radlingpass-3",
    "category": "MOUNTAIN_PASS",
    "region": "Alps",
    "country": "",
    "lat": 47.5835273,
    "lng": 13.8321226,
    "nearest_airport": "",
    "description": "Verified Location."
  },
  "radlpass-radeljski-prelaz": {
    "name": "Radlpass / Radeljski prelaz",
    "slug": "radlpass-radeljski-prelaz",
    "category": "MOUNTAIN_PASS",
    "region": "Alps",
    "country": "Europe",
    "lat": 46.6450894,
    "lng": 15.2064879,
    "nearest_airport": "VIE",
    "description": "Auto-imported MOUNTAIN_PASS. Altitude: 661m"
  },
  "radlpass-radeljski-prelaz-316": {
    "name": "Radlpass / Radeljski prelaz",
    "slug": "radlpass-radeljski-prelaz-316",
    "category": "MOUNTAIN_PASS",
    "region": "Alps",
    "country": "",
    "lat": 46.6450894,
    "lng": 15.2064879,
    "nearest_airport": "",
    "description": "Verified Location."
  },
  "radsattel": {
    "name": "Radsattel",
    "slug": "radsattel",
    "category": "MOUNTAIN_PASS",
    "region": "Alps",
    "country": "Europe",
    "lat": 46.8836257,
    "lng": 10.119353,
    "nearest_airport": "INN",
    "description": "Auto-imported MOUNTAIN_PASS. Altitude: 2652m"
  },
  "radsattel-757": {
    "name": "Radsattel",
    "slug": "radsattel-757",
    "category": "MOUNTAIN_PASS",
    "region": "Alps",
    "country": "",
    "lat": 46.8836257,
    "lng": 10.119353,
    "nearest_airport": "",
    "description": "Verified Location."
  },
  "radschulter": {
    "name": "Radschulter",
    "slug": "radschulter",
    "category": "MOUNTAIN_PASS",
    "region": "Alps",
    "country": "Europe",
    "lat": 46.8916161,
    "lng": 10.1164989,
    "nearest_airport": "INN",
    "description": "Auto-imported MOUNTAIN_PASS. Altitude: N/Am"
  },
  "radstadter-tauern": {
    "name": "Radstädter Tauern",
    "slug": "radstadter-tauern",
    "category": "MOUNTAIN_PASS",
    "region": "Alps",
    "country": "Europe",
    "lat": 47.2479945,
    "lng": 13.5592609,
    "nearest_airport": "SZG",
    "description": "Auto-imported MOUNTAIN_PASS. Altitude: 1738m"
  },
  "radstadter-tauern-616": {
    "name": "Radstädter Tauern",
    "slug": "radstadter-tauern-616",
    "category": "MOUNTAIN_PASS",
    "region": "Alps",
    "country": "",
    "lat": 47.2479945,
    "lng": 13.5592609,
    "nearest_airport": "",
    "description": "Verified Location."
  },
  "radstatthohe": {
    "name": "Radstatthöhe",
    "slug": "radstatthohe",
    "category": "MOUNTAIN_PASS",
    "region": "Alps",
    "country": "Europe",
    "lat": 47.6620669,
    "lng": 14.7751987,
    "nearest_airport": "SZG",
    "description": "Auto-imported MOUNTAIN_PASS. Altitude: 637m"
  },
  "raduc": {
    "name": "Raduč",
    "slug": "raduc",
    "category": "SCENIC_POINT",
    "region": "Alps",
    "country": "Europe",
    "lat": 43.8121444,
    "lng": 15.5870414,
    "nearest_airport": "VCE",
    "description": "Auto-imported SCENIC_POINT. Altitude: N/Am"
  },
  "radurschelscharte": {
    "name": "Radurschelscharte",
    "slug": "radurschelscharte",
    "category": "MOUNTAIN_PASS",
    "region": "Alps",
    "country": "Europe",
    "lat": 46.8647791,
    "lng": 10.6349216,
    "nearest_airport": "INN",
    "description": "Auto-imported MOUNTAIN_PASS. Altitude: 2872m"
  },
  "radurschelscharte-3733": {
    "name": "Radurschelscharte",
    "slug": "radurschelscharte-3733",
    "category": "MOUNTAIN_PASS",
    "region": "Alps",
    "country": "",
    "lat": 46.8647791,
    "lng": 10.6349216,
    "nearest_airport": "",
    "description": "Verified Location."
  },
  "rainbachscharte": {
    "name": "Rainbachscharte",
    "slug": "rainbachscharte",
    "category": "MOUNTAIN_PASS",
    "region": "Alps",
    "country": "Europe",
    "lat": 47.1579595,
    "lng": 12.1395384,
    "nearest_airport": "INN",
    "description": "Auto-imported MOUNTAIN_PASS. Altitude: 2724m"
  },
  "rainbachscharte-165": {
    "name": "Rainbachscharte",
    "slug": "rainbachscharte-165",
    "category": "MOUNTAIN_PASS",
    "region": "Alps",
    "country": "",
    "lat": 47.1579595,
    "lng": 12.1395384,
    "nearest_airport": "",
    "description": "Verified Location."
  },
  "rainertorl": {
    "name": "Rainertörl",
    "slug": "rainertorl",
    "category": "MOUNTAIN_PASS",
    "region": "Alps",
    "country": "Europe",
    "lat": 47.1029951,
    "lng": 12.3550041,
    "nearest_airport": "INN",
    "description": "Auto-imported MOUNTAIN_PASS. Altitude: 3421m"
  },
  "rainertorl-966": {
    "name": "Rainertörl",
    "slug": "rainertorl-966",
    "category": "MOUNTAIN_PASS",
    "region": "Alps",
    "country": "",
    "lat": 47.1029951,
    "lng": 12.3550041,
    "nearest_airport": "",
    "description": "Verified Location."
  },
  "raitenbuchblick": {
    "name": "Raitenbuchblick",
    "slug": "raitenbuchblick",
    "category": "SCENIC_POINT",
    "region": "Alps",
    "country": "Europe",
    "lat": 47.8671612,
    "lng": 8.1442594,
    "nearest_airport": "ZRH",
    "description": "Auto-imported SCENIC_POINT. Altitude: N/Am"
  },
  "rajo": {
    "name": "Rajo",
    "slug": "rajo",
    "category": "SCENIC_POINT",
    "region": "Alps",
    "country": "Europe",
    "lat": 46.3316089,
    "lng": 13.5026841,
    "nearest_airport": "VCE",
    "description": "Auto-imported SCENIC_POINT. Altitude: N/Am"
  },
  "rammelstein-montone": {
    "name": "Rammelstein - Montone",
    "slug": "rammelstein-montone",
    "category": "SCENIC_POINT",
    "region": "Alps",
    "country": "Europe",
    "lat": 46.8345556,
    "lng": 12.0530824,
    "nearest_airport": "INN",
    "description": "Auto-imported SCENIC_POINT. Altitude: 2483m"
  },
  "ramoljoch": {
    "name": "Ramoljoch",
    "slug": "ramoljoch",
    "category": "MOUNTAIN_PASS",
    "region": "Alps",
    "country": "Europe",
    "lat": 46.8352177,
    "lng": 10.9651792,
    "nearest_airport": "INN",
    "description": "Auto-imported MOUNTAIN_PASS. Altitude: 3189m"
  },
  "ramoljoch-298": {
    "name": "Ramoljoch",
    "slug": "ramoljoch-298",
    "category": "MOUNTAIN_PASS",
    "region": "Alps",
    "country": "",
    "lat": 46.8352177,
    "lng": 10.9651792,
    "nearest_airport": "",
    "description": "Verified Location."
  },
  "ramsenerblick": {
    "name": "Ramsenerblick",
    "slug": "ramsenerblick",
    "category": "SCENIC_POINT",
    "region": "Alps",
    "country": "Europe",
    "lat": 47.7031902,
    "lng": 8.7958578,
    "nearest_airport": "ZRH",
    "description": "Auto-imported SCENIC_POINT. Altitude: N/Am"
  },
  "ramsjoch": {
    "name": "Ramsjoch",
    "slug": "ramsjoch",
    "category": "MOUNTAIN_PASS",
    "region": "Alps",
    "country": "Europe",
    "lat": 47.1601054,
    "lng": 11.6842672,
    "nearest_airport": "INN",
    "description": "Auto-imported MOUNTAIN_PASS. Altitude: N/Am"
  },
  "ramssattel": {
    "name": "Ramssattel",
    "slug": "ramssattel",
    "category": "MOUNTAIN_PASS",
    "region": "Alps",
    "country": "Europe",
    "lat": 47.6333706,
    "lng": 15.9748521,
    "nearest_airport": "VIE",
    "description": "Auto-imported MOUNTAIN_PASS. Altitude: 824m"
  },
  "ramssattel-276": {
    "name": "Ramssattel",
    "slug": "ramssattel-276",
    "category": "MOUNTAIN_PASS",
    "region": "Alps",
    "country": "",
    "lat": 47.6333706,
    "lng": 15.9748521,
    "nearest_airport": "",
    "description": "Verified Location."
  },
  "ranggpass": {
    "name": "Ränggpass",
    "slug": "ranggpass",
    "category": "MOUNTAIN_PASS",
    "region": "Alps",
    "country": "Europe",
    "lat": 46.9765799,
    "lng": 8.2923177,
    "nearest_airport": "ZRH",
    "description": "Auto-imported MOUNTAIN_PASS. Altitude: 886m"
  },
  "ransun": {
    "name": "Ransun",
    "slug": "ransun",
    "category": "SCENIC_POINT",
    "region": "Alps",
    "country": "Europe",
    "lat": 46.8086711,
    "lng": 9.3282861,
    "nearest_airport": "ZRH",
    "description": "Auto-imported SCENIC_POINT. Altitude: N/Am"
  },
  "ranzinger-w": {
    "name": "Ranzinger W.",
    "slug": "ranzinger-w",
    "category": "SCENIC_POINT",
    "region": "Alps",
    "country": "Europe",
    "lat": 47.6441193,
    "lng": 15.8294619,
    "nearest_airport": "VIE",
    "description": "Auto-imported SCENIC_POINT. Altitude: N/Am"
  },
  "rappenfels": {
    "name": "Rappenfels",
    "slug": "rappenfels",
    "category": "SCENIC_POINT",
    "region": "Alps",
    "country": "Europe",
    "lat": 47.7373775,
    "lng": 8.2067927,
    "nearest_airport": "ZRH",
    "description": "Auto-imported SCENIC_POINT. Altitude: N/Am"
  },
  "rappenfelsen": {
    "name": "Rappenfelsen",
    "slug": "rappenfelsen",
    "category": "SCENIC_POINT",
    "region": "Alps",
    "country": "Europe",
    "lat": 47.5593891,
    "lng": 7.7252939,
    "nearest_airport": "ZRH",
    "description": "Auto-imported SCENIC_POINT. Altitude: N/Am"
  },
  "rastkreuzsattel": {
    "name": "Rastkreuzsattel",
    "slug": "rastkreuzsattel",
    "category": "MOUNTAIN_PASS",
    "region": "Alps",
    "country": "Europe",
    "lat": 47.8113089,
    "lng": 15.9798205,
    "nearest_airport": "VIE",
    "description": "Auto-imported MOUNTAIN_PASS. Altitude: 867m"
  },
  "rastoke": {
    "name": "Rastoke",
    "slug": "rastoke",
    "category": "SCENIC_POINT",
    "region": "Alps",
    "country": "Europe",
    "lat": 45.1210277,
    "lng": 15.5843994,
    "nearest_airport": "VCE",
    "description": "Auto-imported SCENIC_POINT. Altitude: N/Am"
  },
  "rastplatz-chueweid": {
    "name": "Rastplatz Chueweid",
    "slug": "rastplatz-chueweid",
    "category": "SCENIC_POINT",
    "region": "Alps",
    "country": "Europe",
    "lat": 46.5902368,
    "lng": 7.6883224,
    "nearest_airport": "ZRH",
    "description": "Auto-imported SCENIC_POINT. Altitude: N/Am"
  },
  "rastplatz-haochwool-klettersteig": {
    "name": "Rastplatz HaochWool Klettersteig",
    "slug": "rastplatz-haochwool-klettersteig",
    "category": "SCENIC_POINT",
    "region": "Alps",
    "country": "Europe",
    "lat": 46.6536056,
    "lng": 10.9769815,
    "nearest_airport": "INN",
    "description": "Auto-imported SCENIC_POINT. Altitude: N/Am"
  },
  "rastplatz-sabener-promenade-punto-panoramico-di-sabiona": {
    "name": "Rastplatz Säbener Promenade - Punto panoramico di Sabiona",
    "slug": "rastplatz-sabener-promenade-punto-panoramico-di-sabiona",
    "category": "SCENIC_POINT",
    "region": "Alps",
    "country": "Europe",
    "lat": 46.6419782,
    "lng": 11.566912,
    "nearest_airport": "INN",
    "description": "Auto-imported SCENIC_POINT. Altitude: N/Am"
  },
  "raststatte-im-hegau": {
    "name": "Raststätte Im Hegau",
    "slug": "raststatte-im-hegau",
    "category": "SCENIC_POINT",
    "region": "Alps",
    "country": "Europe",
    "lat": 47.8603454,
    "lng": 8.7865154,
    "nearest_airport": "ZRH",
    "description": "Auto-imported SCENIC_POINT. Altitude: N/Am"
  },
  "raten": {
    "name": "Raten",
    "slug": "raten",
    "category": "MOUNTAIN_PASS",
    "region": "Alps",
    "country": "Europe",
    "lat": 47.1418019,
    "lng": 8.6632942,
    "nearest_airport": "ZRH",
    "description": "Auto-imported MOUNTAIN_PASS. Altitude: 1077m"
  },
  "raten-3116": {
    "name": "Raten",
    "slug": "raten-3116",
    "category": "MOUNTAIN_PASS",
    "region": "Alps",
    "country": "",
    "lat": 47.1418019,
    "lng": 8.6632942,
    "nearest_airport": "",
    "description": "Verified Location."
  },
  "rathausblick": {
    "name": "Rathausblick",
    "slug": "rathausblick",
    "category": "SCENIC_POINT",
    "region": "Alps",
    "country": "Europe",
    "lat": 47.8326681,
    "lng": 7.8016457,
    "nearest_airport": "ZRH",
    "description": "Auto-imported SCENIC_POINT. Altitude: N/Am"
  },
  "ratschenjoch": {
    "name": "Rätschenjoch",
    "slug": "ratschenjoch",
    "category": "MOUNTAIN_PASS",
    "region": "Alps",
    "country": "Europe",
    "lat": 46.933262,
    "lng": 9.8581,
    "nearest_airport": "ZRH",
    "description": "Auto-imported MOUNTAIN_PASS. Altitude: 2606m"
  },
  "ratschenjoch-916": {
    "name": "Rätschenjoch",
    "slug": "ratschenjoch-916",
    "category": "MOUNTAIN_PASS",
    "region": "Alps",
    "country": "",
    "lat": 46.933262,
    "lng": 9.8581,
    "nearest_airport": "",
    "description": "Verified Location."
  },
  "ratschinger-scharte-sella-di-racines": {
    "name": "Ratschinger Scharte - Sella di Racines",
    "slug": "ratschinger-scharte-sella-di-racines",
    "category": "MOUNTAIN_PASS",
    "region": "Alps",
    "country": "Europe",
    "lat": 46.8842742,
    "lng": 11.223121,
    "nearest_airport": "INN",
    "description": "Auto-imported MOUNTAIN_PASS. Altitude: 2480m"
  },
  "ratschinger-scharte-sella-di-racines-2943": {
    "name": "Ratschinger Scharte - Sella di Racines",
    "slug": "ratschinger-scharte-sella-di-racines-2943",
    "category": "MOUNTAIN_PASS",
    "region": "Alps",
    "country": "",
    "lat": 46.8842742,
    "lng": 11.223121,
    "nearest_airport": "",
    "description": "Verified Location."
  },
  "ratzenhalden": {
    "name": "Ratzenhalden",
    "slug": "ratzenhalden",
    "category": "SCENIC_POINT",
    "region": "Alps",
    "country": "Europe",
    "lat": 47.4492091,
    "lng": 8.6247161,
    "nearest_airport": "ZRH",
    "description": "Auto-imported SCENIC_POINT. Altitude: N/Am"
  },
  "ratzinger-hohe": {
    "name": "Ratzinger Höhe",
    "slug": "ratzinger-hohe",
    "category": "SCENIC_POINT",
    "region": "Alps",
    "country": "Europe",
    "lat": 47.8766539,
    "lng": 12.3040163,
    "nearest_airport": "SZG",
    "description": "Auto-imported SCENIC_POINT. Altitude: 691m"
  },
  "rauba-capeu": {
    "name": "Raubà capeu",
    "slug": "rauba-capeu",
    "category": "SCENIC_POINT",
    "region": "Alps",
    "country": "Europe",
    "lat": 43.6935052,
    "lng": 7.2790898,
    "nearest_airport": "NCE",
    "description": "Auto-imported SCENIC_POINT. Altitude: N/Am"
  },
  "rauchwiegen": {
    "name": "Rauchwiegen",
    "slug": "rauchwiegen",
    "category": "SCENIC_POINT",
    "region": "Alps",
    "country": "Europe",
    "lat": 47.171173,
    "lng": 12.6182266,
    "nearest_airport": "SZG",
    "description": "Auto-imported SCENIC_POINT. Altitude: N/Am"
  },
  "rauflihorn": {
    "name": "Rauflihorn",
    "slug": "rauflihorn",
    "category": "SCENIC_POINT",
    "region": "Alps",
    "country": "Europe",
    "lat": 46.5327953,
    "lng": 7.4826136,
    "nearest_airport": "GVA",
    "description": "Auto-imported SCENIC_POINT. Altitude: 2322m"
  },
  "rauhekopfscharte": {
    "name": "Rauhekopfscharte",
    "slug": "rauhekopfscharte",
    "category": "MOUNTAIN_PASS",
    "region": "Alps",
    "country": "Europe",
    "lat": 47.1949986,
    "lng": 10.1998997,
    "nearest_airport": "INN",
    "description": "Auto-imported MOUNTAIN_PASS. Altitude: 2415m"
  },
  "rauhekopfscharte-910": {
    "name": "Rauhekopfscharte",
    "slug": "rauhekopfscharte-910",
    "category": "MOUNTAIN_PASS",
    "region": "Alps",
    "country": "",
    "lat": 47.1949986,
    "lng": 10.1998997,
    "nearest_airport": "",
    "description": "Verified Location."
  },
  "rauhes-joch": {
    "name": "Rauhes Joch",
    "slug": "rauhes-joch",
    "category": "MOUNTAIN_PASS",
    "region": "Alps",
    "country": "Europe",
    "lat": 47.1634628,
    "lng": 9.9877756,
    "nearest_airport": "INN",
    "description": "Auto-imported MOUNTAIN_PASS. Altitude: 1918m"
  },
  "rauhtaljoch-passo-val-di-nebbia": {
    "name": "Rauhtaljoch - Passo Val di Nebbia",
    "slug": "rauhtaljoch-passo-val-di-nebbia",
    "category": "MOUNTAIN_PASS",
    "region": "Alps",
    "country": "Europe",
    "lat": 46.9087274,
    "lng": 11.5994852,
    "nearest_airport": "INN",
    "description": "Auto-imported MOUNTAIN_PASS. Altitude: 2807m"
  },
  "rauhtaljoch-passo-val-di-nebbia-1489": {
    "name": "Rauhtaljoch - Passo Val di Nebbia",
    "slug": "rauhtaljoch-passo-val-di-nebbia-1489",
    "category": "MOUNTAIN_PASS",
    "region": "Alps",
    "country": "",
    "lat": 46.9087274,
    "lng": 11.5994852,
    "nearest_airport": "",
    "description": "Verified Location."
  },
  "raum-1": {
    "name": "Raum 1",
    "slug": "raum-1",
    "category": "SCENIC_POINT",
    "region": "Alps",
    "country": "Europe",
    "lat": 46.6481264,
    "lng": 15.5495813,
    "nearest_airport": "VIE",
    "description": "Auto-imported SCENIC_POINT. Altitude: N/Am"
  },
  "raum-2": {
    "name": "Raum 2",
    "slug": "raum-2",
    "category": "SCENIC_POINT",
    "region": "Alps",
    "country": "Europe",
    "lat": 46.6441449,
    "lng": 15.5448138,
    "nearest_airport": "VIE",
    "description": "Auto-imported SCENIC_POINT. Altitude: N/Am"
  },
  "raum-3": {
    "name": "Raum 3",
    "slug": "raum-3",
    "category": "SCENIC_POINT",
    "region": "Alps",
    "country": "Europe",
    "lat": 46.6431944,
    "lng": 15.5453873,
    "nearest_airport": "VIE",
    "description": "Auto-imported SCENIC_POINT. Altitude: N/Am"
  },
  "raum-4": {
    "name": "Raum 4",
    "slug": "raum-4",
    "category": "SCENIC_POINT",
    "region": "Alps",
    "country": "Europe",
    "lat": 46.6376621,
    "lng": 15.5483609,
    "nearest_airport": "VIE",
    "description": "Auto-imported SCENIC_POINT. Altitude: N/Am"
  },
  "raum-5": {
    "name": "Raum 5",
    "slug": "raum-5",
    "category": "SCENIC_POINT",
    "region": "Alps",
    "country": "Europe",
    "lat": 46.6406752,
    "lng": 15.548526,
    "nearest_airport": "VIE",
    "description": "Auto-imported SCENIC_POINT. Altitude: N/Am"
  },
  "raum-6": {
    "name": "Raum 6",
    "slug": "raum-6",
    "category": "SCENIC_POINT",
    "region": "Alps",
    "country": "Europe",
    "lat": 46.6410416,
    "lng": 15.5491167,
    "nearest_airport": "VIE",
    "description": "Auto-imported SCENIC_POINT. Altitude: N/Am"
  },
  "raum-7": {
    "name": "Raum 7",
    "slug": "raum-7",
    "category": "SCENIC_POINT",
    "region": "Alps",
    "country": "Europe",
    "lat": 46.6435383,
    "lng": 15.5464706,
    "nearest_airport": "VIE",
    "description": "Auto-imported SCENIC_POINT. Altitude: N/Am"
  },
  "rauriserhohe": {
    "name": "Rauriserhöhe",
    "slug": "rauriserhohe",
    "category": "MOUNTAIN_PASS",
    "region": "Alps",
    "country": "Europe",
    "lat": 47.2847433,
    "lng": 12.9696121,
    "nearest_airport": "SZG",
    "description": "Auto-imported MOUNTAIN_PASS. Altitude: 978m"
  },
  "rautejoch": {
    "name": "Rautejoch",
    "slug": "rautejoch",
    "category": "MOUNTAIN_PASS",
    "region": "Alps",
    "country": "Europe",
    "lat": 47.0415421,
    "lng": 10.2436969,
    "nearest_airport": "INN",
    "description": "Auto-imported MOUNTAIN_PASS. Altitude: 2752m"
  },
  "rautejoch-3736": {
    "name": "Rautejoch",
    "slug": "rautejoch-3736",
    "category": "MOUNTAIN_PASS",
    "region": "Alps",
    "country": "",
    "lat": 47.0415421,
    "lng": 10.2436969,
    "nearest_airport": "",
    "description": "Verified Location."
  },
  "raxblick": {
    "name": "Raxblick",
    "slug": "raxblick",
    "category": "SCENIC_POINT",
    "region": "Alps",
    "country": "Europe",
    "lat": 47.6352556,
    "lng": 15.68958,
    "nearest_airport": "VIE",
    "description": "Auto-imported SCENIC_POINT. Altitude: N/Am"
  },
  "razgled": {
    "name": "Razgled",
    "slug": "razgled",
    "category": "SCENIC_POINT",
    "region": "Alps",
    "country": "Europe",
    "lat": 45.4945081,
    "lng": 14.0435753,
    "nearest_airport": "VCE",
    "description": "Auto-imported SCENIC_POINT. Altitude: N/Am"
  },
  "razgled-na-karavanke": {
    "name": "Razgled na Karavanke",
    "slug": "razgled-na-karavanke",
    "category": "SCENIC_POINT",
    "region": "Alps",
    "country": "Europe",
    "lat": 46.4510116,
    "lng": 13.9449122,
    "nearest_airport": "VCE",
    "description": "Auto-imported SCENIC_POINT. Altitude: N/Am"
  },
  "razgled-na-postarski-dom-na-vrsicu": {
    "name": "Razgled na Poštarski dom na Vršiču",
    "slug": "razgled-na-postarski-dom-na-vrsicu",
    "category": "SCENIC_POINT",
    "region": "Alps",
    "country": "Europe",
    "lat": 46.4317653,
    "lng": 13.7481038,
    "nearest_airport": "VCE",
    "description": "Auto-imported SCENIC_POINT. Altitude: N/Am"
  },
  "razgledalisce-bucenica-3": {
    "name": "Razgledališče Bučenica 3",
    "slug": "razgledalisce-bucenica-3",
    "category": "SCENIC_POINT",
    "region": "Alps",
    "country": "Europe",
    "lat": 46.1694342,
    "lng": 13.7345063,
    "nearest_airport": "VCE",
    "description": "Auto-imported SCENIC_POINT. Altitude: N/Am"
  },
  "razgledisce-cela": {
    "name": "Razgledišče Čela",
    "slug": "razgledisce-cela",
    "category": "SCENIC_POINT",
    "region": "Alps",
    "country": "Europe",
    "lat": 45.7603421,
    "lng": 14.3342295,
    "nearest_airport": "VCE",
    "description": "Auto-imported SCENIC_POINT. Altitude: N/Am"
  },
  "razgledisce-na-kosovelovi-poti": {
    "name": "Razgledišče na Kosovelovi poti",
    "slug": "razgledisce-na-kosovelovi-poti",
    "category": "SCENIC_POINT",
    "region": "Alps",
    "country": "Europe",
    "lat": 45.7143691,
    "lng": 13.8644231,
    "nearest_airport": "VCE",
    "description": "Auto-imported SCENIC_POINT. Altitude: N/Am"
  },
  "razgledisce-na-robu-ljubjane": {
    "name": "Razgledišče na robu Ljubjane",
    "slug": "razgledisce-na-robu-ljubjane",
    "category": "SCENIC_POINT",
    "region": "Alps",
    "country": "Europe",
    "lat": 46.0732776,
    "lng": 14.643851,
    "nearest_airport": "VCE",
    "description": "Auto-imported SCENIC_POINT. Altitude: N/Am"
  },
  "razgledisce-nad-dvojnim-jezerom-in-jezerom-mocivec": {
    "name": "Razgledišče nad Dvojnim jezerom in jezerom Močivec",
    "slug": "razgledisce-nad-dvojnim-jezerom-in-jezerom-mocivec",
    "category": "SCENIC_POINT",
    "region": "Alps",
    "country": "Europe",
    "lat": 46.3212939,
    "lng": 13.7792261,
    "nearest_airport": "VCE",
    "description": "Auto-imported SCENIC_POINT. Altitude: N/Am"
  },
  "razgledisce-pod-srnjakom": {
    "name": "Razgledišče pod Srnjakom",
    "slug": "razgledisce-pod-srnjakom",
    "category": "SCENIC_POINT",
    "region": "Alps",
    "country": "Europe",
    "lat": 45.8836579,
    "lng": 14.1707988,
    "nearest_airport": "VCE",
    "description": "Auto-imported SCENIC_POINT. Altitude: 725m"
  },
  "razgledisce-pri-sedmih-hrastih": {
    "name": "Razgledišče Pri sedmih hrastih",
    "slug": "razgledisce-pri-sedmih-hrastih",
    "category": "SCENIC_POINT",
    "region": "Alps",
    "country": "Europe",
    "lat": 46.5686456,
    "lng": 15.6428229,
    "nearest_airport": "VIE",
    "description": "Auto-imported SCENIC_POINT. Altitude: N/Am"
  },
  "razgledisce-skroti": {
    "name": "Razgledišče Skroti",
    "slug": "razgledisce-skroti",
    "category": "SCENIC_POINT",
    "region": "Alps",
    "country": "Europe",
    "lat": 46.2579814,
    "lng": 14.648682,
    "nearest_airport": "VCE",
    "description": "Auto-imported SCENIC_POINT. Altitude: N/Am"
  },
  "razgledisce-spica-na-mezakli": {
    "name": "Razgledišče Špica na Mežakli",
    "slug": "razgledisce-spica-na-mezakli",
    "category": "SCENIC_POINT",
    "region": "Alps",
    "country": "Europe",
    "lat": 46.4246144,
    "lng": 14.0445574,
    "nearest_airport": "VCE",
    "description": "Auto-imported SCENIC_POINT. Altitude: 1210m"
  },
  "razgledisce-supca": {
    "name": "Razgledišče Šupca",
    "slug": "razgledisce-supca",
    "category": "SCENIC_POINT",
    "region": "Alps",
    "country": "Europe",
    "lat": 46.41547,
    "lng": 13.7401717,
    "nearest_airport": "VCE",
    "description": "Auto-imported SCENIC_POINT. Altitude: 1382m"
  },
  "razgledna-klop": {
    "name": "Razgledna klop",
    "slug": "razgledna-klop",
    "category": "SCENIC_POINT",
    "region": "Alps",
    "country": "Europe",
    "lat": 46.1889399,
    "lng": 14.9571495,
    "nearest_airport": "VCE",
    "description": "Auto-imported SCENIC_POINT. Altitude: N/Am"
  },
  "razgledna-piramida": {
    "name": "Razgledna piramida",
    "slug": "razgledna-piramida",
    "category": "SCENIC_POINT",
    "region": "Alps",
    "country": "Europe",
    "lat": 45.3866598,
    "lng": 14.9517266,
    "nearest_airport": "VCE",
    "description": "Auto-imported SCENIC_POINT. Altitude: N/Am"
  },
  "razgledna-ploscad-sumberk": {
    "name": "Razgledna ploščad Šumberk",
    "slug": "razgledna-ploscad-sumberk",
    "category": "SCENIC_POINT",
    "region": "Alps",
    "country": "Europe",
    "lat": 46.1405694,
    "lng": 14.6050168,
    "nearest_airport": "VCE",
    "description": "Auto-imported SCENIC_POINT. Altitude: 333m"
  },
  "razgledna-tocka": {
    "name": "Razgledna točka",
    "slug": "razgledna-tocka",
    "category": "SCENIC_POINT",
    "region": "Alps",
    "country": "Europe",
    "lat": 46.1669861,
    "lng": 13.7406494,
    "nearest_airport": "VCE",
    "description": "Auto-imported SCENIC_POINT. Altitude: N/Am"
  },
  "razgledna-tocka-bostanj": {
    "name": "Razgledna točka Boštanj",
    "slug": "razgledna-tocka-bostanj",
    "category": "SCENIC_POINT",
    "region": "Alps",
    "country": "Europe",
    "lat": 45.9345064,
    "lng": 14.6776303,
    "nearest_airport": "VCE",
    "description": "Auto-imported SCENIC_POINT. Altitude: N/Am"
  },
  "razgledna-tocka-kozice": {
    "name": "Razgledna točka Kozice",
    "slug": "razgledna-tocka-kozice",
    "category": "SCENIC_POINT",
    "region": "Alps",
    "country": "Europe",
    "lat": 45.4974741,
    "lng": 15.0368919,
    "nearest_airport": "VCE",
    "description": "Auto-imported SCENIC_POINT. Altitude: 716m"
  },
  "razgledna-tocka-kriska-vas": {
    "name": "Razgledna točka Kriška vas",
    "slug": "razgledna-tocka-kriska-vas",
    "category": "SCENIC_POINT",
    "region": "Alps",
    "country": "Europe",
    "lat": 45.9357781,
    "lng": 14.7389776,
    "nearest_airport": "VCE",
    "description": "Auto-imported SCENIC_POINT. Altitude: N/Am"
  },
  "razgledna-tocka-kurji-gric": {
    "name": "Razgledna točka Kurji grič",
    "slug": "razgledna-tocka-kurji-gric",
    "category": "SCENIC_POINT",
    "region": "Alps",
    "country": "Europe",
    "lat": 45.7569125,
    "lng": 14.7631503,
    "nearest_airport": "VCE",
    "description": "Auto-imported SCENIC_POINT. Altitude: N/Am"
  },
  "razgledna-tocka-na-stari-postaji": {
    "name": "Razgledna točka na Stari postaji",
    "slug": "razgledna-tocka-na-stari-postaji",
    "category": "SCENIC_POINT",
    "region": "Alps",
    "country": "Europe",
    "lat": 45.9192977,
    "lng": 14.363252,
    "nearest_airport": "VCE",
    "description": "Auto-imported SCENIC_POINT. Altitude: 332m"
  },
  "razgledna-tocka-nad-sv-jakobom": {
    "name": "Razgledna točka nad Sv. Jakobom",
    "slug": "razgledna-tocka-nad-sv-jakobom",
    "category": "SCENIC_POINT",
    "region": "Alps",
    "country": "Europe",
    "lat": 46.3172324,
    "lng": 14.4471041,
    "nearest_airport": "VCE",
    "description": "Auto-imported SCENIC_POINT. Altitude: 1071m"
  },
  "razgledna-tocka-nad-vihrovico": {
    "name": "Razgledna točka nad Vihrovico",
    "slug": "razgledna-tocka-nad-vihrovico",
    "category": "SCENIC_POINT",
    "region": "Alps",
    "country": "Europe",
    "lat": 45.8976759,
    "lng": 14.4071335,
    "nearest_airport": "VCE",
    "description": "Auto-imported SCENIC_POINT. Altitude: 832m"
  },
  "razgledna-tocka-pastirkovo": {
    "name": "Razgledna točka Pastirkovo",
    "slug": "razgledna-tocka-pastirkovo",
    "category": "SCENIC_POINT",
    "region": "Alps",
    "country": "Europe",
    "lat": 46.4290527,
    "lng": 14.6317846,
    "nearest_airport": "SZG",
    "description": "Auto-imported SCENIC_POINT. Altitude: N/Am"
  },
  "razgledna-tocka-s-klopco": {
    "name": "Razgledna točka s klopco",
    "slug": "razgledna-tocka-s-klopco",
    "category": "SCENIC_POINT",
    "region": "Alps",
    "country": "Europe",
    "lat": 45.5396137,
    "lng": 13.6158802,
    "nearest_airport": "VCE",
    "description": "Auto-imported SCENIC_POINT. Altitude: N/Am"
  },
  "razgledna-tocka-senica": {
    "name": "Razgledna točka Senica",
    "slug": "razgledna-tocka-senica",
    "category": "SCENIC_POINT",
    "region": "Alps",
    "country": "Europe",
    "lat": 46.1614213,
    "lng": 13.7571142,
    "nearest_airport": "VCE",
    "description": "Auto-imported SCENIC_POINT. Altitude: N/Am"
  },
  "razgledna-tocka-siroko": {
    "name": "Razgledna točka Široko",
    "slug": "razgledna-tocka-siroko",
    "category": "SCENIC_POINT",
    "region": "Alps",
    "country": "Europe",
    "lat": 46.1319816,
    "lng": 13.7593346,
    "nearest_airport": "VCE",
    "description": "Auto-imported SCENIC_POINT. Altitude: N/Am"
  },
  "razgledna-tocka-spicasti-vrh": {
    "name": "Razgledna točka Špičasti vrh",
    "slug": "razgledna-tocka-spicasti-vrh",
    "category": "SCENIC_POINT",
    "region": "Alps",
    "country": "Europe",
    "lat": 45.7521304,
    "lng": 14.7761751,
    "nearest_airport": "VCE",
    "description": "Auto-imported SCENIC_POINT. Altitude: N/Am"
  },
  "razgledna-tocka-valeta": {
    "name": "Razgledna točka Valeta",
    "slug": "razgledna-tocka-valeta",
    "category": "SCENIC_POINT",
    "region": "Alps",
    "country": "Europe",
    "lat": 45.5166312,
    "lng": 13.60151,
    "nearest_airport": "VCE",
    "description": "Auto-imported SCENIC_POINT. Altitude: N/Am"
  },
  "razgledni-stolp": {
    "name": "Razgledni stolp",
    "slug": "razgledni-stolp",
    "category": "SCENIC_POINT",
    "region": "Alps",
    "country": "Europe",
    "lat": 46.222284,
    "lng": 15.262673,
    "nearest_airport": "VIE",
    "description": "Auto-imported SCENIC_POINT. Altitude: N/Am"
  },
  "razgledni-stolp-janina": {
    "name": "Razgledni stolp Janina",
    "slug": "razgledni-stolp-janina",
    "category": "SCENIC_POINT",
    "region": "Alps",
    "country": "Europe",
    "lat": 46.2347982,
    "lng": 15.6439911,
    "nearest_airport": "VIE",
    "description": "Auto-imported SCENIC_POINT. Altitude: N/Am"
  },
  "razgledni-stolp-na-krasnjem-vrhu": {
    "name": "Razgledni stolp na Krašnjem vrhu",
    "slug": "razgledni-stolp-na-krasnjem-vrhu",
    "category": "SCENIC_POINT",
    "region": "Alps",
    "country": "Europe",
    "lat": 45.7043572,
    "lng": 15.3484396,
    "nearest_airport": "VCE",
    "description": "Auto-imported SCENIC_POINT. Altitude: N/Am"
  }
}