{
  "roc-blanc": {
    "name": "Roc Blanc",
    "slug": "roc-blanc",
    "category": "SCENIC_POINT",
    "region": "Alps",
    "country": "Europe",
    "lat": 46.089972,
    "lng": 7.1637662,
    "nearest_airport": "GVA",
    "description": "Auto-imported SCENIC_POINT. Altitude: N/Am"
  },
  "roc-cumbalesine": {
    "name": "Roc Cumbalesine",
    "slug": "roc-cumbalesine",
    "category": "SCENIC_POINT",
    "region": "Alps",
    "country": "Europe",
    "lat": 44.8533195,
    "lng": 7.2781817,
    "nearest_airport": "TRN",
    "description": "Auto-imported SCENIC_POINT. Altitude: N/Am"
  },
  "roc-da-cumba": {
    "name": "Roc Da Cumba",
    "slug": "roc-da-cumba",
    "category": "SCENIC_POINT",
    "region": "Alps",
    "country": "Europe",
    "lat": 45.0518405,
    "lng": 7.2414306,
    "nearest_airport": "TRN",
    "description": "Auto-imported SCENIC_POINT. Altitude: N/Am"
  },
  "roc-de-courroux": {
    "name": "Roc de Courroux",
    "slug": "roc-de-courroux",
    "category": "SCENIC_POINT",
    "region": "Alps",
    "country": "Europe",
    "lat": 47.3799825,
    "lng": 7.3883954,
    "nearest_airport": "ZRH",
    "description": "Auto-imported SCENIC_POINT. Altitude: N/Am"
  },
  "roc-de-la-vache": {
    "name": "Roc de la Vache",
    "slug": "roc-de-la-vache",
    "category": "SCENIC_POINT",
    "region": "Alps",
    "country": "Europe",
    "lat": 46.1189247,
    "lng": 7.6451894,
    "nearest_airport": "MXP",
    "description": "Auto-imported SCENIC_POINT. Altitude: 2581m"
  },
  "roc-de-laigle": {
    "name": "Roc de l'Aigle",
    "slug": "roc-de-laigle",
    "category": "SCENIC_POINT",
    "region": "Alps",
    "country": "Europe",
    "lat": 44.2001134,
    "lng": 5.8449144,
    "nearest_airport": "NCE",
    "description": "Auto-imported SCENIC_POINT. Altitude: 1219m"
  },
  "roc-de-nantbellet": {
    "name": "Roc de Nantbellet",
    "slug": "roc-de-nantbellet",
    "category": "SCENIC_POINT",
    "region": "Alps",
    "country": "Europe",
    "lat": 45.7774694,
    "lng": 6.3217212,
    "nearest_airport": "GVA",
    "description": "Auto-imported SCENIC_POINT. Altitude: N/Am"
  },
  "roc-de-pontenay": {
    "name": "Roc de Pontenay",
    "slug": "roc-de-pontenay",
    "category": "SCENIC_POINT",
    "region": "Alps",
    "country": "Europe",
    "lat": 45.8555074,
    "lng": 5.7669193,
    "nearest_airport": "GVA",
    "description": "Auto-imported SCENIC_POINT. Altitude: 750m"
  },
  "roc-de-veyges": {
    "name": "Roc de Veyges",
    "slug": "roc-de-veyges",
    "category": "SCENIC_POINT",
    "region": "Alps",
    "country": "Europe",
    "lat": 46.3293969,
    "lng": 6.9795176,
    "nearest_airport": "GVA",
    "description": "Auto-imported SCENIC_POINT. Altitude: N/Am"
  },
  "roc-des-boeufs": {
    "name": "Roc des Boeufs",
    "slug": "roc-des-boeufs",
    "category": "SCENIC_POINT",
    "region": "Alps",
    "country": "Europe",
    "lat": 45.755054,
    "lng": 6.1662197,
    "nearest_airport": "GVA",
    "description": "Auto-imported SCENIC_POINT. Altitude: 1774m"
  },
  "roc-dla-pajassa": {
    "name": "Roc d'la pajassa",
    "slug": "roc-dla-pajassa",
    "category": "SCENIC_POINT",
    "region": "Alps",
    "country": "Europe",
    "lat": 45.5282825,
    "lng": 7.8117295,
    "nearest_airport": "TRN",
    "description": "Auto-imported SCENIC_POINT. Altitude: N/Am"
  },
  "roc-du-jermu": {
    "name": "Roc du Jermu",
    "slug": "roc-du-jermu",
    "category": "SCENIC_POINT",
    "region": "Alps",
    "country": "Europe",
    "lat": 45.0554613,
    "lng": 7.2421387,
    "nearest_airport": "TRN",
    "description": "Auto-imported SCENIC_POINT. Altitude: N/Am"
  },
  "roca-sgaroira": {
    "name": "Roca Sgaroira",
    "slug": "roca-sgaroira",
    "category": "SCENIC_POINT",
    "region": "Alps",
    "country": "Europe",
    "lat": 45.0767548,
    "lng": 7.383404,
    "nearest_airport": "TRN",
    "description": "Auto-imported SCENIC_POINT. Altitude: N/Am"
  },
  "rocas": {
    "name": "Rocas",
    "slug": "rocas",
    "category": "SCENIC_POINT",
    "region": "Alps",
    "country": "Europe",
    "lat": 44.3063712,
    "lng": 7.6904571,
    "nearest_airport": "NCE",
    "description": "Roccia panoramica con vista sul Comune di Chiusa di Pesio e falesia per climbing"
  },
  "rocca-bellina": {
    "name": "Rocca Bellina",
    "slug": "rocca-bellina",
    "category": "SCENIC_POINT",
    "region": "Alps",
    "country": "Europe",
    "lat": 44.5940223,
    "lng": 7.3503284,
    "nearest_airport": "TRN",
    "description": "Auto-imported SCENIC_POINT. Altitude: 1300m"
  },
  "rocca-bera": {
    "name": "Rocca Bera",
    "slug": "rocca-bera",
    "category": "SCENIC_POINT",
    "region": "Alps",
    "country": "Europe",
    "lat": 44.8008736,
    "lng": 7.2061256,
    "nearest_airport": "TRN",
    "description": "Auto-imported SCENIC_POINT. Altitude: 1234m"
  },
  "rocca-boudet": {
    "name": "Rocca Boudet",
    "slug": "rocca-boudet",
    "category": "SCENIC_POINT",
    "region": "Alps",
    "country": "Europe",
    "lat": 44.8074405,
    "lng": 7.2130971,
    "nearest_airport": "TRN",
    "description": "Auto-imported SCENIC_POINT. Altitude: 1035m"
  },
  "rocca-dei-bauti": {
    "name": "Rocca dei Bauti",
    "slug": "rocca-dei-bauti",
    "category": "SCENIC_POINT",
    "region": "Alps",
    "country": "Europe",
    "lat": 44.8816599,
    "lng": 7.2638109,
    "nearest_airport": "TRN",
    "description": "Auto-imported SCENIC_POINT. Altitude: N/Am"
  },
  "rocca-delladelasia": {
    "name": "Rocca dell'Adelasia",
    "slug": "rocca-delladelasia",
    "category": "SCENIC_POINT",
    "region": "Alps",
    "country": "Europe",
    "lat": 44.3860475,
    "lng": 8.3694523,
    "nearest_airport": "TRN",
    "description": "Auto-imported SCENIC_POINT. Altitude: 697m"
  },
  "rocca-delleremita": {
    "name": "Rocca dell'Eremita",
    "slug": "rocca-delleremita",
    "category": "SCENIC_POINT",
    "region": "Alps",
    "country": "Europe",
    "lat": 44.7237652,
    "lng": 7.8762524,
    "nearest_airport": "TRN",
    "description": "Auto-imported SCENIC_POINT. Altitude: N/Am"
  },
  "rocca-di-lai": {
    "name": "Rocca di Lai",
    "slug": "rocca-di-lai",
    "category": "SCENIC_POINT",
    "region": "Alps",
    "country": "Europe",
    "lat": 44.2632166,
    "lng": 8.2886797,
    "nearest_airport": "NCE",
    "description": "Auto-imported SCENIC_POINT. Altitude: N/Am"
  },
  "rocca-di-mazarot": {
    "name": "Rocca di Mazarot",
    "slug": "rocca-di-mazarot",
    "category": "SCENIC_POINT",
    "region": "Alps",
    "country": "Europe",
    "lat": 44.4192695,
    "lng": 8.3008464,
    "nearest_airport": "TRN",
    "description": "Auto-imported SCENIC_POINT. Altitude: N/Am"
  },
  "rocca-di-palaia": {
    "name": "Rocca di Palaia",
    "slug": "rocca-di-palaia",
    "category": "SCENIC_POINT",
    "region": "Alps",
    "country": "Europe",
    "lat": 43.6050762,
    "lng": 10.7698769,
    "nearest_airport": "VCE",
    "description": "Auto-imported SCENIC_POINT. Altitude: N/Am"
  },
  "rocca-remolon": {
    "name": "Rocca Remolon",
    "slug": "rocca-remolon",
    "category": "SCENIC_POINT",
    "region": "Alps",
    "country": "Europe",
    "lat": 44.9207374,
    "lng": 6.7900242,
    "nearest_airport": "TRN",
    "description": "Auto-imported SCENIC_POINT. Altitude: N/Am"
  },
  "rocca-rossa": {
    "name": "Rocca Rossa",
    "slug": "rocca-rossa",
    "category": "SCENIC_POINT",
    "region": "Alps",
    "country": "Europe",
    "lat": 45.0738094,
    "lng": 7.3149674,
    "nearest_airport": "TRN",
    "description": "Auto-imported SCENIC_POINT. Altitude: N/Am"
  },
  "roccabruna": {
    "name": "Roccabruna",
    "slug": "roccabruna",
    "category": "SCENIC_POINT",
    "region": "Alps",
    "country": "Europe",
    "lat": 45.1315289,
    "lng": 7.2386191,
    "nearest_airport": "TRN",
    "description": "Auto-imported SCENIC_POINT. Altitude: N/Am"
  },
  "rocce-rosse": {
    "name": "Rocce Rosse",
    "slug": "rocce-rosse",
    "category": "SCENIC_POINT",
    "region": "Alps",
    "country": "Europe",
    "lat": 45.9194591,
    "lng": 8.8602832,
    "nearest_airport": "MXP",
    "description": "Auto-imported SCENIC_POINT. Altitude: N/Am"
  },
  "rocche-bianche": {
    "name": "Rocche Bianche",
    "slug": "rocche-bianche",
    "category": "SCENIC_POINT",
    "region": "Alps",
    "country": "Europe",
    "lat": 44.3659662,
    "lng": 8.6056955,
    "nearest_airport": "TRN",
    "description": "Auto-imported SCENIC_POINT. Altitude: N/Am"
  },
  "rocche-del-manua": {
    "name": "Rocche del Manuà",
    "slug": "rocche-del-manua",
    "category": "SCENIC_POINT",
    "region": "Alps",
    "country": "Europe",
    "lat": 44.3946962,
    "lng": 8.34525,
    "nearest_airport": "TRN",
    "description": "Auto-imported SCENIC_POINT. Altitude: N/Am"
  },
  "roccho-cubertet": {
    "name": "Roccho Cubërtét",
    "slug": "roccho-cubertet",
    "category": "SCENIC_POINT",
    "region": "Alps",
    "country": "Europe",
    "lat": 44.9539399,
    "lng": 7.0997631,
    "nearest_airport": "TRN",
    "description": "Auto-imported SCENIC_POINT. Altitude: N/Am"
  },
  "roccia-appia": {
    "name": "Roccia Appia",
    "slug": "roccia-appia",
    "category": "SCENIC_POINT",
    "region": "Alps",
    "country": "Europe",
    "lat": 44.5844826,
    "lng": 7.2789329,
    "nearest_airport": "TRN",
    "description": "Auto-imported SCENIC_POINT. Altitude: N/Am"
  },
  "roccia-clapie": {
    "name": "Roccia Clapie",
    "slug": "roccia-clapie",
    "category": "SCENIC_POINT",
    "region": "Alps",
    "country": "Europe",
    "lat": 44.9065,
    "lng": 7.1807469,
    "nearest_airport": "TRN",
    "description": "Auto-imported SCENIC_POINT. Altitude: N/Am"
  },
  "roccia-dei-falchi": {
    "name": "Roccia dei Falchi",
    "slug": "roccia-dei-falchi",
    "category": "SCENIC_POINT",
    "region": "Alps",
    "country": "Europe",
    "lat": 44.3275827,
    "lng": 9.16028,
    "nearest_airport": "MXP",
    "description": "Auto-imported SCENIC_POINT. Altitude: N/Am"
  },
  "roccia-delle-fate": {
    "name": "Roccia delle Fate",
    "slug": "roccia-delle-fate",
    "category": "SCENIC_POINT",
    "region": "Alps",
    "country": "Europe",
    "lat": 45.5574044,
    "lng": 7.9233208,
    "nearest_airport": "TRN",
    "description": "Auto-imported SCENIC_POINT. Altitude: 1270m"
  },
  "roccia-delleco": {
    "name": "Roccia dell'Eco",
    "slug": "roccia-delleco",
    "category": "SCENIC_POINT",
    "region": "Alps",
    "country": "Europe",
    "lat": 44.582196,
    "lng": 7.2777658,
    "nearest_airport": "TRN",
    "description": "Auto-imported SCENIC_POINT. Altitude: N/Am"
  },
  "roccia-tagliata": {
    "name": "Roccia Tagliata",
    "slug": "roccia-tagliata",
    "category": "SCENIC_POINT",
    "region": "Alps",
    "country": "Europe",
    "lat": 44.9795065,
    "lng": 6.752812,
    "nearest_airport": "TRN",
    "description": "Auto-imported SCENIC_POINT. Altitude: N/Am"
  },
  "roccio-aguo": {
    "name": "Roccio Agùo",
    "slug": "roccio-aguo",
    "category": "SCENIC_POINT",
    "region": "Alps",
    "country": "Europe",
    "lat": 44.9601283,
    "lng": 7.1729326,
    "nearest_airport": "TRN",
    "description": "Auto-imported SCENIC_POINT. Altitude: N/Am"
  },
  "rocha-dar-pin": {
    "name": "Rocha dar Pin",
    "slug": "rocha-dar-pin",
    "category": "SCENIC_POINT",
    "region": "Alps",
    "country": "Europe",
    "lat": 44.8143262,
    "lng": 7.1142057,
    "nearest_airport": "TRN",
    "description": "Auto-imported SCENIC_POINT. Altitude: 1100m"
  },
  "rochas-frach-belvedere": {
    "name": "Rochas Frach Belvédère",
    "slug": "rochas-frach-belvedere",
    "category": "SCENIC_POINT",
    "region": "Alps",
    "country": "Europe",
    "lat": 44.7326251,
    "lng": 6.7078293,
    "nearest_airport": "TRN",
    "description": "Auto-imported SCENIC_POINT. Altitude: N/Am"
  },
  "roche-a-laigle": {
    "name": "Roche à l'Aigle",
    "slug": "roche-a-laigle",
    "category": "SCENIC_POINT",
    "region": "Alps",
    "country": "Europe",
    "lat": 46.6917589,
    "lng": 6.3619284,
    "nearest_airport": "GVA",
    "description": "Roche à l'Aigle"
  },
  "roche-au-dade": {
    "name": "Roche au Dade",
    "slug": "roche-au-dade",
    "category": "SCENIC_POINT",
    "region": "Alps",
    "country": "Europe",
    "lat": 46.5258004,
    "lng": 6.0181359,
    "nearest_airport": "GVA",
    "description": "Auto-imported SCENIC_POINT. Altitude: 918m"
  },
  "roche-bernard": {
    "name": "Roche Bernard",
    "slug": "roche-bernard",
    "category": "SCENIC_POINT",
    "region": "Alps",
    "country": "Europe",
    "lat": 46.5730847,
    "lng": 6.104069,
    "nearest_airport": "GVA",
    "description": "Juste au pied du belvédère sont nichés les beaux lacs des Mortes et Bellefontaines"
  },
  "roche-bidet": {
    "name": "Roche Bidet",
    "slug": "roche-bidet",
    "category": "SCENIC_POINT",
    "region": "Alps",
    "country": "Europe",
    "lat": 45.7504102,
    "lng": 5.5563358,
    "nearest_airport": "GVA",
    "description": "Auto-imported SCENIC_POINT. Altitude: N/Am"
  },
  "roche-blanche": {
    "name": "Roche Blanche",
    "slug": "roche-blanche",
    "category": "SCENIC_POINT",
    "region": "Alps",
    "country": "Europe",
    "lat": 47.293572,
    "lng": 6.210668,
    "nearest_airport": "GVA",
    "description": "Auto-imported SCENIC_POINT. Altitude: N/Am"
  },
  "roche-bottine": {
    "name": "Roche Bottine",
    "slug": "roche-bottine",
    "category": "SCENIC_POINT",
    "region": "Alps",
    "country": "Europe",
    "lat": 47.1067215,
    "lng": 6.1626727,
    "nearest_airport": "GVA",
    "description": "Auto-imported SCENIC_POINT. Altitude: N/Am"
  },
  "roche-brulee": {
    "name": "Roche brûlée",
    "slug": "roche-brulee",
    "category": "SCENIC_POINT",
    "region": "Alps",
    "country": "Europe",
    "lat": 46.5196745,
    "lng": 6.032794,
    "nearest_airport": "GVA",
    "description": "Auto-imported SCENIC_POINT. Altitude: N/Am"
  },
  "roche-champion": {
    "name": "Roche Champion",
    "slug": "roche-champion",
    "category": "SCENIC_POINT",
    "region": "Alps",
    "country": "Europe",
    "lat": 46.5899746,
    "lng": 6.1247845,
    "nearest_airport": "GVA",
    "description": "Auto-imported SCENIC_POINT. Altitude: N/Am"
  },
  "roche-de-hautepierre": {
    "name": "Roche de Hautepierre",
    "slug": "roche-de-hautepierre",
    "category": "SCENIC_POINT",
    "region": "Alps",
    "country": "Europe",
    "lat": 47.0492235,
    "lng": 6.2818668,
    "nearest_airport": "GVA",
    "description": "Auto-imported SCENIC_POINT. Altitude: 882m"
  },
  "roche-de-lahier": {
    "name": "Roche de Lahier",
    "slug": "roche-de-lahier",
    "category": "SCENIC_POINT",
    "region": "Alps",
    "country": "Europe",
    "lat": 47.0999717,
    "lng": 6.1715433,
    "nearest_airport": "GVA",
    "description": "Auto-imported SCENIC_POINT. Altitude: N/Am"
  },
  "roche-de-laigle": {
    "name": "Roche de l'aigle",
    "slug": "roche-de-laigle",
    "category": "SCENIC_POINT",
    "region": "Alps",
    "country": "Europe",
    "lat": 45.4585742,
    "lng": 6.5006086,
    "nearest_airport": "GVA",
    "description": "Auto-imported SCENIC_POINT. Altitude: N/Am"
  },
  "roche-de-lavenna": {
    "name": "Roche de Lavenna",
    "slug": "roche-de-lavenna",
    "category": "SCENIC_POINT",
    "region": "Alps",
    "country": "Europe",
    "lat": 46.5027481,
    "lng": 6.0785854,
    "nearest_airport": "GVA",
    "description": "Auto-imported SCENIC_POINT. Altitude: 1175m"
  },
  "roche-de-minuit": {
    "name": "Roche de Minuit",
    "slug": "roche-de-minuit",
    "category": "SCENIC_POINT",
    "region": "Alps",
    "country": "Europe",
    "lat": 47.9880291,
    "lng": 6.8573832,
    "nearest_airport": "ZRH",
    "description": "Auto-imported SCENIC_POINT. Altitude: N/Am"
  },
  "roche-de-ruan": {
    "name": "Roche de Ruan",
    "slug": "roche-de-ruan",
    "category": "SCENIC_POINT",
    "region": "Alps",
    "country": "Europe",
    "lat": 47.2558334,
    "lng": 6.8164649,
    "nearest_airport": "GVA",
    "description": "Auto-imported SCENIC_POINT. Altitude: N/Am"
  },
  "roche-du-bechet": {
    "name": "Roche du Béchet",
    "slug": "roche-du-bechet",
    "category": "SCENIC_POINT",
    "region": "Alps",
    "country": "Europe",
    "lat": 46.5104326,
    "lng": 6.0252421,
    "nearest_airport": "GVA",
    "description": "Auto-imported SCENIC_POINT. Altitude: 920m"
  },
  "roche-du-canton": {
    "name": "Roche du Canton",
    "slug": "roche-du-canton",
    "category": "SCENIC_POINT",
    "region": "Alps",
    "country": "Europe",
    "lat": 47.7631644,
    "lng": 6.7995024,
    "nearest_airport": "ZRH",
    "description": "Auto-imported SCENIC_POINT. Altitude: N/Am"
  },
  "roche-du-ciel": {
    "name": "Roche du ciel",
    "slug": "roche-du-ciel",
    "category": "SCENIC_POINT",
    "region": "Alps",
    "country": "Europe",
    "lat": 46.5172423,
    "lng": 6.2725044,
    "nearest_airport": "GVA",
    "description": "Auto-imported SCENIC_POINT. Altitude: N/Am"
  },
  "roche-du-daval": {
    "name": "Roche du Daval",
    "slug": "roche-du-daval",
    "category": "SCENIC_POINT",
    "region": "Alps",
    "country": "Europe",
    "lat": 47.995457,
    "lng": 6.8701074,
    "nearest_airport": "ZRH",
    "description": "Auto-imported SCENIC_POINT. Altitude: N/Am"
  },
  "roche-du-feu": {
    "name": "Roche du feu",
    "slug": "roche-du-feu",
    "category": "SCENIC_POINT",
    "region": "Alps",
    "country": "Europe",
    "lat": 46.8952016,
    "lng": 5.822593,
    "nearest_airport": "GVA",
    "description": "Auto-imported SCENIC_POINT. Altitude: N/Am"
  },
  "roche-du-midi": {
    "name": "Roche du Midi",
    "slug": "roche-du-midi",
    "category": "SCENIC_POINT",
    "region": "Alps",
    "country": "Europe",
    "lat": 46.7765614,
    "lng": 5.8104312,
    "nearest_airport": "GVA",
    "description": "Auto-imported SCENIC_POINT. Altitude: N/Am"
  },
  "roche-fendue": {
    "name": "Roche fendue",
    "slug": "roche-fendue",
    "category": "SCENIC_POINT",
    "region": "Alps",
    "country": "Europe",
    "lat": 46.5139547,
    "lng": 6.0175416,
    "nearest_airport": "GVA",
    "description": "Auto-imported SCENIC_POINT. Altitude: N/Am"
  },
  "roche-josephine": {
    "name": "Roche Joséphine",
    "slug": "roche-josephine",
    "category": "SCENIC_POINT",
    "region": "Alps",
    "country": "Europe",
    "lat": 47.9582851,
    "lng": 6.5226933,
    "nearest_airport": "ZRH",
    "description": "Auto-imported SCENIC_POINT. Altitude: N/Am"
  },
  "roche-l-abeille": {
    "name": "Roche L ' Abeille",
    "slug": "roche-l-abeille",
    "category": "SCENIC_POINT",
    "region": "Alps",
    "country": "Europe",
    "lat": 44.422094,
    "lng": 6.4578705,
    "nearest_airport": "NCE",
    "description": "Auto-imported SCENIC_POINT. Altitude: N/Am"
  },
  "roche-rousse": {
    "name": "Roche Rousse",
    "slug": "roche-rousse",
    "category": "SCENIC_POINT",
    "region": "Alps",
    "country": "Europe",
    "lat": 45.2748072,
    "lng": 5.7786584,
    "nearest_airport": "GVA",
    "description": "Auto-imported SCENIC_POINT. Altitude: 1580m"
  },
  "rochenoz": {
    "name": "Rochenoz",
    "slug": "rochenoz",
    "category": "SCENIC_POINT",
    "region": "Alps",
    "country": "Europe",
    "lat": 47.8417317,
    "lng": 6.5676694,
    "nearest_airport": "ZRH",
    "description": "Auto-imported SCENIC_POINT. Altitude: N/Am"
  },
  "rocher-aux-chamois": {
    "name": "Rocher aux Chamois",
    "slug": "rocher-aux-chamois",
    "category": "SCENIC_POINT",
    "region": "Alps",
    "country": "Europe",
    "lat": 45.3069703,
    "lng": 6.3394439,
    "nearest_airport": "TRN",
    "description": "Auto-imported SCENIC_POINT. Altitude: N/Am"
  },
  "rocher-aux-lions": {
    "name": "Rocher aux lions",
    "slug": "rocher-aux-lions",
    "category": "SCENIC_POINT",
    "region": "Alps",
    "country": "Europe",
    "lat": 43.9453596,
    "lng": 7.1857559,
    "nearest_airport": "NCE",
    "description": "Auto-imported SCENIC_POINT. Altitude: N/Am"
  },
  "rocher-birckel": {
    "name": "Rocher Birckel",
    "slug": "rocher-birckel",
    "category": "SCENIC_POINT",
    "region": "Alps",
    "country": "Europe",
    "lat": 47.8262318,
    "lng": 6.8476208,
    "nearest_airport": "ZRH",
    "description": "Auto-imported SCENIC_POINT. Altitude: N/Am"
  },
  "rocher-colonne": {
    "name": "Rocher Colonne",
    "slug": "rocher-colonne",
    "category": "SCENIC_POINT",
    "region": "Alps",
    "country": "Europe",
    "lat": 47.1000745,
    "lng": 6.0607924,
    "nearest_airport": "GVA",
    "description": "Auto-imported SCENIC_POINT. Altitude: N/Am"
  },
  "rocher-culasson": {
    "name": "Rocher Culasson",
    "slug": "rocher-culasson",
    "category": "SCENIC_POINT",
    "region": "Alps",
    "country": "Europe",
    "lat": 45.0423867,
    "lng": 5.9200178,
    "nearest_airport": "GVA",
    "description": "Auto-imported SCENIC_POINT. Altitude: 2792m"
  },
  "rocher-de-dame-jeanne": {
    "name": "Rocher de Dame-Jeanne",
    "slug": "rocher-de-dame-jeanne",
    "category": "SCENIC_POINT",
    "region": "Alps",
    "country": "Europe",
    "lat": 46.7595545,
    "lng": 5.5397059,
    "nearest_airport": "GVA",
    "description": "Auto-imported SCENIC_POINT. Altitude: N/Am"
  },
  "rocher-de-la-fenetre": {
    "name": "Rocher de la Fenêtre",
    "slug": "rocher-de-la-fenetre",
    "category": "SCENIC_POINT",
    "region": "Alps",
    "country": "Europe",
    "lat": 45.3701154,
    "lng": 5.7258943,
    "nearest_airport": "GVA",
    "description": "Auto-imported SCENIC_POINT. Altitude: N/Am"
  },
  "rocher-de-lermitage": {
    "name": "Rocher de l'Ermitage",
    "slug": "rocher-de-lermitage",
    "category": "SCENIC_POINT",
    "region": "Alps",
    "country": "Europe",
    "lat": 47.0017692,
    "lng": 6.9377217,
    "nearest_airport": "GVA",
    "description": "Auto-imported SCENIC_POINT. Altitude: N/Am"
  },
  "rocher-de-lhomme": {
    "name": "Rocher de l'Homme",
    "slug": "rocher-de-lhomme",
    "category": "SCENIC_POINT",
    "region": "Alps",
    "country": "Europe",
    "lat": 45.1017525,
    "lng": 5.8944764,
    "nearest_airport": "GVA",
    "description": "Auto-imported SCENIC_POINT. Altitude: 1803m"
  },
  "rocher-de-lorzier": {
    "name": "Rocher de Lorzier",
    "slug": "rocher-de-lorzier",
    "category": "SCENIC_POINT",
    "region": "Alps",
    "country": "Europe",
    "lat": 45.3131166,
    "lng": 5.6964734,
    "nearest_airport": "GVA",
    "description": "Auto-imported SCENIC_POINT. Altitude: 1838m"
  },
  "rocher-de-lorzier-2571": {
    "name": "Rocher de Lorzier",
    "slug": "rocher-de-lorzier-2571",
    "category": "SCENIC_POINT",
    "region": "Alps",
    "country": "",
    "lat": 45.3131166,
    "lng": 5.6964734,
    "nearest_airport": "",
    "description": "Verified Location."
  },
  "rocher-de-lours": {
    "name": "Rocher de l'ours",
    "slug": "rocher-de-lours",
    "category": "SCENIC_POINT",
    "region": "Alps",
    "country": "Europe",
    "lat": 45.4159029,
    "lng": 6.5906439,
    "nearest_airport": "TRN",
    "description": "Auto-imported SCENIC_POINT. Altitude: 1970m"
  },
  "rocher-de-najon": {
    "name": "Rocher de Najon",
    "slug": "rocher-de-najon",
    "category": "SCENIC_POINT",
    "region": "Alps",
    "country": "Europe",
    "lat": 44.1008866,
    "lng": 6.2166051,
    "nearest_airport": "NCE",
    "description": "Auto-imported SCENIC_POINT. Altitude: N/Am"
  },
  "rocher-de-tormery": {
    "name": "Rocher de Tormery",
    "slug": "rocher-de-tormery",
    "category": "SCENIC_POINT",
    "region": "Alps",
    "country": "Europe",
    "lat": 45.5168986,
    "lng": 6.0314585,
    "nearest_airport": "GVA",
    "description": "Auto-imported SCENIC_POINT. Altitude: 1135m"
  },
  "rocher-de-valmy": {
    "name": "Rocher de Valmy",
    "slug": "rocher-de-valmy",
    "category": "SCENIC_POINT",
    "region": "Alps",
    "country": "Europe",
    "lat": 47.1924041,
    "lng": 5.9672904,
    "nearest_airport": "GVA",
    "description": "Auto-imported SCENIC_POINT. Altitude: N/Am"
  },
  "rocher-des-ravieres": {
    "name": "Rocher des Ravières",
    "slug": "rocher-des-ravieres",
    "category": "SCENIC_POINT",
    "region": "Alps",
    "country": "Europe",
    "lat": 45.4601518,
    "lng": 6.5020999,
    "nearest_airport": "GVA",
    "description": "Auto-imported SCENIC_POINT. Altitude: N/Am"
  },
  "rocher-deseur": {
    "name": "Rocher Deseur",
    "slug": "rocher-deseur",
    "category": "SCENIC_POINT",
    "region": "Alps",
    "country": "Europe",
    "lat": 44.9317423,
    "lng": 6.7006124,
    "nearest_airport": "TRN",
    "description": "Auto-imported SCENIC_POINT. Altitude: N/Am"
  },
  "rocher-dostein": {
    "name": "Rocher d'Ostein",
    "slug": "rocher-dostein",
    "category": "SCENIC_POINT",
    "region": "Alps",
    "country": "Europe",
    "lat": 47.8493961,
    "lng": 7.1151847,
    "nearest_airport": "ZRH",
    "description": "Auto-imported SCENIC_POINT. Altitude: N/Am"
  },
  "rocher-du-bourbet": {
    "name": "Rocher du Bourbet",
    "slug": "rocher-du-bourbet",
    "category": "SCENIC_POINT",
    "region": "Alps",
    "country": "Europe",
    "lat": 47.2825745,
    "lng": 6.7841445,
    "nearest_airport": "GVA",
    "description": "Auto-imported SCENIC_POINT. Altitude: N/Am"
  },
  "rocher-du-charrat": {
    "name": "Rocher du Charrat",
    "slug": "rocher-du-charrat",
    "category": "SCENIC_POINT",
    "region": "Alps",
    "country": "Europe",
    "lat": 47.8938326,
    "lng": 6.8868341,
    "nearest_airport": "ZRH",
    "description": "Auto-imported SCENIC_POINT. Altitude: N/Am"
  },
  "rocher-du-corbeau": {
    "name": "Rocher du Corbeau",
    "slug": "rocher-du-corbeau",
    "category": "SCENIC_POINT",
    "region": "Alps",
    "country": "Europe",
    "lat": 45.5576731,
    "lng": 5.8207316,
    "nearest_airport": "GVA",
    "description": "Auto-imported SCENIC_POINT. Altitude: N/Am"
  },
  "rocher-du-guet": {
    "name": "Rocher du Guet",
    "slug": "rocher-du-guet",
    "category": "SCENIC_POINT",
    "region": "Alps",
    "country": "Europe",
    "lat": 45.5170611,
    "lng": 6.0488361,
    "nearest_airport": "GVA",
    "description": "Auto-imported SCENIC_POINT. Altitude: 1209m"
  },
  "rocher-du-hirtzenstein": {
    "name": "Rocher du Hirtzenstein",
    "slug": "rocher-du-hirtzenstein",
    "category": "SCENIC_POINT",
    "region": "Alps",
    "country": "Europe",
    "lat": 47.8456919,
    "lng": 7.1688041,
    "nearest_airport": "ZRH",
    "description": "Auto-imported SCENIC_POINT. Altitude: N/Am"
  },
  "rocher-du-moine": {
    "name": "Rocher du Moine",
    "slug": "rocher-du-moine",
    "category": "SCENIC_POINT",
    "region": "Alps",
    "country": "Europe",
    "lat": 47.0727616,
    "lng": 6.0810934,
    "nearest_airport": "GVA",
    "description": "Auto-imported SCENIC_POINT. Altitude: N/Am"
  },
  "rocher-du-penitent": {
    "name": "Rocher du Pénitent",
    "slug": "rocher-du-penitent",
    "category": "SCENIC_POINT",
    "region": "Alps",
    "country": "Europe",
    "lat": 46.8439683,
    "lng": 5.7182939,
    "nearest_airport": "GVA",
    "description": "Auto-imported SCENIC_POINT. Altitude: N/Am"
  },
  "rocher-du-roux-panorama": {
    "name": "Rocher du Roux (Panorama)",
    "slug": "rocher-du-roux-panorama",
    "category": "SCENIC_POINT",
    "region": "Alps",
    "country": "Europe",
    "lat": 45.8202765,
    "lng": 6.2533627,
    "nearest_airport": "GVA",
    "description": "Auto-imported SCENIC_POINT. Altitude: N/Am"
  },
  "rocher-du-singe": {
    "name": "Rocher du Singe",
    "slug": "rocher-du-singe",
    "category": "SCENIC_POINT",
    "region": "Alps",
    "country": "Europe",
    "lat": 47.2664413,
    "lng": 6.9520237,
    "nearest_airport": "ZRH",
    "description": "Auto-imported SCENIC_POINT. Altitude: N/Am"
  },
  "rocher-du-tourbillon": {
    "name": "rocher du tourbillon",
    "slug": "rocher-du-tourbillon",
    "category": "SCENIC_POINT",
    "region": "Alps",
    "country": "Europe",
    "lat": 47.135139,
    "lng": 6.1596125,
    "nearest_airport": "GVA",
    "description": "Auto-imported SCENIC_POINT. Altitude: N/Am"
  },
  "rocher-gassendi": {
    "name": "Rocher Gassendi",
    "slug": "rocher-gassendi",
    "category": "SCENIC_POINT",
    "region": "Alps",
    "country": "Europe",
    "lat": 44.1949897,
    "lng": 6.2647986,
    "nearest_airport": "NCE",
    "description": "Auto-imported SCENIC_POINT. Altitude: 1113m"
  },
  "rochers-de-comboire-pylone": {
    "name": "Rochers de Comboire - pylône",
    "slug": "rochers-de-comboire-pylone",
    "category": "SCENIC_POINT",
    "region": "Alps",
    "country": "Europe",
    "lat": 45.1391485,
    "lng": 5.6828594,
    "nearest_airport": "GVA",
    "description": "Auto-imported SCENIC_POINT. Altitude: N/Am"
  },
  "rochers-du-laurie": {
    "name": "Rochers du Laurie",
    "slug": "rochers-du-laurie",
    "category": "SCENIC_POINT",
    "region": "Alps",
    "country": "Europe",
    "lat": 47.7670728,
    "lng": 6.7465067,
    "nearest_airport": "ZRH",
    "description": "Auto-imported SCENIC_POINT. Altitude: N/Am"
  },
  "rochers-du-pertuson": {
    "name": "Rochers du Pertuson",
    "slug": "rochers-du-pertuson",
    "category": "SCENIC_POINT",
    "region": "Alps",
    "country": "Europe",
    "lat": 45.1538791,
    "lng": 5.5022475,
    "nearest_airport": "GVA",
    "description": "Auto-imported SCENIC_POINT. Altitude: N/Am"
  },
  "rochers-saint-michel": {
    "name": "Rochers saint Michel",
    "slug": "rochers-saint-michel",
    "category": "SCENIC_POINT",
    "region": "Alps",
    "country": "Europe",
    "lat": 44.20859,
    "lng": 6.0196621,
    "nearest_airport": "NCE",
    "description": "Auto-imported SCENIC_POINT. Altitude: 1285m"
  },
  "roches-de-chatollion": {
    "name": "Roches de Châtollion",
    "slug": "roches-de-chatollion",
    "category": "SCENIC_POINT",
    "region": "Alps",
    "country": "Europe",
    "lat": 47.0263552,
    "lng": 6.9983714,
    "nearest_airport": "GVA",
    "description": "Auto-imported SCENIC_POINT. Altitude: N/Am"
  },
  "roches-de-nans": {
    "name": "Roches de Nans",
    "slug": "roches-de-nans",
    "category": "SCENIC_POINT",
    "region": "Alps",
    "country": "Europe",
    "lat": 46.7932018,
    "lng": 5.9843496,
    "nearest_airport": "GVA",
    "description": "Auto-imported SCENIC_POINT. Altitude: N/Am"
  },
  "roci-fuieri": {
    "name": "Roci Fuieri",
    "slug": "roci-fuieri",
    "category": "SCENIC_POINT",
    "region": "Alps",
    "country": "Europe",
    "lat": 45.3411233,
    "lng": 7.3734695,
    "nearest_airport": "TRN",
    "description": "Auto-imported SCENIC_POINT. Altitude: N/Am"
  },
  "rock": {
    "name": "Rock",
    "slug": "rock",
    "category": "SCENIC_POINT",
    "region": "Alps",
    "country": "Europe",
    "lat": 47.4827051,
    "lng": 6.7721993,
    "nearest_airport": "ZRH",
    "description": "Auto-imported SCENIC_POINT. Altitude: N/Am"
  },
  "rock-check-1": {
    "name": "Rock Check 1",
    "slug": "rock-check-1",
    "category": "SCENIC_POINT",
    "region": "Alps",
    "country": "Europe",
    "lat": 47.7441145,
    "lng": 15.8773895,
    "nearest_airport": "VIE",
    "description": "Auto-imported SCENIC_POINT. Altitude: N/Am"
  },
  "rocul": {
    "name": "Ròcul",
    "slug": "rocul",
    "category": "SCENIC_POINT",
    "region": "Alps",
    "country": "Europe",
    "lat": 46.1896384,
    "lng": 10.1030055,
    "nearest_airport": "MXP",
    "description": "Auto-imported SCENIC_POINT. Altitude: N/Am"
  },
  "roderbuhl": {
    "name": "Roderbühl",
    "slug": "roderbuhl",
    "category": "SCENIC_POINT",
    "region": "Alps",
    "country": "Europe",
    "lat": 47.5834359,
    "lng": 9.8656182,
    "nearest_airport": "ZRH",
    "description": "Auto-imported SCENIC_POINT. Altitude: N/Am"
  },
  "roen": {
    "name": "Roen",
    "slug": "roen",
    "category": "SCENIC_POINT",
    "region": "Alps",
    "country": "Europe",
    "lat": 46.3604269,
    "lng": 11.192267,
    "nearest_airport": "INN",
    "description": "Auto-imported SCENIC_POINT. Altitude: 2116m"
  },
  "roen-16": {
    "name": "Roen",
    "slug": "roen-16",
    "category": "SCENIC_POINT",
    "region": "Alps",
    "country": "",
    "lat": 46.3604269,
    "lng": 11.192267,
    "nearest_airport": "",
    "description": "Verified Location."
  },
  "rofelejoch": {
    "name": "Rofelejoch",
    "slug": "rofelejoch",
    "category": "MOUNTAIN_PASS",
    "region": "Alps",
    "country": "Europe",
    "lat": 47.0349511,
    "lng": 10.8118486,
    "nearest_airport": "INN",
    "description": "Auto-imported MOUNTAIN_PASS. Altitude: N/Am"
  },
  "roggenflue": {
    "name": "Roggenflue",
    "slug": "roggenflue",
    "category": "SCENIC_POINT",
    "region": "Alps",
    "country": "Europe",
    "lat": 47.3058858,
    "lng": 7.7231582,
    "nearest_airport": "ZRH",
    "description": "Auto-imported SCENIC_POINT. Altitude: 995m"
  },
  "roggenstock": {
    "name": "Roggenstock",
    "slug": "roggenstock",
    "category": "SCENIC_POINT",
    "region": "Alps",
    "country": "Europe",
    "lat": 47.0232849,
    "lng": 8.7898428,
    "nearest_airport": "ZRH",
    "description": "Auto-imported SCENIC_POINT. Altitude: 1777m"
  },
  "rogotzllenke": {
    "name": "Rogötzllenke",
    "slug": "rogotzllenke",
    "category": "MOUNTAIN_PASS",
    "region": "Alps",
    "country": "Europe",
    "lat": 46.8866513,
    "lng": 12.3207477,
    "nearest_airport": "INN",
    "description": "Auto-imported MOUNTAIN_PASS. Altitude: 2492m"
  },
  "rogotzllenke-3440": {
    "name": "Rogötzllenke",
    "slug": "rogotzllenke-3440",
    "category": "MOUNTAIN_PASS",
    "region": "Alps",
    "country": "",
    "lat": 46.8866513,
    "lng": 12.3207477,
    "nearest_airport": "",
    "description": "Verified Location."
  },
  "rogovo": {
    "name": "Rogovo",
    "slug": "rogovo",
    "category": "SCENIC_POINT",
    "region": "Alps",
    "country": "Europe",
    "lat": 43.8786994,
    "lng": 15.9743468,
    "nearest_airport": "VCE",
    "description": "Auto-imported SCENIC_POINT. Altitude: N/Am"
  },
  "rohrenberg": {
    "name": "Röhrenberg",
    "slug": "rohrenberg",
    "category": "SCENIC_POINT",
    "region": "Alps",
    "country": "Europe",
    "lat": 47.717282,
    "lng": 9.0806254,
    "nearest_airport": "ZRH",
    "description": "Auto-imported SCENIC_POINT. Altitude: N/Am"
  },
  "rohrer-sattel": {
    "name": "Rohrer Sattel",
    "slug": "rohrer-sattel",
    "category": "MOUNTAIN_PASS",
    "region": "Alps",
    "country": "Europe",
    "lat": 47.8705527,
    "lng": 15.7986951,
    "nearest_airport": "VIE",
    "description": "Auto-imported MOUNTAIN_PASS. Altitude: 864m"
  },
  "rohrer-sattel-479": {
    "name": "Rohrer Sattel",
    "slug": "rohrer-sattel-479",
    "category": "MOUNTAIN_PASS",
    "region": "Alps",
    "country": "",
    "lat": 47.8705527,
    "lng": 15.7986951,
    "nearest_airport": "",
    "description": "Verified Location."
  },
  "rohrmoossattel": {
    "name": "Rohrmoossattel",
    "slug": "rohrmoossattel",
    "category": "MOUNTAIN_PASS",
    "region": "Alps",
    "country": "Europe",
    "lat": 47.3970244,
    "lng": 10.1388148,
    "nearest_airport": "INN",
    "description": "Auto-imported MOUNTAIN_PASS. Altitude: 1120m"
  },
  "rohrmoossattel-2592": {
    "name": "Rohrmoossattel",
    "slug": "rohrmoossattel-2592",
    "category": "MOUNTAIN_PASS",
    "region": "Alps",
    "country": "",
    "lat": 47.3970244,
    "lng": 10.1388148,
    "nearest_airport": "",
    "description": "Verified Location."
  },
  "roje": {
    "name": "Roje",
    "slug": "roje",
    "category": "MOUNTAIN_PASS",
    "region": "Alps",
    "country": "Europe",
    "lat": 46.0115021,
    "lng": 14.5854936,
    "nearest_airport": "VCE",
    "description": "Auto-imported MOUNTAIN_PASS. Altitude: 377m"
  },
  "rollsattel": {
    "name": "Röllsattel",
    "slug": "rollsattel",
    "category": "MOUNTAIN_PASS",
    "region": "Alps",
    "country": "Europe",
    "lat": 47.6971736,
    "lng": 13.982488,
    "nearest_airport": "SZG",
    "description": "Auto-imported MOUNTAIN_PASS. Altitude: 1755m"
  },
  "rombiciaio": {
    "name": "Rombiciaio",
    "slug": "rombiciaio",
    "category": "MOUNTAIN_PASS",
    "region": "Alps",
    "country": "Europe",
    "lat": 44.1020569,
    "lng": 10.8834741,
    "nearest_airport": "VCE",
    "description": "Auto-imported MOUNTAIN_PASS. Altitude: 1383m"
  },
  "ronda": {
    "name": "Ronda",
    "slug": "ronda",
    "category": "SCENIC_POINT",
    "region": "Alps",
    "country": "Europe",
    "lat": 45.7241526,
    "lng": 5.8518857,
    "nearest_airport": "GVA",
    "description": "Auto-imported SCENIC_POINT. Altitude: N/Am"
  },
  "rontgenplatz": {
    "name": "Röntgenplatz",
    "slug": "rontgenplatz",
    "category": "SCENIC_POINT",
    "region": "Alps",
    "country": "Europe",
    "lat": 46.4858729,
    "lng": 9.913061,
    "nearest_airport": "MXP",
    "description": "Auto-imported SCENIC_POINT. Altitude: N/Am"
  },
  "roque-berard": {
    "name": "Roque Bérard",
    "slug": "roque-berard",
    "category": "SCENIC_POINT",
    "region": "Alps",
    "country": "Europe",
    "lat": 43.5595415,
    "lng": 6.1856665,
    "nearest_airport": "NCE",
    "description": "Auto-imported SCENIC_POINT. Altitude: N/Am"
  },
  "rosa-dei-venti": {
    "name": "Rosa dei venti",
    "slug": "rosa-dei-venti",
    "category": "SCENIC_POINT",
    "region": "Alps",
    "country": "Europe",
    "lat": 44.3611352,
    "lng": 9.1408861,
    "nearest_airport": "MXP",
    "description": "Auto-imported SCENIC_POINT. Altitude: N/Am"
  },
  "rosas-wasserfalle": {
    "name": "Rosas Wasserfälle",
    "slug": "rosas-wasserfalle",
    "category": "SCENIC_POINT",
    "region": "Alps",
    "country": "Europe",
    "lat": 47.68207,
    "lng": 13.6459476,
    "nearest_airport": "SZG",
    "description": "Auto-imported SCENIC_POINT. Altitude: N/Am"
  },
  "rosbella": {
    "name": "Rosbella",
    "slug": "rosbella",
    "category": "SCENIC_POINT",
    "region": "Alps",
    "country": "Europe",
    "lat": 44.2979608,
    "lng": 7.5574613,
    "nearest_airport": "NCE",
    "description": "Auto-imported SCENIC_POINT. Altitude: N/Am"
  },
  "rosenbachsattel-rozca": {
    "name": "Rosenbachsattel / Rožca",
    "slug": "rosenbachsattel-rozca",
    "category": "MOUNTAIN_PASS",
    "region": "Alps",
    "country": "Europe",
    "lat": 46.4813692,
    "lng": 14.0198213,
    "nearest_airport": "SZG",
    "description": "Auto-imported MOUNTAIN_PASS. Altitude: 1587m"
  },
  "rosenbachsattel-rozca-1157": {
    "name": "Rosenbachsattel / Rožca",
    "slug": "rosenbachsattel-rozca-1157",
    "category": "MOUNTAIN_PASS",
    "region": "Alps",
    "country": "",
    "lat": 46.4813692,
    "lng": 14.0198213,
    "nearest_airport": "",
    "description": "Verified Location."
  },
  "rosenegg": {
    "name": "Rosenegg",
    "slug": "rosenegg",
    "category": "SCENIC_POINT",
    "region": "Alps",
    "country": "Europe",
    "lat": 47.7344503,
    "lng": 8.8257839,
    "nearest_airport": "ZRH",
    "description": "Auto-imported SCENIC_POINT. Altitude: N/Am"
  },
  "rosenhugel": {
    "name": "Rosenhügel",
    "slug": "rosenhugel",
    "category": "SCENIC_POINT",
    "region": "Alps",
    "country": "Europe",
    "lat": 47.9175054,
    "lng": 15.0757932,
    "nearest_airport": "VIE",
    "description": "Auto-imported SCENIC_POINT. Altitude: N/Am"
  },
  "rosenlaui-blick": {
    "name": "Rosenlaui - Blick",
    "slug": "rosenlaui-blick",
    "category": "SCENIC_POINT",
    "region": "Alps",
    "country": "Europe",
    "lat": 46.677321,
    "lng": 8.1576524,
    "nearest_airport": "ZRH",
    "description": "Auto-imported SCENIC_POINT. Altitude: N/Am"
  },
  "rosentalblick": {
    "name": "Rosentalblick",
    "slug": "rosentalblick",
    "category": "SCENIC_POINT",
    "region": "Alps",
    "country": "Europe",
    "lat": 46.49543,
    "lng": 14.15175,
    "nearest_airport": "SZG",
    "description": "Auto-imported SCENIC_POINT. Altitude: N/Am"
  },
  "rosinli": {
    "name": "Rosinli",
    "slug": "rosinli",
    "category": "SCENIC_POINT",
    "region": "Alps",
    "country": "Europe",
    "lat": 47.3433535,
    "lng": 8.8335951,
    "nearest_airport": "ZRH",
    "description": "Auto-imported SCENIC_POINT. Altitude: N/Am"
  },
  "roski-slap": {
    "name": "Roški slap",
    "slug": "roski-slap",
    "category": "SCENIC_POINT",
    "region": "Alps",
    "country": "Europe",
    "lat": 43.9120442,
    "lng": 15.9548382,
    "nearest_airport": "VCE",
    "description": "Auto-imported SCENIC_POINT. Altitude: N/Am"
  },
  "rossa": {
    "name": "Rossa",
    "slug": "rossa",
    "category": "SCENIC_POINT",
    "region": "Alps",
    "country": "Europe",
    "lat": 45.4717188,
    "lng": 6.7000681,
    "nearest_airport": "TRN",
    "description": "Auto-imported SCENIC_POINT. Altitude: N/Am"
  },
  "rossalmscharte": {
    "name": "Rossalmscharte",
    "slug": "rossalmscharte",
    "category": "MOUNTAIN_PASS",
    "region": "Alps",
    "country": "Europe",
    "lat": 46.9106121,
    "lng": 13.3828482,
    "nearest_airport": "SZG",
    "description": "Auto-imported MOUNTAIN_PASS. Altitude: 2500m"
  },
  "rossalmscharte-3005": {
    "name": "Rossalmscharte",
    "slug": "rossalmscharte-3005",
    "category": "MOUNTAIN_PASS",
    "region": "Alps",
    "country": "",
    "lat": 46.9106121,
    "lng": 13.3828482,
    "nearest_airport": "",
    "description": "Verified Location."
  },
  "rossberg": {
    "name": "Rossberg",
    "slug": "rossberg",
    "category": "SCENIC_POINT",
    "region": "Alps",
    "country": "Europe",
    "lat": 47.1706185,
    "lng": 8.6929306,
    "nearest_airport": "ZRH",
    "description": "Auto-imported SCENIC_POINT. Altitude: N/Am"
  },
  "rossbergjoch": {
    "name": "Roßbergjoch",
    "slug": "rossbergjoch",
    "category": "MOUNTAIN_PASS",
    "region": "Alps",
    "country": "Europe",
    "lat": 47.0379873,
    "lng": 10.0197961,
    "nearest_airport": "INN",
    "description": "Auto-imported MOUNTAIN_PASS. Altitude: N/Am"
  },
  "rossbodentorl-passo-cavallo": {
    "name": "Rossbodentörl - Passo Cavallo",
    "slug": "rossbodentorl-passo-cavallo",
    "category": "MOUNTAIN_PASS",
    "region": "Alps",
    "country": "Europe",
    "lat": 46.6009974,
    "lng": 12.9828123,
    "nearest_airport": "VCE",
    "description": "Auto-imported MOUNTAIN_PASS. Altitude: 1581m"
  },
  "rossbodepass": {
    "name": "Rossbodepass",
    "slug": "rossbodepass",
    "category": "MOUNTAIN_PASS",
    "region": "Alps",
    "country": "Europe",
    "lat": 46.1929326,
    "lng": 7.9915289,
    "nearest_airport": "MXP",
    "description": "Auto-imported MOUNTAIN_PASS. Altitude: 3148m"
  },
  "rossbodepass-2107": {
    "name": "Rossbodepass",
    "slug": "rossbodepass-2107",
    "category": "MOUNTAIN_PASS",
    "region": "Alps",
    "country": "",
    "lat": 46.1929326,
    "lng": 7.9915289,
    "nearest_airport": "",
    "description": "Verified Location."
  },
  "rossfeld": {
    "name": "Roßfeld",
    "slug": "rossfeld",
    "category": "SCENIC_POINT",
    "region": "Alps",
    "country": "Europe",
    "lat": 47.6280034,
    "lng": 13.0958973,
    "nearest_airport": "SZG",
    "description": "Auto-imported SCENIC_POINT. Altitude: N/Am"
  },
  "rossfelsen": {
    "name": "Rossfelsen",
    "slug": "rossfelsen",
    "category": "SCENIC_POINT",
    "region": "Alps",
    "country": "Europe",
    "lat": 47.7854896,
    "lng": 7.7023059,
    "nearest_airport": "ZRH",
    "description": "Auto-imported SCENIC_POINT. Altitude: 1000m"
  },
  "rossgundscharte": {
    "name": "Rossgundscharte",
    "slug": "rossgundscharte",
    "category": "MOUNTAIN_PASS",
    "region": "Alps",
    "country": "Europe",
    "lat": 47.3160826,
    "lng": 10.2279336,
    "nearest_airport": "INN",
    "description": "Auto-imported MOUNTAIN_PASS. Altitude: 2015m"
  },
  "rossgundscharte-456": {
    "name": "Rossgundscharte",
    "slug": "rossgundscharte-456",
    "category": "MOUNTAIN_PASS",
    "region": "Alps",
    "country": "",
    "lat": 47.3160826,
    "lng": 10.2279336,
    "nearest_airport": "",
    "description": "Verified Location."
  },
  "rosshornscharte": {
    "name": "Rosshornscharte",
    "slug": "rosshornscharte",
    "category": "MOUNTAIN_PASS",
    "region": "Alps",
    "country": "Europe",
    "lat": 46.9339266,
    "lng": 12.1749866,
    "nearest_airport": "INN",
    "description": "Auto-imported MOUNTAIN_PASS. Altitude: 2910m"
  },
  "rosshornscharte-3139": {
    "name": "Rosshornscharte",
    "slug": "rosshornscharte-3139",
    "category": "MOUNTAIN_PASS",
    "region": "Alps",
    "country": "",
    "lat": 46.9339266,
    "lng": 12.1749866,
    "nearest_airport": "",
    "description": "Verified Location."
  },
  "rosskarscharte": {
    "name": "Roßkarscharte",
    "slug": "rosskarscharte",
    "category": "MOUNTAIN_PASS",
    "region": "Alps",
    "country": "Europe",
    "lat": 47.1496847,
    "lng": 12.1310531,
    "nearest_airport": "INN",
    "description": "Auto-imported MOUNTAIN_PASS. Altitude: 2690m"
  },
  "rosskarscharte-482": {
    "name": "Roßkarscharte",
    "slug": "rosskarscharte-482",
    "category": "MOUNTAIN_PASS",
    "region": "Alps",
    "country": "",
    "lat": 47.1496847,
    "lng": 12.1310531,
    "nearest_airport": "",
    "description": "Verified Location."
  },
  "rosskopf": {
    "name": "Roßkopf",
    "slug": "rosskopf",
    "category": "SCENIC_POINT",
    "region": "Alps",
    "country": "Europe",
    "lat": 47.6556941,
    "lng": 11.8618557,
    "nearest_airport": "INN",
    "description": "Auto-imported SCENIC_POINT. Altitude: 1579m"
  },
  "rosskopf-687": {
    "name": "Roßkopf",
    "slug": "rosskopf-687",
    "category": "SCENIC_POINT",
    "region": "Alps",
    "country": "",
    "lat": 47.6556941,
    "lng": 11.8618557,
    "nearest_airport": "",
    "description": "Verified Location."
  },
  "rosskopfsattel": {
    "name": "Rosskopfsattel",
    "slug": "rosskopfsattel",
    "category": "MOUNTAIN_PASS",
    "region": "Alps",
    "country": "Europe",
    "lat": 47.42383,
    "lng": 10.43384,
    "nearest_airport": "INN",
    "description": "Auto-imported MOUNTAIN_PASS. Altitude: 1707m"
  },
  "rosskopftorl": {
    "name": "Roßkopftörl",
    "slug": "rosskopftorl",
    "category": "MOUNTAIN_PASS",
    "region": "Alps",
    "country": "Europe",
    "lat": 46.6840727,
    "lng": 12.5012988,
    "nearest_airport": "INN",
    "description": "Auto-imported MOUNTAIN_PASS. Altitude: 2493m"
  },
  "rosskopftorl-2524": {
    "name": "Roßkopftörl",
    "slug": "rosskopftorl-2524",
    "category": "MOUNTAIN_PASS",
    "region": "Alps",
    "country": "",
    "lat": 46.6840727,
    "lng": 12.5012988,
    "nearest_airport": "",
    "description": "Verified Location."
  },
  "rosslochscharte": {
    "name": "Roßlochscharte",
    "slug": "rosslochscharte",
    "category": "MOUNTAIN_PASS",
    "region": "Alps",
    "country": "Europe",
    "lat": 47.3694931,
    "lng": 11.5186393,
    "nearest_airport": "INN",
    "description": "Auto-imported MOUNTAIN_PASS. Altitude: N/Am"
  },
  "rossruggscharte": {
    "name": "Rossruggscharte",
    "slug": "rossruggscharte",
    "category": "MOUNTAIN_PASS",
    "region": "Alps",
    "country": "Europe",
    "lat": 46.991072,
    "lng": 11.8054663,
    "nearest_airport": "INN",
    "description": "Auto-imported MOUNTAIN_PASS. Altitude: 3235m"
  },
  "rossruggscharte-2435": {
    "name": "Rossruggscharte",
    "slug": "rossruggscharte-2435",
    "category": "MOUNTAIN_PASS",
    "region": "Alps",
    "country": "",
    "lat": 46.991072,
    "lng": 11.8054663,
    "nearest_airport": "",
    "description": "Verified Location."
  },
  "rossscharte": {
    "name": "Rossscharte",
    "slug": "rossscharte",
    "category": "MOUNTAIN_PASS",
    "region": "Alps",
    "country": "Europe",
    "lat": 47.082224,
    "lng": 12.8610457,
    "nearest_airport": "SZG",
    "description": "Auto-imported MOUNTAIN_PASS. Altitude: 2599m"
  },
  "rossscharte-3091": {
    "name": "Rossscharte",
    "slug": "rossscharte-3091",
    "category": "MOUNTAIN_PASS",
    "region": "Alps",
    "country": "",
    "lat": 47.082224,
    "lng": 12.8610457,
    "nearest_airport": "",
    "description": "Verified Location."
  },
  "rosszahne-denti-di-cavallo": {
    "name": "Rosszähne - Denti di Cavallo",
    "slug": "rosszahne-denti-di-cavallo",
    "category": "SCENIC_POINT",
    "region": "Alps",
    "country": "Europe",
    "lat": 46.3694897,
    "lng": 11.2834661,
    "nearest_airport": "INN",
    "description": "Auto-imported SCENIC_POINT. Altitude: N/Am"
  },
  "rostizjoch": {
    "name": "Rostizjoch",
    "slug": "rostizjoch",
    "category": "MOUNTAIN_PASS",
    "region": "Alps",
    "country": "Europe",
    "lat": 46.9634564,
    "lng": 10.7934893,
    "nearest_airport": "INN",
    "description": "Auto-imported MOUNTAIN_PASS. Altitude: 3093m"
  },
  "rostizjoch-421": {
    "name": "Rostizjoch",
    "slug": "rostizjoch-421",
    "category": "MOUNTAIN_PASS",
    "region": "Alps",
    "country": "",
    "lat": 46.9634564,
    "lng": 10.7934893,
    "nearest_airport": "",
    "description": "Verified Location."
  },
  "rot-tritt": {
    "name": "Rot Tritt",
    "slug": "rot-tritt",
    "category": "SCENIC_POINT",
    "region": "Alps",
    "country": "Europe",
    "lat": 46.8099509,
    "lng": 9.6734677,
    "nearest_airport": "ZRH",
    "description": "Auto-imported SCENIC_POINT. Altitude: N/Am"
  },
  "rotachmundung": {
    "name": "Rotachmündung",
    "slug": "rotachmundung",
    "category": "SCENIC_POINT",
    "region": "Alps",
    "country": "Europe",
    "lat": 47.6488337,
    "lng": 9.4959141,
    "nearest_airport": "ZRH",
    "description": "Auto-imported SCENIC_POINT. Altitude: N/Am"
  },
  "rote-furka": {
    "name": "Rote Furka",
    "slug": "rote-furka",
    "category": "MOUNTAIN_PASS",
    "region": "Alps",
    "country": "Europe",
    "lat": 46.8610704,
    "lng": 10.0616916,
    "nearest_airport": "INN",
    "description": "Auto-imported MOUNTAIN_PASS. Altitude: 2688m"
  },
  "rote-furka-295": {
    "name": "Rote Furka",
    "slug": "rote-furka-295",
    "category": "MOUNTAIN_PASS",
    "region": "Alps",
    "country": "",
    "lat": 46.8610704,
    "lng": 10.0616916,
    "nearest_airport": "",
    "description": "Verified Location."
  },
  "rote-hard": {
    "name": "Rote Härd",
    "slug": "rote-hard",
    "category": "MOUNTAIN_PASS",
    "region": "Alps",
    "country": "Europe",
    "lat": 46.555901,
    "lng": 7.8207173,
    "nearest_airport": "ZRH",
    "description": "Auto-imported MOUNTAIN_PASS. Altitude: 2683m"
  },
  "rote-hard-2897": {
    "name": "Rote Härd",
    "slug": "rote-hard-2897",
    "category": "MOUNTAIN_PASS",
    "region": "Alps",
    "country": "",
    "lat": 46.555901,
    "lng": 7.8207173,
    "nearest_airport": "",
    "description": "Verified Location."
  },
  "rote-lenke": {
    "name": "Rote Lenke",
    "slug": "rote-lenke",
    "category": "MOUNTAIN_PASS",
    "region": "Alps",
    "country": "Europe",
    "lat": 46.976775,
    "lng": 12.2958811,
    "nearest_airport": "INN",
    "description": "Auto-imported MOUNTAIN_PASS. Altitude: 2794m"
  },
  "rote-lenke-1779": {
    "name": "Rote Lenke",
    "slug": "rote-lenke-1779",
    "category": "MOUNTAIN_PASS",
    "region": "Alps",
    "country": "",
    "lat": 46.976775,
    "lng": 12.2958811,
    "nearest_airport": "",
    "description": "Verified Location."
  },
  "rote-rinnscharte": {
    "name": "Rote Rinnscharte",
    "slug": "rote-rinnscharte",
    "category": "MOUNTAIN_PASS",
    "region": "Alps",
    "country": "Europe",
    "lat": 47.5593218,
    "lng": 12.3016738,
    "nearest_airport": "SZG",
    "description": "Auto-imported MOUNTAIN_PASS. Altitude: 2100m"
  },
  "rote-rinnscharte-1701": {
    "name": "Rote Rinnscharte",
    "slug": "rote-rinnscharte-1701",
    "category": "MOUNTAIN_PASS",
    "region": "Alps",
    "country": "",
    "lat": 47.5593218,
    "lng": 12.3016738,
    "nearest_airport": "",
    "description": "Verified Location."
  },
  "rote-wand": {
    "name": "Rote Wand",
    "slug": "rote-wand",
    "category": "SCENIC_POINT",
    "region": "Alps",
    "country": "Europe",
    "lat": 46.5921925,
    "lng": 13.7351527,
    "nearest_airport": "SZG",
    "description": "Auto-imported SCENIC_POINT. Altitude: N/Am"
  },
  "rotecksattel": {
    "name": "Rotecksattel",
    "slug": "rotecksattel",
    "category": "MOUNTAIN_PASS",
    "region": "Alps",
    "country": "Europe",
    "lat": 46.6855165,
    "lng": 12.4390768,
    "nearest_airport": "INN",
    "description": "Auto-imported MOUNTAIN_PASS. Altitude: 2360m"
  },
  "rotecksattel-1834": {
    "name": "Rotecksattel",
    "slug": "rotecksattel-1834",
    "category": "MOUNTAIN_PASS",
    "region": "Alps",
    "country": "",
    "lat": 46.6855165,
    "lng": 12.4390768,
    "nearest_airport": "",
    "description": "Verified Location."
  },
  "roter-felsen": {
    "name": "Roter Felsen",
    "slug": "roter-felsen",
    "category": "SCENIC_POINT",
    "region": "Alps",
    "country": "Europe",
    "lat": 47.8060258,
    "lng": 7.997845,
    "nearest_airport": "ZRH",
    "description": "Auto-imported SCENIC_POINT. Altitude: N/Am"
  },
  "rotes-kreuz": {
    "name": "Rotes Kreuz",
    "slug": "rotes-kreuz",
    "category": "SCENIC_POINT",
    "region": "Alps",
    "country": "Europe",
    "lat": 47.8610949,
    "lng": 16.1263963,
    "nearest_airport": "VIE",
    "description": "Auto-imported SCENIC_POINT. Altitude: N/Am"
  },
  "rotfleck-scharte-bocchetta-di-valle-rossa": {
    "name": "Rotfleck-Scharte - Bocchetta di Valle Rossa",
    "slug": "rotfleck-scharte-bocchetta-di-valle-rossa",
    "category": "MOUNTAIN_PASS",
    "region": "Alps",
    "country": "Europe",
    "lat": 47.0220537,
    "lng": 12.1582312,
    "nearest_airport": "INN",
    "description": "Auto-imported MOUNTAIN_PASS. Altitude: 2858m"
  },
  "rotfleck-scharte-bocchetta-di-valle-rossa-2251": {
    "name": "Rotfleck-Scharte - Bocchetta di Valle Rossa",
    "slug": "rotfleck-scharte-bocchetta-di-valle-rossa-2251",
    "category": "MOUNTAIN_PASS",
    "region": "Alps",
    "country": "",
    "lat": 47.0220537,
    "lng": 12.1582312,
    "nearest_airport": "",
    "description": "Verified Location."
  },
  "rotfluhlucke": {
    "name": "Rotfluhlücke",
    "slug": "rotfluhlucke",
    "category": "MOUNTAIN_PASS",
    "region": "Alps",
    "country": "Europe",
    "lat": 46.8605711,
    "lng": 10.084772,
    "nearest_airport": "INN",
    "description": "Auto-imported MOUNTAIN_PASS. Altitude: N/Am"
  },
  "rotfurgga": {
    "name": "Rotfurgga",
    "slug": "rotfurgga",
    "category": "MOUNTAIN_PASS",
    "region": "Alps",
    "country": "Europe",
    "lat": 46.879951,
    "lng": 9.9643099,
    "nearest_airport": "INN",
    "description": "Auto-imported MOUNTAIN_PASS. Altitude: 2706m"
  },
  "rotfurgga-3820": {
    "name": "Rotfurgga",
    "slug": "rotfurgga-3820",
    "category": "MOUNTAIN_PASS",
    "region": "Alps",
    "country": "",
    "lat": 46.879951,
    "lng": 9.9643099,
    "nearest_airport": "",
    "description": "Verified Location."
  },
  "rotgratscharte-forcella-della-cresta-rossa": {
    "name": "Rotgratscharte - Forcella della Cresta Rossa",
    "slug": "rotgratscharte-forcella-della-cresta-rossa",
    "category": "MOUNTAIN_PASS",
    "region": "Alps",
    "country": "Europe",
    "lat": 46.9639127,
    "lng": 11.2094126,
    "nearest_airport": "INN",
    "description": "Auto-imported MOUNTAIN_PASS. Altitude: 3007m"
  },
  "rotgratscharte-forcella-della-cresta-rossa-2622": {
    "name": "Rotgratscharte - Forcella della Cresta Rossa",
    "slug": "rotgratscharte-forcella-della-cresta-rossa-2622",
    "category": "MOUNTAIN_PASS",
    "region": "Alps",
    "country": "",
    "lat": 46.9639127,
    "lng": 11.2094126,
    "nearest_airport": "",
    "description": "Verified Location."
  },
  "rothekopf": {
    "name": "Röthekopf",
    "slug": "rothekopf",
    "category": "SCENIC_POINT",
    "region": "Alps",
    "country": "Europe",
    "lat": 47.575568,
    "lng": 7.9364339,
    "nearest_airport": "ZRH",
    "description": "Auto-imported SCENIC_POINT. Altitude: N/Am"
  },
  "rothenbachschrofen": {
    "name": "Rothenbachschrofen",
    "slug": "rothenbachschrofen",
    "category": "SCENIC_POINT",
    "region": "Alps",
    "country": "Europe",
    "lat": 47.3893223,
    "lng": 9.8414594,
    "nearest_airport": "ZRH",
    "description": "Auto-imported SCENIC_POINT. Altitude: N/Am"
  },
  "rothenfluh-passhohe": {
    "name": "Rothenfluh Passhöhe",
    "slug": "rothenfluh-passhohe",
    "category": "MOUNTAIN_PASS",
    "region": "Alps",
    "country": "Europe",
    "lat": 47.4690583,
    "lng": 7.9425689,
    "nearest_airport": "ZRH",
    "description": "Auto-imported MOUNTAIN_PASS. Altitude: 471m"
  },
  "rothgartli": {
    "name": "Rothgärtli",
    "slug": "rothgartli",
    "category": "SCENIC_POINT",
    "region": "Alps",
    "country": "Europe",
    "lat": 47.1527929,
    "lng": 7.2601183,
    "nearest_airport": "ZRH",
    "description": "Auto-imported SCENIC_POINT. Altitude: N/Am"
  },
  "rothirsch": {
    "name": "Rothirsch",
    "slug": "rothirsch",
    "category": "SCENIC_POINT",
    "region": "Alps",
    "country": "Europe",
    "lat": 47.2905292,
    "lng": 8.5317168,
    "nearest_airport": "ZRH",
    "description": "Auto-imported SCENIC_POINT. Altitude: N/Am"
  },
  "rothohe": {
    "name": "Rothöhe",
    "slug": "rothohe",
    "category": "SCENIC_POINT",
    "region": "Alps",
    "country": "Europe",
    "lat": 47.0395975,
    "lng": 7.6157312,
    "nearest_airport": "ZRH",
    "description": "Auto-imported SCENIC_POINT. Altitude: N/Am"
  },
  "rothorn": {
    "name": "Rothorn",
    "slug": "rothorn",
    "category": "SCENIC_POINT",
    "region": "Alps",
    "country": "Europe",
    "lat": 46.244275,
    "lng": 7.6432473,
    "nearest_airport": "MXP",
    "description": "Auto-imported SCENIC_POINT. Altitude: 2998m"
  },
  "rothornjoch": {
    "name": "Rothornjoch",
    "slug": "rothornjoch",
    "category": "MOUNTAIN_PASS",
    "region": "Alps",
    "country": "Europe",
    "lat": 46.1788624,
    "lng": 7.7322185,
    "nearest_airport": "MXP",
    "description": "Auto-imported MOUNTAIN_PASS. Altitude: 3216m"
  },
  "rothornjoch-3672": {
    "name": "Rothornjoch",
    "slug": "rothornjoch-3672",
    "category": "MOUNTAIN_PASS",
    "region": "Alps",
    "country": "",
    "lat": 46.1788624,
    "lng": 7.7322185,
    "nearest_airport": "",
    "description": "Verified Location."
  },
  "rotkarljoch": {
    "name": "Rötkarljoch",
    "slug": "rotkarljoch",
    "category": "MOUNTAIN_PASS",
    "region": "Alps",
    "country": "Europe",
    "lat": 47.0125714,
    "lng": 10.8951535,
    "nearest_airport": "INN",
    "description": "Auto-imported MOUNTAIN_PASS. Altitude: 2710m"
  },
  "rotkarljoch-985": {
    "name": "Rötkarljoch",
    "slug": "rotkarljoch-985",
    "category": "MOUNTAIN_PASS",
    "region": "Alps",
    "country": "",
    "lat": 47.0125714,
    "lng": 10.8951535,
    "nearest_airport": "",
    "description": "Verified Location."
  },
  "rotkreuz": {
    "name": "Rotkreuz",
    "slug": "rotkreuz",
    "category": "SCENIC_POINT",
    "region": "Alps",
    "country": "Europe",
    "lat": 47.8701967,
    "lng": 10.1928727,
    "nearest_airport": "INN",
    "description": "Auto-imported SCENIC_POINT. Altitude: N/Am"
  },
  "rotmoosjoch-boccha-di-plan": {
    "name": "Rotmoosjoch - Boccha di Plan",
    "slug": "rotmoosjoch-boccha-di-plan",
    "category": "MOUNTAIN_PASS",
    "region": "Alps",
    "country": "Europe",
    "lat": 46.8082004,
    "lng": 11.0549489,
    "nearest_airport": "INN",
    "description": "Auto-imported MOUNTAIN_PASS. Altitude: 3054m"
  },
  "rotmoosjoch-boccha-di-plan-1047": {
    "name": "Rotmoosjoch - Boccha di Plan",
    "slug": "rotmoosjoch-boccha-di-plan-1047",
    "category": "MOUNTAIN_PASS",
    "region": "Alps",
    "country": "",
    "lat": 46.8082004,
    "lng": 11.0549489,
    "nearest_airport": "",
    "description": "Verified Location."
  },
  "rotofensattel": {
    "name": "Rotofensattel",
    "slug": "rotofensattel",
    "category": "MOUNTAIN_PASS",
    "region": "Alps",
    "country": "Europe",
    "lat": 47.6937541,
    "lng": 12.9208739,
    "nearest_airport": "SZG",
    "description": "Auto-imported MOUNTAIN_PASS. Altitude: 1284m"
  },
  "rotohrsattel": {
    "name": "Rotöhrsattel",
    "slug": "rotohrsattel",
    "category": "MOUNTAIN_PASS",
    "region": "Alps",
    "country": "Europe",
    "lat": 47.6540337,
    "lng": 11.4776478,
    "nearest_airport": "INN",
    "description": "Auto-imported MOUNTAIN_PASS. Altitude: N/Am"
  },
  "rotonda-gianfranco-gazzana-priaroggia": {
    "name": "Rotonda Gianfranco Gazzana Priaroggia",
    "slug": "rotonda-gianfranco-gazzana-priaroggia",
    "category": "SCENIC_POINT",
    "region": "Alps",
    "country": "Europe",
    "lat": 44.3453771,
    "lng": 9.2378389,
    "nearest_airport": "MXP",
    "description": "Auto-imported SCENIC_POINT. Altitude: N/Am"
  },
  "rotonda-sora-luna-et-stelle": {
    "name": "Rotonda Sora Luna et Stelle",
    "slug": "rotonda-sora-luna-et-stelle",
    "category": "SCENIC_POINT",
    "region": "Alps",
    "country": "Europe",
    "lat": 45.7973974,
    "lng": 8.4118492,
    "nearest_airport": "MXP",
    "description": "Auto-imported SCENIC_POINT. Altitude: N/Am"
  },
  "rotovec": {
    "name": "Rotovec",
    "slug": "rotovec",
    "category": "SCENIC_POINT",
    "region": "Alps",
    "country": "Europe",
    "lat": 45.8940244,
    "lng": 14.4557584,
    "nearest_airport": "VCE",
    "description": "Auto-imported SCENIC_POINT. Altitude: N/Am"
  },
  "rots-tallilicke": {
    "name": "Rots Tällilicke",
    "slug": "rots-tallilicke",
    "category": "MOUNTAIN_PASS",
    "region": "Alps",
    "country": "Europe",
    "lat": 46.2198247,
    "lng": 7.7608768,
    "nearest_airport": "MXP",
    "description": "Auto-imported MOUNTAIN_PASS. Altitude: 2937m"
  },
  "rots-tallilicke-1851": {
    "name": "Rots Tällilicke",
    "slug": "rots-tallilicke-1851",
    "category": "MOUNTAIN_PASS",
    "region": "Alps",
    "country": "",
    "lat": 46.2198247,
    "lng": 7.7608768,
    "nearest_airport": "",
    "description": "Verified Location."
  },
  "rotscharte": {
    "name": "Rotscharte",
    "slug": "rotscharte",
    "category": "MOUNTAIN_PASS",
    "region": "Alps",
    "country": "Europe",
    "lat": 47.5367778,
    "lng": 12.6541784,
    "nearest_airport": "SZG",
    "description": "Auto-imported MOUNTAIN_PASS. Altitude: 2239m"
  },
  "rotscharte-3181": {
    "name": "Rotscharte",
    "slug": "rotscharte-3181",
    "category": "MOUNTAIN_PASS",
    "region": "Alps",
    "country": "",
    "lat": 47.5367778,
    "lng": 12.6541784,
    "nearest_airport": "",
    "description": "Verified Location."
  },
  "rotschitzafallblick": {
    "name": "Rotschitzafallblick",
    "slug": "rotschitzafallblick",
    "category": "SCENIC_POINT",
    "region": "Alps",
    "country": "Europe",
    "lat": 46.5267981,
    "lng": 13.9026336,
    "nearest_airport": "SZG",
    "description": "Auto-imported SCENIC_POINT. Altitude: N/Am"
  },
  "rotsteinpass": {
    "name": "Rotsteinpass",
    "slug": "rotsteinpass",
    "category": "MOUNTAIN_PASS",
    "region": "Alps",
    "country": "Europe",
    "lat": 47.2428955,
    "lng": 9.3649931,
    "nearest_airport": "ZRH",
    "description": "Auto-imported MOUNTAIN_PASS. Altitude: 2122m"
  },
  "rotsteinpass-679": {
    "name": "Rotsteinpass",
    "slug": "rotsteinpass-679",
    "category": "MOUNTAIN_PASS",
    "region": "Alps",
    "country": "",
    "lat": 47.2428955,
    "lng": 9.3649931,
    "nearest_airport": "",
    "description": "Verified Location."
  },
  "rotstock-lucke": {
    "name": "Rotstock Lücke",
    "slug": "rotstock-lucke",
    "category": "MOUNTAIN_PASS",
    "region": "Alps",
    "country": "Europe",
    "lat": 46.57521,
    "lng": 8.62689,
    "nearest_airport": "ZRH",
    "description": "Auto-imported MOUNTAIN_PASS. Altitude: 2785m"
  },
  "rotstock-lucke-524": {
    "name": "Rotstock Lücke",
    "slug": "rotstock-lucke-524",
    "category": "MOUNTAIN_PASS",
    "region": "Alps",
    "country": "",
    "lat": 46.57521,
    "lng": 8.62689,
    "nearest_airport": "",
    "description": "Verified Location."
  },
  "rottalligrat": {
    "name": "Rottälligrat",
    "slug": "rottalligrat",
    "category": "MOUNTAIN_PASS",
    "region": "Alps",
    "country": "Europe",
    "lat": 46.546244,
    "lng": 8.478655,
    "nearest_airport": "ZRH",
    "description": "Auto-imported MOUNTAIN_PASS. Altitude: N/Am"
  },
  "rottallipass": {
    "name": "Rottällipass",
    "slug": "rottallipass",
    "category": "MOUNTAIN_PASS",
    "region": "Alps",
    "country": "Europe",
    "lat": 46.5412948,
    "lng": 8.4651776,
    "nearest_airport": "ZRH",
    "description": "Auto-imported MOUNTAIN_PASS. Altitude: 2881m"
  },
  "rottallipass-3366": {
    "name": "Rottällipass",
    "slug": "rottallipass-3366",
    "category": "MOUNTAIN_PASS",
    "region": "Alps",
    "country": "",
    "lat": 46.5412948,
    "lng": 8.4651776,
    "nearest_airport": "",
    "description": "Verified Location."
  },
  "rottorl": {
    "name": "Rottörl",
    "slug": "rottorl",
    "category": "MOUNTAIN_PASS",
    "region": "Alps",
    "country": "Europe",
    "lat": 46.789985,
    "lng": 13.1324687,
    "nearest_airport": "SZG",
    "description": "Auto-imported MOUNTAIN_PASS. Altitude: 2310m"
  },
  "rottorl-1547": {
    "name": "Rottörl",
    "slug": "rottorl-1547",
    "category": "MOUNTAIN_PASS",
    "region": "Alps",
    "country": "",
    "lat": 46.789985,
    "lng": 13.1324687,
    "nearest_airport": "",
    "description": "Verified Location."
  },
  "rotwand-aussicht": {
    "name": "Rotwand-Aussicht",
    "slug": "rotwand-aussicht",
    "category": "SCENIC_POINT",
    "region": "Alps",
    "country": "Europe",
    "lat": 47.5997907,
    "lng": 11.4988496,
    "nearest_airport": "INN",
    "description": "Auto-imported SCENIC_POINT. Altitude: 940m"
  },
  "rotwand-parete-rossa": {
    "name": "Rotwand - Parete Rossa",
    "slug": "rotwand-parete-rossa",
    "category": "SCENIC_POINT",
    "region": "Alps",
    "country": "Europe",
    "lat": 46.4537521,
    "lng": 11.375742,
    "nearest_airport": "INN",
    "description": "Auto-imported SCENIC_POINT. Altitude: 1534m"
  },
  "rotwand-rocce-rosse": {
    "name": "Rotwand - Rocce Rosse",
    "slug": "rotwand-rocce-rosse",
    "category": "SCENIC_POINT",
    "region": "Alps",
    "country": "Europe",
    "lat": 46.3757799,
    "lng": 11.3308574,
    "nearest_airport": "INN",
    "description": "Auto-imported SCENIC_POINT. Altitude: N/Am"
  },
  "route-forestiere-du-mont-boron": {
    "name": "Route Forestière du Mont Boron",
    "slug": "route-forestiere-du-mont-boron",
    "category": "SCENIC_POINT",
    "region": "Alps",
    "country": "Europe",
    "lat": 43.6964566,
    "lng": 7.2973985,
    "nearest_airport": "NCE",
    "description": "Auto-imported SCENIC_POINT. Altitude: N/Am"
  },
  "rouverda": {
    "name": "RouVerda",
    "slug": "rouverda",
    "category": "SCENIC_POINT",
    "region": "Alps",
    "country": "Europe",
    "lat": 45.1375569,
    "lng": 8.0914575,
    "nearest_airport": "TRN",
    "description": "Auto-imported SCENIC_POINT. Altitude: N/Am"
  },
  "rovereda": {
    "name": "Rovereda",
    "slug": "rovereda",
    "category": "MOUNTAIN_PASS",
    "region": "Alps",
    "country": "Europe",
    "lat": 44.2394229,
    "lng": 9.7525647,
    "nearest_airport": "MXP",
    "description": "Auto-imported MOUNTAIN_PASS. Altitude: N/Am"
  },
  "rozca": {
    "name": "Rožca",
    "slug": "rozca",
    "category": "SCENIC_POINT",
    "region": "Alps",
    "country": "Europe",
    "lat": 46.4814857,
    "lng": 14.0199704,
    "nearest_airport": "SZG",
    "description": "Auto-imported SCENIC_POINT. Altitude: N/Am"
  }
}