{
  "s-agata": {
    "name": "S. Agata",
    "slug": "s-agata",
    "category": "SCENIC_POINT",
    "region": "Alps",
    "country": "Europe",
    "lat": 45.9367791,
    "lng": 8.9972955,
    "nearest_airport": "MXP",
    "description": "Auto-imported SCENIC_POINT. Altitude: N/Am"
  },
  "sa-casiera": {
    "name": "Sa Casiéra",
    "slug": "sa-casiera",
    "category": "SCENIC_POINT",
    "region": "Alps",
    "country": "Europe",
    "lat": 46.459703,
    "lng": 11.9463104,
    "nearest_airport": "INN",
    "description": "Auto-imported SCENIC_POINT. Altitude: N/Am"
  },
  "saalachblick": {
    "name": "Saalachblick",
    "slug": "saalachblick",
    "category": "SCENIC_POINT",
    "region": "Alps",
    "country": "Europe",
    "lat": 47.5889472,
    "lng": 12.695179,
    "nearest_airport": "SZG",
    "description": "Auto-imported SCENIC_POINT. Altitude: N/Am"
  },
  "saalacherlebniswelt": {
    "name": "Saalacherlebniswelt",
    "slug": "saalacherlebniswelt",
    "category": "SCENIC_POINT",
    "region": "Alps",
    "country": "Europe",
    "lat": 47.7240755,
    "lng": 12.8664681,
    "nearest_airport": "SZG",
    "description": "Auto-imported SCENIC_POINT. Altitude: N/Am"
  },
  "saalachspitz": {
    "name": "Saalachspitz",
    "slug": "saalachspitz",
    "category": "SCENIC_POINT",
    "region": "Alps",
    "country": "Europe",
    "lat": 47.852627,
    "lng": 13.002879,
    "nearest_airport": "SZG",
    "description": "Auto-imported SCENIC_POINT. Altitude: N/Am"
  },
  "saanenmoser": {
    "name": "Saanenmöser",
    "slug": "saanenmoser",
    "category": "MOUNTAIN_PASS",
    "region": "Alps",
    "country": "Europe",
    "lat": 46.5144482,
    "lng": 7.3046961,
    "nearest_airport": "GVA",
    "description": "Auto-imported MOUNTAIN_PASS. Altitude: 1279m"
  },
  "saaspass": {
    "name": "Saaspass",
    "slug": "saaspass",
    "category": "MOUNTAIN_PASS",
    "region": "Alps",
    "country": "Europe",
    "lat": 46.5356653,
    "lng": 8.4473642,
    "nearest_airport": "ZRH",
    "description": "Auto-imported MOUNTAIN_PASS. Altitude: 2873m"
  },
  "saaspass-3367": {
    "name": "Saaspass",
    "slug": "saaspass-3367",
    "category": "MOUNTAIN_PASS",
    "region": "Alps",
    "country": "",
    "lat": 46.5356653,
    "lng": 8.4473642,
    "nearest_airport": "",
    "description": "Verified Location."
  },
  "sabachjoch": {
    "name": "Sabachjoch",
    "slug": "sabachjoch",
    "category": "MOUNTAIN_PASS",
    "region": "Alps",
    "country": "Europe",
    "lat": 47.4954831,
    "lng": 10.6384834,
    "nearest_airport": "INN",
    "description": "Auto-imported MOUNTAIN_PASS. Altitude: 1860m"
  },
  "sablicevo": {
    "name": "Sablićevo",
    "slug": "sablicevo",
    "category": "SCENIC_POINT",
    "region": "Alps",
    "country": "Europe",
    "lat": 45.3180055,
    "lng": 14.4661842,
    "nearest_airport": "VCE",
    "description": "Auto-imported SCENIC_POINT. Altitude: N/Am"
  },
  "sabotin": {
    "name": "Sabotin",
    "slug": "sabotin",
    "category": "SCENIC_POINT",
    "region": "Alps",
    "country": "Europe",
    "lat": 45.9884747,
    "lng": 13.6347024,
    "nearest_airport": "VCE",
    "description": "Auto-imported SCENIC_POINT. Altitude: 609m"
  },
  "sachsenrieder-bankle": {
    "name": "Sachsenrieder Bänkle",
    "slug": "sachsenrieder-bankle",
    "category": "SCENIC_POINT",
    "region": "Alps",
    "country": "Europe",
    "lat": 47.8310392,
    "lng": 10.2216338,
    "nearest_airport": "INN",
    "description": "Auto-imported SCENIC_POINT. Altitude: N/Am"
  },
  "saderer-joch": {
    "name": "Saderer Joch",
    "slug": "saderer-joch",
    "category": "MOUNTAIN_PASS",
    "region": "Alps",
    "country": "Europe",
    "lat": 46.9252176,
    "lng": 10.5396058,
    "nearest_airport": "INN",
    "description": "Auto-imported MOUNTAIN_PASS. Altitude: 2397m"
  },
  "saderer-joch-550": {
    "name": "Saderer Joch",
    "slug": "saderer-joch-550",
    "category": "MOUNTAIN_PASS",
    "region": "Alps",
    "country": "",
    "lat": 46.9252176,
    "lng": 10.5396058,
    "nearest_airport": "",
    "description": "Verified Location."
  },
  "sadnigscharte": {
    "name": "Sadnigscharte",
    "slug": "sadnigscharte",
    "category": "MOUNTAIN_PASS",
    "region": "Alps",
    "country": "Europe",
    "lat": 46.9485264,
    "lng": 12.9889403,
    "nearest_airport": "SZG",
    "description": "Auto-imported MOUNTAIN_PASS. Altitude: 2484m"
  },
  "sadnigscharte-2512": {
    "name": "Sadnigscharte",
    "slug": "sadnigscharte-2512",
    "category": "MOUNTAIN_PASS",
    "region": "Alps",
    "country": "",
    "lat": 46.9485264,
    "lng": 12.9889403,
    "nearest_airport": "",
    "description": "Verified Location."
  },
  "safaribus": {
    "name": "Safaribus",
    "slug": "safaribus",
    "category": "SCENIC_POINT",
    "region": "Alps",
    "country": "Europe",
    "lat": 47.3874253,
    "lng": 8.5798715,
    "nearest_airport": "ZRH",
    "description": "Auto-imported SCENIC_POINT. Altitude: N/Am"
  },
  "saflischpass": {
    "name": "Saflischpass",
    "slug": "saflischpass",
    "category": "MOUNTAIN_PASS",
    "region": "Alps",
    "country": "Europe",
    "lat": 46.3238785,
    "lng": 8.0949868,
    "nearest_airport": "MXP",
    "description": "Auto-imported MOUNTAIN_PASS. Altitude: 2564m"
  },
  "saflischpass-801": {
    "name": "Saflischpass",
    "slug": "saflischpass-801",
    "category": "MOUNTAIN_PASS",
    "region": "Alps",
    "country": "",
    "lat": 46.3238785,
    "lng": 8.0949868,
    "nearest_airport": "",
    "description": "Verified Location."
  },
  "sai-uedli": {
    "name": "Sai Uëdli",
    "slug": "sai-uedli",
    "category": "SCENIC_POINT",
    "region": "Alps",
    "country": "Europe",
    "lat": 46.5547946,
    "lng": 11.76482,
    "nearest_airport": "INN",
    "description": "Auto-imported SCENIC_POINT. Altitude: N/Am"
  },
  "saig-hochfirst": {
    "name": "Saig Hochfirst",
    "slug": "saig-hochfirst",
    "category": "SCENIC_POINT",
    "region": "Alps",
    "country": "Europe",
    "lat": 47.8773828,
    "lng": 8.1867033,
    "nearest_airport": "ZRH",
    "description": "Auto-imported SCENIC_POINT. Altitude: N/Am"
  },
  "saint-abdon": {
    "name": "Saint-Abdon",
    "slug": "saint-abdon",
    "category": "SCENIC_POINT",
    "region": "Alps",
    "country": "Europe",
    "lat": 44.4521188,
    "lng": 6.0522882,
    "nearest_airport": "NCE",
    "description": "Auto-imported SCENIC_POINT. Altitude: 739m"
  },
  "saint-barthelemy": {
    "name": "Saint-Barthélémy",
    "slug": "saint-barthelemy",
    "category": "SCENIC_POINT",
    "region": "Alps",
    "country": "Europe",
    "lat": 43.5803157,
    "lng": 6.2343787,
    "nearest_airport": "NCE",
    "description": "Auto-imported SCENIC_POINT. Altitude: N/Am"
  },
  "saint-barthelemy-2395": {
    "name": "Saint-Barthélémy",
    "slug": "saint-barthelemy-2395",
    "category": "SCENIC_POINT",
    "region": "Alps",
    "country": "",
    "lat": 43.5803157,
    "lng": 6.2343787,
    "nearest_airport": "",
    "description": "Verified Location."
  },
  "saint-evence": {
    "name": "Saint-Evence",
    "slug": "saint-evence",
    "category": "SCENIC_POINT",
    "region": "Alps",
    "country": "Europe",
    "lat": 45.7686013,
    "lng": 7.5855126,
    "nearest_airport": "TRN",
    "description": "Auto-imported SCENIC_POINT. Altitude: N/Am"
  },
  "saint-marc": {
    "name": "Saint Marc",
    "slug": "saint-marc",
    "category": "MOUNTAIN_PASS",
    "region": "Alps",
    "country": "Europe",
    "lat": 43.792111,
    "lng": 7.0606054,
    "nearest_airport": "NCE",
    "description": "Auto-imported MOUNTAIN_PASS. Altitude: 1017m"
  },
  "saint-michel-de-connexe": {
    "name": "Saint-Michel de Connexe",
    "slug": "saint-michel-de-connexe",
    "category": "SCENIC_POINT",
    "region": "Alps",
    "country": "Europe",
    "lat": 45.0602331,
    "lng": 5.7278724,
    "nearest_airport": "GVA",
    "description": "Auto-imported SCENIC_POINT. Altitude: N/Am"
  },
  "saint-pancrace": {
    "name": "Saint-Pancrace",
    "slug": "saint-pancrace",
    "category": "SCENIC_POINT",
    "region": "Alps",
    "country": "Europe",
    "lat": 44.0853025,
    "lng": 6.2563519,
    "nearest_airport": "NCE",
    "description": "Auto-imported SCENIC_POINT. Altitude: N/Am"
  },
  "sajatscharte": {
    "name": "Sajatscharte",
    "slug": "sajatscharte",
    "category": "MOUNTAIN_PASS",
    "region": "Alps",
    "country": "Europe",
    "lat": 47.041383,
    "lng": 12.3497271,
    "nearest_airport": "INN",
    "description": "Auto-imported MOUNTAIN_PASS. Altitude: 2778m"
  },
  "sajatscharte-2781": {
    "name": "Sajatscharte",
    "slug": "sajatscharte-2781",
    "category": "MOUNTAIN_PASS",
    "region": "Alps",
    "country": "",
    "lat": 47.041383,
    "lng": 12.3497271,
    "nearest_airport": "",
    "description": "Verified Location."
  },
  "salchenscharte": {
    "name": "Salchenscharte",
    "slug": "salchenscharte",
    "category": "MOUNTAIN_PASS",
    "region": "Alps",
    "country": "Europe",
    "lat": 47.0948127,
    "lng": 11.0056784,
    "nearest_airport": "INN",
    "description": "Auto-imported MOUNTAIN_PASS. Altitude: 2776m"
  },
  "salchenscharte-3253": {
    "name": "Salchenscharte",
    "slug": "salchenscharte-3253",
    "category": "MOUNTAIN_PASS",
    "region": "Alps",
    "country": "",
    "lat": 47.0948127,
    "lng": 11.0056784,
    "nearest_airport": "",
    "description": "Verified Location."
  },
  "salchet": {
    "name": "Salchet",
    "slug": "salchet",
    "category": "SCENIC_POINT",
    "region": "Alps",
    "country": "Europe",
    "lat": 47.317762,
    "lng": 9.5346436,
    "nearest_airport": "ZRH",
    "description": "Auto-imported SCENIC_POINT. Altitude: N/Am"
  },
  "salemer-tal": {
    "name": "Salemer Tal",
    "slug": "salemer-tal",
    "category": "SCENIC_POINT",
    "region": "Alps",
    "country": "Europe",
    "lat": 47.789449,
    "lng": 9.241295,
    "nearest_airport": "ZRH",
    "description": "Auto-imported SCENIC_POINT. Altitude: N/Am"
  },
  "saletzjoch": {
    "name": "Saletzjoch",
    "slug": "saletzjoch",
    "category": "MOUNTAIN_PASS",
    "region": "Alps",
    "country": "Europe",
    "lat": 46.8497173,
    "lng": 10.5861999,
    "nearest_airport": "INN",
    "description": "Auto-imported MOUNTAIN_PASS. Altitude: 2808m"
  },
  "saletzjoch-1062": {
    "name": "Saletzjoch",
    "slug": "saletzjoch-1062",
    "category": "MOUNTAIN_PASS",
    "region": "Alps",
    "country": "",
    "lat": 46.8497173,
    "lng": 10.5861999,
    "nearest_airport": "",
    "description": "Verified Location."
  },
  "salhohe": {
    "name": "Salhöhe",
    "slug": "salhohe",
    "category": "MOUNTAIN_PASS",
    "region": "Alps",
    "country": "Europe",
    "lat": 47.4289261,
    "lng": 7.9859682,
    "nearest_airport": "ZRH",
    "description": "Auto-imported MOUNTAIN_PASS. Altitude: 779m"
  },
  "salhohe-319": {
    "name": "Salhöhe",
    "slug": "salhohe-319",
    "category": "MOUNTAIN_PASS",
    "region": "Alps",
    "country": "",
    "lat": 47.4289261,
    "lng": 7.9859682,
    "nearest_airport": "",
    "description": "Verified Location."
  },
  "saligensitze": {
    "name": "Saligensitze",
    "slug": "saligensitze",
    "category": "SCENIC_POINT",
    "region": "Alps",
    "country": "Europe",
    "lat": 46.5648189,
    "lng": 14.0943632,
    "nearest_airport": "SZG",
    "description": "Auto-imported SCENIC_POINT. Altitude: N/Am"
  },
  "salla": {
    "name": "Salla",
    "slug": "salla",
    "category": "MOUNTAIN_PASS",
    "region": "Alps",
    "country": "Europe",
    "lat": 46.7560674,
    "lng": 12.0754418,
    "nearest_airport": "INN",
    "description": "Auto-imported MOUNTAIN_PASS. Altitude: 1252m"
  },
  "sallauscex": {
    "name": "Sallauscex",
    "slug": "sallauscex",
    "category": "SCENIC_POINT",
    "region": "Alps",
    "country": "Europe",
    "lat": 46.4501281,
    "lng": 6.922183,
    "nearest_airport": "GVA",
    "description": "Auto-imported SCENIC_POINT. Altitude: N/Am"
  },
  "sallauscex-1522": {
    "name": "Sallauscex",
    "slug": "sallauscex-1522",
    "category": "SCENIC_POINT",
    "region": "Alps",
    "country": "",
    "lat": 46.4501281,
    "lng": 6.922183,
    "nearest_airport": "",
    "description": "Verified Location."
  },
  "salt-de-la-volp": {
    "name": "Salt de la volp",
    "slug": "salt-de-la-volp",
    "category": "SCENIC_POINT",
    "region": "Alps",
    "country": "Europe",
    "lat": 45.9255624,
    "lng": 11.1850624,
    "nearest_airport": "VCE",
    "description": "Auto-imported SCENIC_POINT. Altitude: N/Am"
  },
  "saltauser-joch-forcella-di-saltusio": {
    "name": "Saltauser Joch - Forcella di Saltusio",
    "slug": "saltauser-joch-forcella-di-saltusio",
    "category": "MOUNTAIN_PASS",
    "region": "Alps",
    "country": "Europe",
    "lat": 46.7439685,
    "lng": 11.1473296,
    "nearest_airport": "INN",
    "description": "Auto-imported MOUNTAIN_PASS. Altitude: 2284m"
  },
  "saltauser-joch-forcella-di-saltusio-1725": {
    "name": "Saltauser Joch - Forcella di Saltusio",
    "slug": "saltauser-joch-forcella-di-saltusio-1725",
    "category": "MOUNTAIN_PASS",
    "region": "Alps",
    "country": "",
    "lat": 46.7439685,
    "lng": 11.1473296,
    "nearest_airport": "",
    "description": "Verified Location."
  },
  "salto-della-lepre": {
    "name": "Salto della Lepre",
    "slug": "salto-della-lepre",
    "category": "SCENIC_POINT",
    "region": "Alps",
    "country": "Europe",
    "lat": 44.1834793,
    "lng": 9.5688937,
    "nearest_airport": "MXP",
    "description": "Auto-imported SCENIC_POINT. Altitude: N/Am"
  },
  "salto-della-lepre-3779": {
    "name": "Salto della Lepre",
    "slug": "salto-della-lepre-3779",
    "category": "SCENIC_POINT",
    "region": "Alps",
    "country": "",
    "lat": 44.1834793,
    "lng": 9.5688937,
    "nearest_airport": "",
    "description": "Verified Location."
  },
  "salto-della-suocera": {
    "name": "Salto della Suocera",
    "slug": "salto-della-suocera",
    "category": "SCENIC_POINT",
    "region": "Alps",
    "country": "Europe",
    "lat": 44.058924,
    "lng": 9.82359,
    "nearest_airport": "MXP",
    "description": "Auto-imported SCENIC_POINT. Altitude: N/Am"
  },
  "salto-delle-capre": {
    "name": "Salto delle Capre",
    "slug": "salto-delle-capre",
    "category": "SCENIC_POINT",
    "region": "Alps",
    "country": "Europe",
    "lat": 46.2138543,
    "lng": 9.4379555,
    "nearest_airport": "MXP",
    "description": "Auto-imported SCENIC_POINT. Altitude: 320m"
  },
  "salto-nel-blu": {
    "name": "Salto nel Blu",
    "slug": "salto-nel-blu",
    "category": "SCENIC_POINT",
    "region": "Alps",
    "country": "Europe",
    "lat": 43.9368353,
    "lng": 8.1256141,
    "nearest_airport": "NCE",
    "description": "Auto-imported SCENIC_POINT. Altitude: N/Am"
  },
  "salzabrucke": {
    "name": "Salzabrücke",
    "slug": "salzabrucke",
    "category": "SCENIC_POINT",
    "region": "Alps",
    "country": "Europe",
    "lat": 47.6986907,
    "lng": 14.8742014,
    "nearest_airport": "VIE",
    "description": "Auto-imported SCENIC_POINT. Altitude: N/Am"
  },
  "salzatalblick": {
    "name": "Salzatalblick",
    "slug": "salzatalblick",
    "category": "SCENIC_POINT",
    "region": "Alps",
    "country": "Europe",
    "lat": 47.7043605,
    "lng": 14.878883,
    "nearest_airport": "VIE",
    "description": "Auto-imported SCENIC_POINT. Altitude: N/Am"
  },
  "salzbucheljoch": {
    "name": "Salzbücheljoch",
    "slug": "salzbucheljoch",
    "category": "MOUNTAIN_PASS",
    "region": "Alps",
    "country": "Europe",
    "lat": 47.2717823,
    "lng": 10.2109067,
    "nearest_airport": "INN",
    "description": "Auto-imported MOUNTAIN_PASS. Altitude: 1787m"
  },
  "salzburgblick": {
    "name": "Salzburgblick",
    "slug": "salzburgblick",
    "category": "SCENIC_POINT",
    "region": "Alps",
    "country": "Europe",
    "lat": 47.7859536,
    "lng": 12.9365844,
    "nearest_airport": "SZG",
    "description": "Auto-imported SCENIC_POINT. Altitude: N/Am"
  },
  "salzleckstelle": {
    "name": "Salzleckstelle",
    "slug": "salzleckstelle",
    "category": "SCENIC_POINT",
    "region": "Alps",
    "country": "Europe",
    "lat": 47.7960904,
    "lng": 13.4230399,
    "nearest_airport": "SZG",
    "description": "Auto-imported SCENIC_POINT. Altitude: N/Am"
  },
  "salzsteigjoch": {
    "name": "Salzsteigjoch",
    "slug": "salzsteigjoch",
    "category": "MOUNTAIN_PASS",
    "region": "Alps",
    "country": "Europe",
    "lat": 47.6166795,
    "lng": 14.0708948,
    "nearest_airport": "SZG",
    "description": "Auto-imported MOUNTAIN_PASS. Altitude: 1733m"
  },
  "san-bernardino": {
    "name": "San Bernardino",
    "slug": "san-bernardino",
    "category": "SCENIC_POINT",
    "region": "Alps",
    "country": "Europe",
    "lat": 44.1763584,
    "lng": 8.3441136,
    "nearest_airport": "NCE",
    "description": "Auto-imported SCENIC_POINT. Altitude: N/Am"
  },
  "san-bernardo": {
    "name": "San Bernardo",
    "slug": "san-bernardo",
    "category": "SCENIC_POINT",
    "region": "Alps",
    "country": "Europe",
    "lat": 45.7105089,
    "lng": 11.2399957,
    "nearest_airport": "VCE",
    "description": "Auto-imported SCENIC_POINT. Altitude: N/Am"
  },
  "san-clemente": {
    "name": "San Clemente",
    "slug": "san-clemente",
    "category": "SCENIC_POINT",
    "region": "Alps",
    "country": "Europe",
    "lat": 45.8860648,
    "lng": 8.6431164,
    "nearest_airport": "MXP",
    "description": "Auto-imported SCENIC_POINT. Altitude: N/Am"
  },
  "san-colombano": {
    "name": "San Colombano",
    "slug": "san-colombano",
    "category": "SCENIC_POINT",
    "region": "Alps",
    "country": "Europe",
    "lat": 45.8780478,
    "lng": 11.0635084,
    "nearest_airport": "VCE",
    "description": "Auto-imported SCENIC_POINT. Altitude: N/Am"
  },
  "san-cristoforo": {
    "name": "San Cristoforo",
    "slug": "san-cristoforo",
    "category": "SCENIC_POINT",
    "region": "Alps",
    "country": "Europe",
    "lat": 44.519993,
    "lng": 9.8014442,
    "nearest_airport": "MXP",
    "description": "Auto-imported SCENIC_POINT. Altitude: N/Am"
  },
  "san-gioachin": {
    "name": "San Gioachin",
    "slug": "san-gioachin",
    "category": "SCENIC_POINT",
    "region": "Alps",
    "country": "Europe",
    "lat": 44.4589409,
    "lng": 8.672538,
    "nearest_airport": "TRN",
    "description": "Auto-imported SCENIC_POINT. Altitude: N/Am"
  },
  "san-pietro-in-vincoli": {
    "name": "San Pietro in Vincoli",
    "slug": "san-pietro-in-vincoli",
    "category": "SCENIC_POINT",
    "region": "Alps",
    "country": "Europe",
    "lat": 44.9265439,
    "lng": 7.2493198,
    "nearest_airport": "TRN",
    "description": "Auto-imported SCENIC_POINT. Altitude: N/Am"
  },
  "san-salvatore": {
    "name": "San Salvatore",
    "slug": "san-salvatore",
    "category": "SCENIC_POINT",
    "region": "Alps",
    "country": "Europe",
    "lat": 45.9696502,
    "lng": 8.5911597,
    "nearest_airport": "MXP",
    "description": "Auto-imported SCENIC_POINT. Altitude: N/Am"
  },
  "sanctuary-view": {
    "name": "Sanctuary view",
    "slug": "sanctuary-view",
    "category": "SCENIC_POINT",
    "region": "Alps",
    "country": "Europe",
    "lat": 45.557913,
    "lng": 7.5277163,
    "nearest_airport": "TRN",
    "description": "Auto-imported SCENIC_POINT. Altitude: N/Am"
  },
  "sandfeldtorl": {
    "name": "Sandfeldtörl",
    "slug": "sandfeldtorl",
    "category": "MOUNTAIN_PASS",
    "region": "Alps",
    "country": "Europe",
    "lat": 46.8092685,
    "lng": 12.995571,
    "nearest_airport": "SZG",
    "description": "Auto-imported MOUNTAIN_PASS. Altitude: 2380m"
  },
  "sandfeldtorl-2307": {
    "name": "Sandfeldtörl",
    "slug": "sandfeldtorl-2307",
    "category": "MOUNTAIN_PASS",
    "region": "Alps",
    "country": "",
    "lat": 46.8092685,
    "lng": 12.995571,
    "nearest_airport": "",
    "description": "Verified Location."
  },
  "sandjoch": {
    "name": "Sandjoch",
    "slug": "sandjoch",
    "category": "MOUNTAIN_PASS",
    "region": "Alps",
    "country": "Europe",
    "lat": 47.0378643,
    "lng": 10.8962564,
    "nearest_airport": "INN",
    "description": "Auto-imported MOUNTAIN_PASS. Altitude: 2820m"
  },
  "sandjoch-984": {
    "name": "Sandjoch",
    "slug": "sandjoch-984",
    "category": "MOUNTAIN_PASS",
    "region": "Alps",
    "country": "",
    "lat": 47.0378643,
    "lng": 10.8962564,
    "nearest_airport": "",
    "description": "Verified Location."
  },
  "sandjoch-forcella-di-rena": {
    "name": "Sandjoch - Forcella di Rena",
    "slug": "sandjoch-forcella-di-rena",
    "category": "MOUNTAIN_PASS",
    "region": "Alps",
    "country": "Europe",
    "lat": 46.9236989,
    "lng": 11.6061865,
    "nearest_airport": "INN",
    "description": "Auto-imported MOUNTAIN_PASS. Altitude: 2642m"
  },
  "sandjoch-forcella-di-rena-2464": {
    "name": "Sandjoch - Forcella di Rena",
    "slug": "sandjoch-forcella-di-rena-2464",
    "category": "MOUNTAIN_PASS",
    "region": "Alps",
    "country": "",
    "lat": 46.9236989,
    "lng": 11.6061865,
    "nearest_airport": "",
    "description": "Verified Location."
  },
  "sandjochl-passo-del-santicolo": {
    "name": "Sandjöchl - Passo del Santicolo",
    "slug": "sandjochl-passo-del-santicolo",
    "category": "MOUNTAIN_PASS",
    "region": "Alps",
    "country": "Europe",
    "lat": 46.9694215,
    "lng": 11.4234677,
    "nearest_airport": "INN",
    "description": "Auto-imported MOUNTAIN_PASS. Altitude: 2165m"
  },
  "sandjochl-passo-del-santicolo-1712": {
    "name": "Sandjöchl - Passo del Santicolo",
    "slug": "sandjochl-passo-del-santicolo-1712",
    "category": "MOUNTAIN_PASS",
    "region": "Alps",
    "country": "",
    "lat": 46.9694215,
    "lng": 11.4234677,
    "nearest_airport": "",
    "description": "Verified Location."
  },
  "sandkuchl": {
    "name": "Sandkuchl",
    "slug": "sandkuchl",
    "category": "SCENIC_POINT",
    "region": "Alps",
    "country": "Europe",
    "lat": 47.868109,
    "lng": 13.0363667,
    "nearest_airport": "SZG",
    "description": "Auto-imported SCENIC_POINT. Altitude: 588m"
  },
  "sandpass": {
    "name": "Sandpass",
    "slug": "sandpass",
    "category": "MOUNTAIN_PASS",
    "region": "Alps",
    "country": "Europe",
    "lat": 46.8143846,
    "lng": 8.8882881,
    "nearest_airport": "ZRH",
    "description": "Auto-imported MOUNTAIN_PASS. Altitude: N/Am"
  },
  "sanijeva-klop": {
    "name": "Šanijeva klop",
    "slug": "sanijeva-klop",
    "category": "SCENIC_POINT",
    "region": "Alps",
    "country": "Europe",
    "lat": 46.5196847,
    "lng": 15.5541056,
    "nearest_airport": "VIE",
    "description": "Auto-imported SCENIC_POINT. Altitude: N/Am"
  },
  "sankt-luzisteig": {
    "name": "Sankt Luzisteig",
    "slug": "sankt-luzisteig",
    "category": "MOUNTAIN_PASS",
    "region": "Alps",
    "country": "Europe",
    "lat": 47.0296057,
    "lng": 9.5281921,
    "nearest_airport": "ZRH",
    "description": "Auto-imported MOUNTAIN_PASS. Altitude: 713m"
  },
  "santa-giulitta": {
    "name": "Santa Giulitta",
    "slug": "santa-giulitta",
    "category": "SCENIC_POINT",
    "region": "Alps",
    "country": "Europe",
    "lat": 44.2783575,
    "lng": 8.0426614,
    "nearest_airport": "NCE",
    "description": "Auto-imported SCENIC_POINT. Altitude: N/Am"
  },
  "santa-lucia": {
    "name": "Santa Lucia",
    "slug": "santa-lucia",
    "category": "SCENIC_POINT",
    "region": "Alps",
    "country": "Europe",
    "lat": 45.7149192,
    "lng": 11.5658294,
    "nearest_airport": "VCE",
    "description": "Auto-imported SCENIC_POINT. Altitude: N/Am"
  },
  "santa-maria-maddalena-dei-piani": {
    "name": "Santa Maria Maddalena dei Piani",
    "slug": "santa-maria-maddalena-dei-piani",
    "category": "SCENIC_POINT",
    "region": "Alps",
    "country": "Europe",
    "lat": 45.5355298,
    "lng": 7.7996097,
    "nearest_airport": "TRN",
    "description": "Auto-imported SCENIC_POINT. Altitude: 1334m"
  },
  "santalessandro": {
    "name": "Sant'Alessandro",
    "slug": "santalessandro",
    "category": "SCENIC_POINT",
    "region": "Alps",
    "country": "Europe",
    "lat": 45.6644013,
    "lng": 8.504014,
    "nearest_airport": "MXP",
    "description": "Auto-imported SCENIC_POINT. Altitude: N/Am"
  },
  "santelhochi": {
    "name": "Santelhöchi",
    "slug": "santelhochi",
    "category": "MOUNTAIN_PASS",
    "region": "Alps",
    "country": "Europe",
    "lat": 47.3390064,
    "lng": 7.8051889,
    "nearest_airport": "ZRH",
    "description": "Auto-imported MOUNTAIN_PASS. Altitude: 797m"
  },
  "santenberg": {
    "name": "Santenberg",
    "slug": "santenberg",
    "category": "SCENIC_POINT",
    "region": "Alps",
    "country": "Europe",
    "lat": 47.1899453,
    "lng": 8.0272801,
    "nearest_airport": "ZRH",
    "description": "Auto-imported SCENIC_POINT. Altitude: N/Am"
  },
  "santiergen": {
    "name": "Santiergen",
    "slug": "santiergen",
    "category": "SCENIC_POINT",
    "region": "Alps",
    "country": "Europe",
    "lat": 47.7424353,
    "lng": 8.4869064,
    "nearest_airport": "ZRH",
    "description": "Auto-imported SCENIC_POINT. Altitude: N/Am"
  },
  "santis-blick": {
    "name": "Säntis-Blick",
    "slug": "santis-blick",
    "category": "SCENIC_POINT",
    "region": "Alps",
    "country": "Europe",
    "lat": 47.9864875,
    "lng": 8.8363438,
    "nearest_airport": "ZRH",
    "description": "Auto-imported SCENIC_POINT. Altitude: N/Am"
  },
  "santis-gipfel-santis-der-berg": {
    "name": "Säntis Gipfel / Säntis - der Berg",
    "slug": "santis-gipfel-santis-der-berg",
    "category": "SCENIC_POINT",
    "region": "Alps",
    "country": "Europe",
    "lat": 47.2494154,
    "lng": 9.3434798,
    "nearest_airport": "ZRH",
    "description": "Auto-imported SCENIC_POINT. Altitude: N/Am"
  },
  "santis-gipfel-santis-der-berg-3825": {
    "name": "Säntis Gipfel / Säntis - der Berg",
    "slug": "santis-gipfel-santis-der-berg-3825",
    "category": "SCENIC_POINT",
    "region": "Alps",
    "country": "",
    "lat": 47.2494154,
    "lng": 9.3434798,
    "nearest_airport": "",
    "description": "Verified Location."
  },
  "santisblick": {
    "name": "Säntisblick",
    "slug": "santisblick",
    "category": "SCENIC_POINT",
    "region": "Alps",
    "country": "Europe",
    "lat": 47.9468353,
    "lng": 8.458791,
    "nearest_airport": "ZRH",
    "description": "Auto-imported SCENIC_POINT. Altitude: N/Am"
  },
  "santner-kanzele": {
    "name": "Santner Kanzele",
    "slug": "santner-kanzele",
    "category": "SCENIC_POINT",
    "region": "Alps",
    "country": "Europe",
    "lat": 46.5212416,
    "lng": 11.5729067,
    "nearest_airport": "INN",
    "description": "Auto-imported SCENIC_POINT. Altitude: 2476m"
  },
  "saor-bicicleria-metallica": {
    "name": "Saor Bicicleria Metallica",
    "slug": "saor-bicicleria-metallica",
    "category": "SCENIC_POINT",
    "region": "Alps",
    "country": "Europe",
    "lat": 45.4230452,
    "lng": 11.5929153,
    "nearest_airport": "VCE",
    "description": "Auto-imported SCENIC_POINT. Altitude: N/Am"
  },
  "sapel-da-mur": {
    "name": "Sapel da Mur",
    "slug": "sapel-da-mur",
    "category": "MOUNTAIN_PASS",
    "region": "Alps",
    "country": "Europe",
    "lat": 45.392544,
    "lng": 8.0605706,
    "nearest_airport": "TRN",
    "description": "Auto-imported MOUNTAIN_PASS. Altitude: 294m"
  },
  "sapotnikofen": {
    "name": "Sapotnikofen",
    "slug": "sapotnikofen",
    "category": "SCENIC_POINT",
    "region": "Alps",
    "country": "Europe",
    "lat": 46.7493986,
    "lng": 14.6338216,
    "nearest_airport": "SZG",
    "description": "Auto-imported SCENIC_POINT. Altitude: 1414m"
  },
  "sarlriedl-passo-serla": {
    "name": "Sarlriedl - Passo Serla",
    "slug": "sarlriedl-passo-serla",
    "category": "MOUNTAIN_PASS",
    "region": "Alps",
    "country": "Europe",
    "lat": 46.6870749,
    "lng": 12.1847746,
    "nearest_airport": "INN",
    "description": "Auto-imported MOUNTAIN_PASS. Altitude: 2099m"
  },
  "sarlriedl-passo-serla-851": {
    "name": "Sarlriedl - Passo Serla",
    "slug": "sarlriedl-passo-serla-851",
    "category": "MOUNTAIN_PASS",
    "region": "Alps",
    "country": "",
    "lat": 46.6870749,
    "lng": 12.1847746,
    "nearest_airport": "",
    "description": "Verified Location."
  },
  "sarlsattel-forcella-serla": {
    "name": "Sarlsattel - Forcella Serla",
    "slug": "sarlsattel-forcella-serla",
    "category": "MOUNTAIN_PASS",
    "region": "Alps",
    "country": "Europe",
    "lat": 46.7013721,
    "lng": 12.1860556,
    "nearest_airport": "INN",
    "description": "Auto-imported MOUNTAIN_PASS. Altitude: 2229m"
  },
  "sarlsattel-forcella-serla-850": {
    "name": "Sarlsattel - Forcella Serla",
    "slug": "sarlsattel-forcella-serla-850",
    "category": "MOUNTAIN_PASS",
    "region": "Alps",
    "country": "",
    "lat": 46.7013721,
    "lng": 12.1860556,
    "nearest_airport": "",
    "description": "Verified Location."
  },
  "sarotla-pass": {
    "name": "Sarotla-Pass",
    "slug": "sarotla-pass",
    "category": "MOUNTAIN_PASS",
    "region": "Alps",
    "country": "Europe",
    "lat": 46.9966314,
    "lng": 9.8895438,
    "nearest_airport": "ZRH",
    "description": "Auto-imported MOUNTAIN_PASS. Altitude: 2389m"
  },
  "sarotla-pass-3661": {
    "name": "Sarotla-Pass",
    "slug": "sarotla-pass-3661",
    "category": "MOUNTAIN_PASS",
    "region": "Alps",
    "country": "",
    "lat": 46.9966314,
    "lng": 9.8895438,
    "nearest_airport": "",
    "description": "Verified Location."
  },
  "sas-de-la-rondula": {
    "name": "Sas de la Rondula",
    "slug": "sas-de-la-rondula",
    "category": "SCENIC_POINT",
    "region": "Alps",
    "country": "Europe",
    "lat": 45.9718572,
    "lng": 8.7601994,
    "nearest_airport": "MXP",
    "description": "Auto-imported SCENIC_POINT. Altitude: 445m"
  },
  "saskina-klopca": {
    "name": "Saškina klopca",
    "slug": "saskina-klopca",
    "category": "SCENIC_POINT",
    "region": "Alps",
    "country": "Europe",
    "lat": 46.3443555,
    "lng": 14.3604389,
    "nearest_airport": "VCE",
    "description": "Auto-imported SCENIC_POINT. Altitude: N/Am"
  },
  "sass-de-rocia": {
    "name": "Sass de Ròcia",
    "slug": "sass-de-rocia",
    "category": "SCENIC_POINT",
    "region": "Alps",
    "country": "Europe",
    "lat": 46.4501377,
    "lng": 11.9743703,
    "nearest_airport": "INN",
    "description": "Auto-imported SCENIC_POINT. Altitude: N/Am"
  },
  "sass-de-soliroo": {
    "name": "Sass de Soliroo",
    "slug": "sass-de-soliroo",
    "category": "SCENIC_POINT",
    "region": "Alps",
    "country": "Europe",
    "lat": 45.922216,
    "lng": 8.6278585,
    "nearest_airport": "MXP",
    "description": "Auto-imported SCENIC_POINT. Altitude: N/Am"
  },
  "sass-guzz": {
    "name": "Sass Güzz",
    "slug": "sass-guzz",
    "category": "SCENIC_POINT",
    "region": "Alps",
    "country": "Europe",
    "lat": 46.1890021,
    "lng": 8.7474454,
    "nearest_airport": "MXP",
    "description": "Auto-imported SCENIC_POINT. Altitude: N/Am"
  },
  "sasso-dea-poia": {
    "name": "Sasso dea Poia",
    "slug": "sasso-dea-poia",
    "category": "SCENIC_POINT",
    "region": "Alps",
    "country": "Europe",
    "lat": 45.7524951,
    "lng": 11.4075383,
    "nearest_airport": "VCE",
    "description": "Auto-imported SCENIC_POINT. Altitude: N/Am"
  },
  "sasso-del-corvo": {
    "name": "Sasso del Corvo",
    "slug": "sasso-del-corvo",
    "category": "SCENIC_POINT",
    "region": "Alps",
    "country": "Europe",
    "lat": 44.246062,
    "lng": 11.0174058,
    "nearest_airport": "VCE",
    "description": "Auto-imported SCENIC_POINT. Altitude: N/Am"
  },
  "sasso-del-diavolo-pietramarina": {
    "name": "Sasso Del Diavolo (Pietramarina)",
    "slug": "sasso-del-diavolo-pietramarina",
    "category": "SCENIC_POINT",
    "region": "Alps",
    "country": "Europe",
    "lat": 43.7919675,
    "lng": 10.9792802,
    "nearest_airport": "VCE",
    "description": "Auto-imported SCENIC_POINT. Altitude: N/Am"
  },
  "sasso-della-croce": {
    "name": "Sasso della Croce",
    "slug": "sasso-della-croce",
    "category": "SCENIC_POINT",
    "region": "Alps",
    "country": "Europe",
    "lat": 44.3874976,
    "lng": 10.9483723,
    "nearest_airport": "VCE",
    "description": "Auto-imported SCENIC_POINT. Altitude: 567m"
  },
  "sasso-della-mano": {
    "name": "sasso della mano",
    "slug": "sasso-della-mano",
    "category": "SCENIC_POINT",
    "region": "Alps",
    "country": "Europe",
    "lat": 46.0414512,
    "lng": 9.0774069,
    "nearest_airport": "MXP",
    "description": "Auto-imported SCENIC_POINT. Altitude: 1245m"
  },
  "sasso-della-predescia": {
    "name": "sasso della predescia",
    "slug": "sasso-della-predescia",
    "category": "SCENIC_POINT",
    "region": "Alps",
    "country": "Europe",
    "lat": 46.0132929,
    "lng": 9.0108079,
    "nearest_airport": "MXP",
    "description": "Auto-imported SCENIC_POINT. Altitude: N/Am"
  },
  "sasso-delle-parole": {
    "name": "Sasso delle Parole",
    "slug": "sasso-delle-parole",
    "category": "SCENIC_POINT",
    "region": "Alps",
    "country": "Europe",
    "lat": 45.9569019,
    "lng": 8.9067432,
    "nearest_airport": "MXP",
    "description": "Auto-imported SCENIC_POINT. Altitude: N/Am"
  },
  "sasso-di-dascio": {
    "name": "Sasso di Dascio",
    "slug": "sasso-di-dascio",
    "category": "SCENIC_POINT",
    "region": "Alps",
    "country": "Europe",
    "lat": 46.1904804,
    "lng": 9.4215318,
    "nearest_airport": "MXP",
    "description": "Auto-imported SCENIC_POINT. Altitude: 280m"
  },
  "sasso-di-dascio-327": {
    "name": "Sasso di Dascio",
    "slug": "sasso-di-dascio-327",
    "category": "SCENIC_POINT",
    "region": "Alps",
    "country": "",
    "lat": 46.1904804,
    "lng": 9.4215318,
    "nearest_airport": "",
    "description": "Verified Location."
  },
  "sasso-di-narele": {
    "name": "Sasso di Narele",
    "slug": "sasso-di-narele",
    "category": "SCENIC_POINT",
    "region": "Alps",
    "country": "Europe",
    "lat": 46.005151,
    "lng": 9.3210388,
    "nearest_airport": "MXP",
    "description": "Auto-imported SCENIC_POINT. Altitude: N/Am"
  },
  "sasso-di-santandrea": {
    "name": "Sasso di Sant'Andrea",
    "slug": "sasso-di-santandrea",
    "category": "SCENIC_POINT",
    "region": "Alps",
    "country": "Europe",
    "lat": 44.3796768,
    "lng": 10.9885652,
    "nearest_airport": "VCE",
    "description": "Auto-imported SCENIC_POINT. Altitude: N/Am"
  },
  "sasso-mezzano": {
    "name": "Sasso Mezzano",
    "slug": "sasso-mezzano",
    "category": "SCENIC_POINT",
    "region": "Alps",
    "country": "Europe",
    "lat": 45.980997,
    "lng": 8.6168195,
    "nearest_airport": "MXP",
    "description": "Auto-imported SCENIC_POINT. Altitude: N/Am"
  },
  "sasso-paradiso": {
    "name": "Sasso Paradiso",
    "slug": "sasso-paradiso",
    "category": "SCENIC_POINT",
    "region": "Alps",
    "country": "Europe",
    "lat": 45.9351267,
    "lng": 8.8780089,
    "nearest_airport": "MXP",
    "description": "sasso sormontabile, punto panoramico. Sul sasso è presenti un pulpito con crocino trigonometrico e pilastrino, facente parte delle opere della Frontiera Nord."
  },
  "sasso-rosso": {
    "name": "Sasso Rosso",
    "slug": "sasso-rosso",
    "category": "SCENIC_POINT",
    "region": "Alps",
    "country": "Europe",
    "lat": 46.0315527,
    "lng": 9.307504,
    "nearest_airport": "MXP",
    "description": "Auto-imported SCENIC_POINT. Altitude: 676m"
  },
  "sasso-rosso-del-bronzone": {
    "name": "Sasso Rosso del Bronzone",
    "slug": "sasso-rosso-del-bronzone",
    "category": "SCENIC_POINT",
    "region": "Alps",
    "country": "Europe",
    "lat": 46.0394864,
    "lng": 9.0843079,
    "nearest_airport": "MXP",
    "description": "Auto-imported SCENIC_POINT. Altitude: 1304m"
  },
  "sassoni": {
    "name": "Sassoni",
    "slug": "sassoni",
    "category": "SCENIC_POINT",
    "region": "Alps",
    "country": "Europe",
    "lat": 43.7909541,
    "lng": 12.0670384,
    "nearest_airport": "VCE",
    "description": "Auto-imported SCENIC_POINT. Altitude: N/Am"
  },
  "sasspass": {
    "name": "Sasspass",
    "slug": "sasspass",
    "category": "MOUNTAIN_PASS",
    "region": "Alps",
    "country": "Europe",
    "lat": 46.7745642,
    "lng": 8.5746716,
    "nearest_airport": "ZRH",
    "description": "Auto-imported MOUNTAIN_PASS. Altitude: 2668m"
  },
  "sasspass-3313": {
    "name": "Sasspass",
    "slug": "sasspass-3313",
    "category": "MOUNTAIN_PASS",
    "region": "Alps",
    "country": "",
    "lat": 46.7745642,
    "lng": 8.5746716,
    "nearest_airport": "",
    "description": "Verified Location."
  },
  "sattel": {
    "name": "Sattel",
    "slug": "sattel",
    "category": "MOUNTAIN_PASS",
    "region": "Alps",
    "country": "Europe",
    "lat": 47.4828783,
    "lng": 11.2374181,
    "nearest_airport": "INN",
    "description": "Auto-imported MOUNTAIN_PASS. Altitude: 938m"
  },
  "sattel-der-notand": {
    "name": "Sattel der Notänd",
    "slug": "sattel-der-notand",
    "category": "MOUNTAIN_PASS",
    "region": "Alps",
    "country": "Europe",
    "lat": 47.4137557,
    "lng": 10.4435961,
    "nearest_airport": "INN",
    "description": "Auto-imported MOUNTAIN_PASS. Altitude: 1841m"
  },
  "sattele": {
    "name": "Sättele",
    "slug": "sattele",
    "category": "MOUNTAIN_PASS",
    "region": "Alps",
    "country": "Europe",
    "lat": 47.3754937,
    "lng": 9.9147861,
    "nearest_airport": "ZRH",
    "description": "Auto-imported MOUNTAIN_PASS. Altitude: 845m"
  },
  "sattele-3032": {
    "name": "Sattele",
    "slug": "sattele-3032",
    "category": "MOUNTAIN_PASS",
    "region": "Alps",
    "country": "",
    "lat": 47.274097,
    "lng": 10.5687558,
    "nearest_airport": "",
    "description": "Verified Location."
  },
  "sattele-joch": {
    "name": "Sättele Joch",
    "slug": "sattele-joch",
    "category": "MOUNTAIN_PASS",
    "region": "Alps",
    "country": "Europe",
    "lat": 47.397285,
    "lng": 10.818294,
    "nearest_airport": "INN",
    "description": "Auto-imported MOUNTAIN_PASS. Altitude: N/Am"
  },
  "sattelegg": {
    "name": "Sattelegg",
    "slug": "sattelegg",
    "category": "MOUNTAIN_PASS",
    "region": "Alps",
    "country": "Europe",
    "lat": 47.1273339,
    "lng": 8.8468234,
    "nearest_airport": "ZRH",
    "description": "Auto-imported MOUNTAIN_PASS. Altitude: 1190m"
  },
  "sattelegg-3684": {
    "name": "Sattelegg",
    "slug": "sattelegg-3684",
    "category": "MOUNTAIN_PASS",
    "region": "Alps",
    "country": "",
    "lat": 47.1273339,
    "lng": 8.8468234,
    "nearest_airport": "",
    "description": "Verified Location."
  },
  "satteli": {
    "name": "Sätteli",
    "slug": "satteli",
    "category": "SCENIC_POINT",
    "region": "Alps",
    "country": "Europe",
    "lat": 46.6691106,
    "lng": 7.8518313,
    "nearest_airport": "ZRH",
    "description": "Auto-imported SCENIC_POINT. Altitude: N/Am"
  },
  "satteli-2116": {
    "name": "Sätteli 2116",
    "slug": "satteli-2116",
    "category": "MOUNTAIN_PASS",
    "region": "Alps",
    "country": "Europe",
    "lat": 46.739945,
    "lng": 8.3141425,
    "nearest_airport": "ZRH",
    "description": "Auto-imported MOUNTAIN_PASS. Altitude: 2116m"
  },
  "satteli-2116-2073": {
    "name": "Sätteli 2116",
    "slug": "satteli-2116-2073",
    "category": "MOUNTAIN_PASS",
    "region": "Alps",
    "country": "",
    "lat": 46.739945,
    "lng": 8.3141425,
    "nearest_airport": "",
    "description": "Verified Location."
  },
  "sattelteuffi": {
    "name": "Sattelteuffi",
    "slug": "sattelteuffi",
    "category": "MOUNTAIN_PASS",
    "region": "Alps",
    "country": "Europe",
    "lat": 46.8122463,
    "lng": 7.8128658,
    "nearest_airport": "ZRH",
    "description": "Auto-imported MOUNTAIN_PASS. Altitude: 1192m"
  },
  "sattlechnubel": {
    "name": "Sättlechnubel",
    "slug": "sattlechnubel",
    "category": "SCENIC_POINT",
    "region": "Alps",
    "country": "Europe",
    "lat": 46.3233983,
    "lng": 7.914727,
    "nearest_airport": "MXP",
    "description": "Auto-imported SCENIC_POINT. Altitude: N/Am"
  },
  "sattlegi": {
    "name": "Sattlegi",
    "slug": "sattlegi",
    "category": "MOUNTAIN_PASS",
    "region": "Alps",
    "country": "Europe",
    "lat": 46.4159082,
    "lng": 7.7451629,
    "nearest_airport": "MXP",
    "description": "Auto-imported MOUNTAIN_PASS. Altitude: 2565m"
  },
  "sattlegi-1625": {
    "name": "Sattlegi",
    "slug": "sattlegi-1625",
    "category": "MOUNTAIN_PASS",
    "region": "Alps",
    "country": "",
    "lat": 46.4159082,
    "lng": 7.7451629,
    "nearest_airport": "",
    "description": "Verified Location."
  },
  "sauerbleis": {
    "name": "Sauerbleis",
    "slug": "sauerbleis",
    "category": "SCENIC_POINT",
    "region": "Alps",
    "country": "Europe",
    "lat": 47.077181,
    "lng": 9.9771332,
    "nearest_airport": "INN",
    "description": "Auto-imported SCENIC_POINT. Altitude: 1980m"
  },
  "saukarfunktel": {
    "name": "Saukarfunktel",
    "slug": "saukarfunktel",
    "category": "SCENIC_POINT",
    "region": "Alps",
    "country": "Europe",
    "lat": 47.3099041,
    "lng": 13.3473636,
    "nearest_airport": "SZG",
    "description": "Auto-imported SCENIC_POINT. Altitude: 2024m"
  },
  "saulajoch": {
    "name": "Saulajoch",
    "slug": "saulajoch",
    "category": "MOUNTAIN_PASS",
    "region": "Alps",
    "country": "Europe",
    "lat": 47.0726417,
    "lng": 9.7635942,
    "nearest_airport": "ZRH",
    "description": "Auto-imported MOUNTAIN_PASS. Altitude: 2065m"
  },
  "saulajoch-892": {
    "name": "Saulajoch",
    "slug": "saulajoch-892",
    "category": "MOUNTAIN_PASS",
    "region": "Alps",
    "country": "",
    "lat": 47.0726417,
    "lng": 9.7635942,
    "nearest_airport": "",
    "description": "Verified Location."
  },
  "saule": {
    "name": "Šaule",
    "slug": "saule",
    "category": "SCENIC_POINT",
    "region": "Alps",
    "country": "Europe",
    "lat": 45.3513935,
    "lng": 15.584306,
    "nearest_airport": "VCE",
    "description": "Auto-imported SCENIC_POINT. Altitude: N/Am"
  },
  "sausenburg": {
    "name": "Sausenburg",
    "slug": "sausenburg",
    "category": "SCENIC_POINT",
    "region": "Alps",
    "country": "Europe",
    "lat": 47.7380871,
    "lng": 7.6892089,
    "nearest_airport": "ZRH",
    "description": "Auto-imported SCENIC_POINT. Altitude: N/Am"
  },
  "sausteigpass": {
    "name": "Sausteigpass",
    "slug": "sausteigpass",
    "category": "MOUNTAIN_PASS",
    "region": "Alps",
    "country": "Europe",
    "lat": 47.4415065,
    "lng": 10.0126695,
    "nearest_airport": "INN",
    "description": "Auto-imported MOUNTAIN_PASS. Altitude: 1047m"
  },
  "saut-a-lelastique": {
    "name": "Saut à l'élastique",
    "slug": "saut-a-lelastique",
    "category": "SCENIC_POINT",
    "region": "Alps",
    "country": "Europe",
    "lat": 44.8811378,
    "lng": 5.7937217,
    "nearest_airport": "TRN",
    "description": "Auto-imported SCENIC_POINT. Altitude: N/Am"
  },
  "saut-a-ski": {
    "name": "Saut à ski",
    "slug": "saut-a-ski",
    "category": "SCENIC_POINT",
    "region": "Alps",
    "country": "Europe",
    "lat": 46.0491844,
    "lng": 5.8097345,
    "nearest_airport": "GVA",
    "description": "Auto-imported SCENIC_POINT. Altitude: N/Am"
  },
  "saut-de-gamache": {
    "name": "Saut de Gamache",
    "slug": "saut-de-gamache",
    "category": "SCENIC_POINT",
    "region": "Alps",
    "country": "Europe",
    "lat": 47.3435756,
    "lng": 6.320074,
    "nearest_airport": "GVA",
    "description": "Auto-imported SCENIC_POINT. Altitude: N/Am"
  },
  "saut-de-la-pucelle": {
    "name": "Saut de la Pucelle",
    "slug": "saut-de-la-pucelle",
    "category": "SCENIC_POINT",
    "region": "Alps",
    "country": "Europe",
    "lat": 46.2243855,
    "lng": 6.3530813,
    "nearest_airport": "GVA",
    "description": "Auto-imported SCENIC_POINT. Altitude: N/Am"
  },
  "sautodoz": {
    "name": "Sautodoz",
    "slug": "sautodoz",
    "category": "SCENIC_POINT",
    "region": "Alps",
    "country": "Europe",
    "lat": 46.4284807,
    "lng": 6.9719731,
    "nearest_airport": "GVA",
    "description": "Auto-imported SCENIC_POINT. Altitude: N/Am"
  },
  "sava-rapids": {
    "name": "Sava Rapids",
    "slug": "sava-rapids",
    "category": "SCENIC_POINT",
    "region": "Alps",
    "country": "Europe",
    "lat": 45.8967058,
    "lng": 15.61774,
    "nearest_airport": "VIE",
    "description": "Auto-imported SCENIC_POINT. Altitude: N/Am"
  },
  "savica": {
    "name": "Savica",
    "slug": "savica",
    "category": "SCENIC_POINT",
    "region": "Alps",
    "country": "Europe",
    "lat": 46.2926287,
    "lng": 13.7974614,
    "nearest_airport": "VCE",
    "description": "Auto-imported SCENIC_POINT. Altitude: N/Am"
  },
  "savinka-kucelj": {
    "name": "Savinka / Kucelj",
    "slug": "savinka-kucelj",
    "category": "SCENIC_POINT",
    "region": "Alps",
    "country": "Europe",
    "lat": 46.0681631,
    "lng": 14.3335083,
    "nearest_airport": "VCE",
    "description": "Auto-imported SCENIC_POINT. Altitude: 696m"
  }
}