{
  "soboth": {
    "name": "Soboth",
    "slug": "soboth",
    "category": "MOUNTAIN_PASS",
    "region": "Alps",
    "country": "Europe",
    "lat": 46.668346,
    "lng": 15.0099843,
    "nearest_airport": "SZG",
    "description": "Auto-imported MOUNTAIN_PASS. Altitude: 1347m"
  },
  "soboth-994": {
    "name": "Soboth",
    "slug": "soboth-994",
    "category": "MOUNTAIN_PASS",
    "region": "Alps",
    "country": "",
    "lat": 46.668346,
    "lng": 15.0099843,
    "nearest_airport": "",
    "description": "Verified Location."
  },
  "sobothblick": {
    "name": "Sobothblick",
    "slug": "sobothblick",
    "category": "SCENIC_POINT",
    "region": "Alps",
    "country": "Europe",
    "lat": 46.6707166,
    "lng": 15.0500759,
    "nearest_airport": "VIE",
    "description": "Auto-imported SCENIC_POINT. Altitude: N/Am"
  },
  "soca-koritnica": {
    "name": "Soča-Koritnica",
    "slug": "soca-koritnica",
    "category": "SCENIC_POINT",
    "region": "Alps",
    "country": "Europe",
    "lat": 46.3303707,
    "lng": 13.5756347,
    "nearest_airport": "VCE",
    "description": "Auto-imported SCENIC_POINT. Altitude: N/Am"
  },
  "soerger-wasserfall": {
    "name": "Soerger Wasserfall",
    "slug": "soerger-wasserfall",
    "category": "SCENIC_POINT",
    "region": "Alps",
    "country": "Europe",
    "lat": 46.770459,
    "lng": 14.2645214,
    "nearest_airport": "SZG",
    "description": "Auto-imported SCENIC_POINT. Altitude: N/Am"
  },
  "sojo-della-croce": {
    "name": "Sojo della Croce",
    "slug": "sojo-della-croce",
    "category": "SCENIC_POINT",
    "region": "Alps",
    "country": "Europe",
    "lat": 45.7488052,
    "lng": 11.1896799,
    "nearest_airport": "VCE",
    "description": "Auto-imported SCENIC_POINT. Altitude: 1360m"
  },
  "soldatendenkmal": {
    "name": "Soldatendenkmal",
    "slug": "soldatendenkmal",
    "category": "SCENIC_POINT",
    "region": "Alps",
    "country": "Europe",
    "lat": 47.1179375,
    "lng": 7.8496179,
    "nearest_airport": "ZRH",
    "description": "Auto-imported SCENIC_POINT. Altitude: N/Am"
  },
  "soldenkogel-gipfelkreuz": {
    "name": "Söldenkogel - Gipfelkreuz",
    "slug": "soldenkogel-gipfelkreuz",
    "category": "SCENIC_POINT",
    "region": "Alps",
    "country": "Europe",
    "lat": 46.9776265,
    "lng": 11.0381268,
    "nearest_airport": "INN",
    "description": "Auto-imported SCENIC_POINT. Altitude: 2874m"
  },
  "sole": {
    "name": "Söle",
    "slug": "sole",
    "category": "SCENIC_POINT",
    "region": "Alps",
    "country": "Europe",
    "lat": 47.3424427,
    "lng": 9.6647078,
    "nearest_airport": "ZRH",
    "description": "Auto-imported SCENIC_POINT. Altitude: N/Am"
  },
  "solitude": {
    "name": "Solitüde",
    "slug": "solitude",
    "category": "SCENIC_POINT",
    "region": "Alps",
    "country": "Europe",
    "lat": 47.4082446,
    "lng": 9.357127,
    "nearest_airport": "ZRH",
    "description": "View of the Alpstein massif"
  },
  "solkpass": {
    "name": "Sölkpass",
    "slug": "solkpass",
    "category": "MOUNTAIN_PASS",
    "region": "Alps",
    "country": "Europe",
    "lat": 47.2716898,
    "lng": 14.0796747,
    "nearest_airport": "SZG",
    "description": "Auto-imported MOUNTAIN_PASS. Altitude: 1790m"
  },
  "solkpass-89": {
    "name": "Sölkpass",
    "slug": "solkpass-89",
    "category": "MOUNTAIN_PASS",
    "region": "Alps",
    "country": "",
    "lat": 47.2716898,
    "lng": 14.0796747,
    "nearest_airport": "",
    "description": "Verified Location."
  },
  "sollerpass": {
    "name": "Söllerpass",
    "slug": "sollerpass",
    "category": "MOUNTAIN_PASS",
    "region": "Alps",
    "country": "Europe",
    "lat": 47.4024619,
    "lng": 11.139425,
    "nearest_airport": "INN",
    "description": "Auto-imported MOUNTAIN_PASS. Altitude: 2259m"
  },
  "sollerpass-2922": {
    "name": "Söllerpass",
    "slug": "sollerpass-2922",
    "category": "MOUNTAIN_PASS",
    "region": "Alps",
    "country": "",
    "lat": 47.4024619,
    "lng": 11.139425,
    "nearest_airport": "",
    "description": "Verified Location."
  },
  "sommeralm": {
    "name": "Sommeralm",
    "slug": "sommeralm",
    "category": "MOUNTAIN_PASS",
    "region": "Alps",
    "country": "Europe",
    "lat": 47.3452479,
    "lng": 15.5523978,
    "nearest_airport": "VIE",
    "description": "Auto-imported MOUNTAIN_PASS. Altitude: 1400m"
  },
  "sommeraustein": {
    "name": "Sommeraustein",
    "slug": "sommeraustein",
    "category": "SCENIC_POINT",
    "region": "Alps",
    "country": "Europe",
    "lat": 47.7491442,
    "lng": 13.4762955,
    "nearest_airport": "SZG",
    "description": "Auto-imported SCENIC_POINT. Altitude: N/Am"
  },
  "sommerbergjochle": {
    "name": "Sommerbergjöchle",
    "slug": "sommerbergjochle",
    "category": "MOUNTAIN_PASS",
    "region": "Alps",
    "country": "Europe",
    "lat": 47.3919977,
    "lng": 10.8166485,
    "nearest_airport": "INN",
    "description": "Auto-imported MOUNTAIN_PASS. Altitude: 2001m"
  },
  "sommerbergjochle-3542": {
    "name": "Sommerbergjöchle",
    "slug": "sommerbergjochle-3542",
    "category": "MOUNTAIN_PASS",
    "region": "Alps",
    "country": "",
    "lat": 47.3919977,
    "lng": 10.8166485,
    "nearest_airport": "",
    "description": "Verified Location."
  },
  "sommerthorl": {
    "name": "Sommerthörl",
    "slug": "sommerthorl",
    "category": "MOUNTAIN_PASS",
    "region": "Alps",
    "country": "Europe",
    "lat": 47.2876926,
    "lng": 14.549915,
    "nearest_airport": "SZG",
    "description": "Auto-imported MOUNTAIN_PASS. Altitude: 1644m"
  },
  "sommerthorl-1777": {
    "name": "Sommerthörl",
    "slug": "sommerthorl-1777",
    "category": "MOUNTAIN_PASS",
    "region": "Alps",
    "country": "",
    "lat": 47.2876926,
    "lng": 14.549915,
    "nearest_airport": "",
    "description": "Verified Location."
  },
  "sommet": {
    "name": "Sommet",
    "slug": "sommet",
    "category": "SCENIC_POINT",
    "region": "Alps",
    "country": "Europe",
    "lat": 47.2558534,
    "lng": 7.3372673,
    "nearest_airport": "ZRH",
    "description": "Auto-imported SCENIC_POINT. Altitude: N/Am"
  },
  "sommet-de-belue": {
    "name": "Sommet de Bélué",
    "slug": "sommet-de-belue",
    "category": "SCENIC_POINT",
    "region": "Alps",
    "country": "Europe",
    "lat": 47.9224012,
    "lng": 6.68565,
    "nearest_airport": "ZRH",
    "description": "Auto-imported SCENIC_POINT. Altitude: N/Am"
  },
  "sommet-de-chateau-jouan": {
    "name": "Sommet de Château Jouan",
    "slug": "sommet-de-chateau-jouan",
    "category": "SCENIC_POINT",
    "region": "Alps",
    "country": "Europe",
    "lat": 44.9096661,
    "lng": 6.7084781,
    "nearest_airport": "TRN",
    "description": "Auto-imported SCENIC_POINT. Altitude: 2565m"
  },
  "sommet-de-dormillouse": {
    "name": "Sommet de Dormillouse",
    "slug": "sommet-de-dormillouse",
    "category": "SCENIC_POINT",
    "region": "Alps",
    "country": "Europe",
    "lat": 44.4095008,
    "lng": 6.3864868,
    "nearest_airport": "NCE",
    "description": "Auto-imported SCENIC_POINT. Altitude: 2510m"
  },
  "sommet-de-gache": {
    "name": "Sommet de Gache",
    "slug": "sommet-de-gache",
    "category": "SCENIC_POINT",
    "region": "Alps",
    "country": "Europe",
    "lat": 44.2339119,
    "lng": 5.9876849,
    "nearest_airport": "NCE",
    "description": "Auto-imported SCENIC_POINT. Altitude: 1357m"
  },
  "sommet-de-la-cascade-du-dard": {
    "name": "Sommet de la Cascade du Dard",
    "slug": "sommet-de-la-cascade-du-dard",
    "category": "SCENIC_POINT",
    "region": "Alps",
    "country": "Europe",
    "lat": 46.6868111,
    "lng": 6.4796447,
    "nearest_airport": "GVA",
    "description": "Auto-imported SCENIC_POINT. Altitude: N/Am"
  },
  "sommet-de-la-platte": {
    "name": "Sommet de la Platte",
    "slug": "sommet-de-la-platte",
    "category": "SCENIC_POINT",
    "region": "Alps",
    "country": "Europe",
    "lat": 44.2361764,
    "lng": 5.7911234,
    "nearest_airport": "NCE",
    "description": "Auto-imported SCENIC_POINT. Altitude: 1483m"
  },
  "sommet-de-lardeve": {
    "name": "Sommet de l'Ardève",
    "slug": "sommet-de-lardeve",
    "category": "SCENIC_POINT",
    "region": "Alps",
    "country": "Europe",
    "lat": 46.1972234,
    "lng": 7.1994485,
    "nearest_airport": "GVA",
    "description": "Auto-imported SCENIC_POINT. Altitude: 1507m"
  },
  "sommet-de-tigne": {
    "name": "Sommet de Tigne",
    "slug": "sommet-de-tigne",
    "category": "SCENIC_POINT",
    "region": "Alps",
    "country": "Europe",
    "lat": 44.1230426,
    "lng": 6.0221914,
    "nearest_airport": "NCE",
    "description": "Auto-imported SCENIC_POINT. Altitude: N/Am"
  },
  "sommet-des-salles": {
    "name": "Sommet des Salles",
    "slug": "sommet-des-salles",
    "category": "SCENIC_POINT",
    "region": "Alps",
    "country": "Europe",
    "lat": 45.8789984,
    "lng": 6.5881623,
    "nearest_airport": "GVA",
    "description": "Auto-imported SCENIC_POINT. Altitude: N/Am"
  },
  "sommet-du-chastillon": {
    "name": "Sommet du Chastillon",
    "slug": "sommet-du-chastillon",
    "category": "SCENIC_POINT",
    "region": "Alps",
    "country": "Europe",
    "lat": 43.7340987,
    "lng": 6.4076558,
    "nearest_airport": "NCE",
    "description": "Auto-imported SCENIC_POINT. Altitude: 1199m"
  },
  "sommet-du-couar": {
    "name": "Sommet du Couar",
    "slug": "sommet-du-couar",
    "category": "SCENIC_POINT",
    "region": "Alps",
    "country": "Europe",
    "lat": 44.100704,
    "lng": 6.3499399,
    "nearest_airport": "NCE",
    "description": "Auto-imported SCENIC_POINT. Altitude: 1988m"
  },
  "sommet-du-galgen": {
    "name": "Sommet du Galgen",
    "slug": "sommet-du-galgen",
    "category": "SCENIC_POINT",
    "region": "Alps",
    "country": "Europe",
    "lat": 47.667983,
    "lng": 7.3206939,
    "nearest_airport": "ZRH",
    "description": "Auto-imported SCENIC_POINT. Altitude: N/Am"
  },
  "sommet-du-mont-jovet": {
    "name": "Sommet du Mont Jovet",
    "slug": "sommet-du-mont-jovet",
    "category": "SCENIC_POINT",
    "region": "Alps",
    "country": "Europe",
    "lat": 45.4947416,
    "lng": 6.6392604,
    "nearest_airport": "TRN",
    "description": "Auto-imported SCENIC_POINT. Altitude: N/Am"
  },
  "sommet-du-santin-serre-orel": {
    "name": "Sommet du Santin - Serre Orel",
    "slug": "sommet-du-santin-serre-orel",
    "category": "SCENIC_POINT",
    "region": "Alps",
    "country": "Europe",
    "lat": 45.0316689,
    "lng": 6.4062976,
    "nearest_airport": "TRN",
    "description": "Auto-imported SCENIC_POINT. Altitude: 2137m"
  },
  "sonklarscharte-forcella-di-malavalle": {
    "name": "Sonklarscharte - Forcella di Malavalle",
    "slug": "sonklarscharte-forcella-di-malavalle",
    "category": "MOUNTAIN_PASS",
    "region": "Alps",
    "country": "Europe",
    "lat": 46.9598901,
    "lng": 11.1639301,
    "nearest_airport": "INN",
    "description": "Auto-imported MOUNTAIN_PASS. Altitude: 3298m"
  },
  "sonklarscharte-forcella-di-malavalle-3260": {
    "name": "Sonklarscharte - Forcella di Malavalle",
    "slug": "sonklarscharte-forcella-di-malavalle-3260",
    "category": "MOUNTAIN_PASS",
    "region": "Alps",
    "country": "",
    "lat": 46.9598901,
    "lng": 11.1639301,
    "nearest_airport": "",
    "description": "Verified Location."
  },
  "sonnberg": {
    "name": "Sonnberg",
    "slug": "sonnberg",
    "category": "SCENIC_POINT",
    "region": "Alps",
    "country": "Europe",
    "lat": 47.9655798,
    "lng": 14.4552371,
    "nearest_airport": "SZG",
    "description": "Auto-imported SCENIC_POINT. Altitude: N/Am"
  },
  "sonne-und-mond": {
    "name": "Sonne und Mond",
    "slug": "sonne-und-mond",
    "category": "SCENIC_POINT",
    "region": "Alps",
    "country": "Europe",
    "lat": 46.783989,
    "lng": 15.9522306,
    "nearest_airport": "VIE",
    "description": "Auto-imported SCENIC_POINT. Altitude: N/Am"
  },
  "sonnenberg": {
    "name": "Sonnenberg",
    "slug": "sonnenberg",
    "category": "SCENIC_POINT",
    "region": "Alps",
    "country": "Europe",
    "lat": 47.0428114,
    "lng": 8.2648822,
    "nearest_airport": "ZRH",
    "description": "view on Pilatus"
  },
  "sonnenbergwarte": {
    "name": "Sonnenbergwarte",
    "slug": "sonnenbergwarte",
    "category": "SCENIC_POINT",
    "region": "Alps",
    "country": "Europe",
    "lat": 47.8761533,
    "lng": 16.4745731,
    "nearest_airport": "VIE",
    "description": "Auto-imported SCENIC_POINT. Altitude: N/Am"
  },
  "sonnenkopf": {
    "name": "Sonnenkopf",
    "slug": "sonnenkopf",
    "category": "SCENIC_POINT",
    "region": "Alps",
    "country": "Europe",
    "lat": 46.9786099,
    "lng": 10.2023667,
    "nearest_airport": "INN",
    "description": "Auto-imported SCENIC_POINT. Altitude: N/Am"
  },
  "sonnenuhr": {
    "name": "Sonnenuhr",
    "slug": "sonnenuhr",
    "category": "SCENIC_POINT",
    "region": "Alps",
    "country": "Europe",
    "lat": 47.4931667,
    "lng": 11.1295947,
    "nearest_airport": "INN",
    "description": "Auto-imported SCENIC_POINT. Altitude: N/Am"
  },
  "sonnenuntergang": {
    "name": "Sonnenuntergang",
    "slug": "sonnenuntergang",
    "category": "SCENIC_POINT",
    "region": "Alps",
    "country": "Europe",
    "lat": 47.6661268,
    "lng": 9.1481392,
    "nearest_airport": "ZRH",
    "description": "Auto-imported SCENIC_POINT. Altitude: N/Am"
  },
  "sonnhaldeberg": {
    "name": "Sonnhaldeberg",
    "slug": "sonnhaldeberg",
    "category": "SCENIC_POINT",
    "region": "Alps",
    "country": "Europe",
    "lat": 47.8914754,
    "lng": 7.8431225,
    "nearest_airport": "ZRH",
    "description": "Auto-imported SCENIC_POINT. Altitude: N/Am"
  },
  "sonnhaldeeck": {
    "name": "Sonnhaldeeck",
    "slug": "sonnhaldeeck",
    "category": "SCENIC_POINT",
    "region": "Alps",
    "country": "Europe",
    "lat": 47.8906669,
    "lng": 7.8421663,
    "nearest_airport": "ZRH",
    "description": "Auto-imported SCENIC_POINT. Altitude: N/Am"
  },
  "sonnigpass-bocchetta-di-bottarello": {
    "name": "Sonnigpass / Bocchetta di Bottarello",
    "slug": "sonnigpass-bocchetta-di-bottarello",
    "category": "MOUNTAIN_PASS",
    "region": "Alps",
    "country": "Europe",
    "lat": 46.0818001,
    "lng": 8.0292784,
    "nearest_airport": "MXP",
    "description": "Auto-imported MOUNTAIN_PASS. Altitude: 3147m"
  },
  "sonnigpass-bocchetta-di-bottarello-560": {
    "name": "Sonnigpass / Bocchetta di Bottarello",
    "slug": "sonnigpass-bocchetta-di-bottarello-560",
    "category": "MOUNTAIN_PASS",
    "region": "Alps",
    "country": "",
    "lat": 46.0818001,
    "lng": 8.0292784,
    "nearest_airport": "",
    "description": "Verified Location."
  },
  "sonntagberg": {
    "name": "Sonntagberg",
    "slug": "sonntagberg",
    "category": "SCENIC_POINT",
    "region": "Alps",
    "country": "Europe",
    "lat": 47.9960697,
    "lng": 14.7637366,
    "nearest_airport": "SZG",
    "description": "Auto-imported SCENIC_POINT. Altitude: N/Am"
  },
  "sonnwendkogel": {
    "name": "Sonnwendkogel",
    "slug": "sonnwendkogel",
    "category": "SCENIC_POINT",
    "region": "Alps",
    "country": "Europe",
    "lat": 47.7384025,
    "lng": 14.324466,
    "nearest_airport": "SZG",
    "description": "Auto-imported SCENIC_POINT. Altitude: N/Am"
  },
  "sonnwendsteinblick": {
    "name": "Sonnwendsteinblick",
    "slug": "sonnwendsteinblick",
    "category": "SCENIC_POINT",
    "region": "Alps",
    "country": "Europe",
    "lat": 47.6659257,
    "lng": 15.8886907,
    "nearest_airport": "VIE",
    "description": "Auto-imported SCENIC_POINT. Altitude: N/Am"
  },
  "sopalj": {
    "name": "Sopalj",
    "slug": "sopalj",
    "category": "SCENIC_POINT",
    "region": "Alps",
    "country": "Europe",
    "lat": 45.2117914,
    "lng": 14.6727638,
    "nearest_airport": "VCE",
    "description": "Auto-imported SCENIC_POINT. Altitude: N/Am"
  },
  "sophien-ruhe": {
    "name": "Sophien-Ruhe",
    "slug": "sophien-ruhe",
    "category": "SCENIC_POINT",
    "region": "Alps",
    "country": "Europe",
    "lat": 47.2809358,
    "lng": 11.3990837,
    "nearest_airport": "INN",
    "description": "Auto-imported SCENIC_POINT. Altitude: N/Am"
  },
  "sophienberg": {
    "name": "Sophienberg",
    "slug": "sophienberg",
    "category": "SCENIC_POINT",
    "region": "Alps",
    "country": "Europe",
    "lat": 47.7626818,
    "lng": 9.0688746,
    "nearest_airport": "ZRH",
    "description": "Auto-imported SCENIC_POINT. Altitude: N/Am"
  },
  "sophienplatz": {
    "name": "Sophienplatz",
    "slug": "sophienplatz",
    "category": "SCENIC_POINT",
    "region": "Alps",
    "country": "Europe",
    "lat": 47.7160198,
    "lng": 9.0628621,
    "nearest_airport": "ZRH",
    "description": "Auto-imported SCENIC_POINT. Altitude: N/Am"
  },
  "sophienruhe": {
    "name": "Sophienruhe",
    "slug": "sophienruhe",
    "category": "SCENIC_POINT",
    "region": "Alps",
    "country": "Europe",
    "lat": 47.7975145,
    "lng": 7.6748853,
    "nearest_airport": "ZRH",
    "description": "Auto-imported SCENIC_POINT. Altitude: N/Am"
  },
  "sopracorna": {
    "name": "Sopracorna",
    "slug": "sopracorna",
    "category": "SCENIC_POINT",
    "region": "Alps",
    "country": "Europe",
    "lat": 45.8117426,
    "lng": 9.4544504,
    "nearest_airport": "MXP",
    "description": "Auto-imported SCENIC_POINT. Altitude: N/Am"
  },
  "soracrode": {
    "name": "Soracrode",
    "slug": "soracrode",
    "category": "SCENIC_POINT",
    "region": "Alps",
    "country": "Europe",
    "lat": 46.4967139,
    "lng": 12.4405594,
    "nearest_airport": "VCE",
    "description": "Auto-imported SCENIC_POINT. Altitude: 1303m"
  },
  "source-de-la-saine": {
    "name": "Source de la Saine",
    "slug": "source-de-la-saine",
    "category": "SCENIC_POINT",
    "region": "Alps",
    "country": "Europe",
    "lat": 46.669745,
    "lng": 6.0757361,
    "nearest_airport": "GVA",
    "description": "Auto-imported SCENIC_POINT. Altitude: N/Am"
  },
  "source-de-lain": {
    "name": "Source de l'Ain",
    "slug": "source-de-lain",
    "category": "SCENIC_POINT",
    "region": "Alps",
    "country": "Europe",
    "lat": 46.749333,
    "lng": 6.0234636,
    "nearest_airport": "GVA",
    "description": "Auto-imported SCENIC_POINT. Altitude: N/Am"
  },
  "sources-de-lallemogne": {
    "name": "Sources de l'Allemogne",
    "slug": "sources-de-lallemogne",
    "category": "SCENIC_POINT",
    "region": "Alps",
    "country": "Europe",
    "lat": 46.2443909,
    "lng": 5.9837707,
    "nearest_airport": "GVA",
    "description": "Auto-imported SCENIC_POINT. Altitude: N/Am"
  },
  "sources-de-lallondon": {
    "name": "Sources de l'Allondon",
    "slug": "sources-de-lallondon",
    "category": "SCENIC_POINT",
    "region": "Alps",
    "country": "Europe",
    "lat": 46.302078,
    "lng": 6.0263397,
    "nearest_airport": "GVA",
    "description": "Auto-imported SCENIC_POINT. Altitude: N/Am"
  },
  "sous-les-cotes": {
    "name": "Sous les Côtes",
    "slug": "sous-les-cotes",
    "category": "SCENIC_POINT",
    "region": "Alps",
    "country": "Europe",
    "lat": 46.5692875,
    "lng": 5.6965523,
    "nearest_airport": "GVA",
    "description": "Auto-imported SCENIC_POINT. Altitude: N/Am"
  },
  "sous-les-isches": {
    "name": "Sous les Isches",
    "slug": "sous-les-isches",
    "category": "SCENIC_POINT",
    "region": "Alps",
    "country": "Europe",
    "lat": 47.9869453,
    "lng": 6.7708652,
    "nearest_airport": "ZRH",
    "description": "Auto-imported SCENIC_POINT. Altitude: N/Am"
  },
  "sous-leudie": {
    "name": "Sous Leudie",
    "slug": "sous-leudie",
    "category": "SCENIC_POINT",
    "region": "Alps",
    "country": "Europe",
    "lat": 47.9833853,
    "lng": 6.7641556,
    "nearest_airport": "ZRH",
    "description": "Auto-imported SCENIC_POINT. Altitude: N/Am"
  },
  "soyscharte-passo-di-soi": {
    "name": "Soyscharte - Passo di Soi",
    "slug": "soyscharte-passo-di-soi",
    "category": "MOUNTAIN_PASS",
    "region": "Alps",
    "country": "Europe",
    "lat": 46.5181423,
    "lng": 10.8055364,
    "nearest_airport": "INN",
    "description": "Auto-imported MOUNTAIN_PASS. Altitude: 2898m"
  },
  "soyscharte-passo-di-soi-2848": {
    "name": "Soyscharte - Passo di Soi",
    "slug": "soyscharte-passo-di-soi-2848",
    "category": "MOUNTAIN_PASS",
    "region": "Alps",
    "country": "",
    "lat": 46.5181423,
    "lng": 10.8055364,
    "nearest_airport": "",
    "description": "Verified Location."
  }
}