{
  "st-alban-pfalz": {
    "name": "St. Alban Pfalz",
    "slug": "st-alban-pfalz",
    "category": "SCENIC_POINT",
    "region": "Alps",
    "country": "Europe",
    "lat": 47.5552916,
    "lng": 7.6036808,
    "nearest_airport": "ZRH",
    "description": "Auto-imported SCENIC_POINT. Altitude: N/Am"
  },
  "st-antoenier-joch": {
    "name": "St Antoenier Joch",
    "slug": "st-antoenier-joch",
    "category": "MOUNTAIN_PASS",
    "region": "Alps",
    "country": "Europe",
    "lat": 46.9656577,
    "lng": 9.8734766,
    "nearest_airport": "ZRH",
    "description": "Auto-imported MOUNTAIN_PASS. Altitude: 2371m"
  },
  "st-antoenier-joch-296": {
    "name": "St Antoenier Joch",
    "slug": "st-antoenier-joch-296",
    "category": "MOUNTAIN_PASS",
    "region": "Alps",
    "country": "",
    "lat": 46.9656577,
    "lng": 9.8734766,
    "nearest_airport": "",
    "description": "Verified Location."
  },
  "st-anton": {
    "name": "St. Anton",
    "slug": "st-anton",
    "category": "SCENIC_POINT",
    "region": "Alps",
    "country": "Europe",
    "lat": 47.4098345,
    "lng": 9.5348717,
    "nearest_airport": "ZRH",
    "description": "Auto-imported SCENIC_POINT. Altitude: N/Am"
  },
  "st-anton-629": {
    "name": "St. Anton",
    "slug": "st-anton-629",
    "category": "MOUNTAIN_PASS",
    "region": "Alps",
    "country": "",
    "lat": 47.4099424,
    "lng": 9.5351717,
    "nearest_airport": "",
    "description": "Verified Location."
  },
  "st-anton-panorama": {
    "name": "St. Anton Panorama",
    "slug": "st-anton-panorama",
    "category": "SCENIC_POINT",
    "region": "Alps",
    "country": "Europe",
    "lat": 47.4988049,
    "lng": 11.1119908,
    "nearest_airport": "INN",
    "description": "Auto-imported SCENIC_POINT. Altitude: N/Am"
  },
  "st-antoni-pass": {
    "name": "St. Antoni-Pass",
    "slug": "st-antoni-pass",
    "category": "MOUNTAIN_PASS",
    "region": "Alps",
    "country": "Europe",
    "lat": 47.7449039,
    "lng": 7.9753706,
    "nearest_airport": "ZRH",
    "description": "Auto-imported MOUNTAIN_PASS. Altitude: 1051m"
  },
  "st-chrischona": {
    "name": "St. Chrischona",
    "slug": "st-chrischona",
    "category": "SCENIC_POINT",
    "region": "Alps",
    "country": "Europe",
    "lat": 47.5729365,
    "lng": 7.6801334,
    "nearest_airport": "ZRH",
    "description": "Auto-imported SCENIC_POINT. Altitude: N/Am"
  },
  "st-johannisbreite": {
    "name": "St. Johannisbreite",
    "slug": "st-johannisbreite",
    "category": "MOUNTAIN_PASS",
    "region": "Alps",
    "country": "Europe",
    "lat": 47.743161,
    "lng": 7.6628607,
    "nearest_airport": "ZRH",
    "description": "Auto-imported MOUNTAIN_PASS. Altitude: N/Am"
  },
  "st-wolfgang": {
    "name": "St. Wolfgang",
    "slug": "st-wolfgang",
    "category": "SCENIC_POINT",
    "region": "Alps",
    "country": "Europe",
    "lat": 47.1323303,
    "lng": 13.6770963,
    "nearest_airport": "SZG",
    "description": "Auto-imported SCENIC_POINT. Altitude: N/Am"
  },
  "st-wolfgang-blick": {
    "name": "St. Wolfgang Blick",
    "slug": "st-wolfgang-blick",
    "category": "SCENIC_POINT",
    "region": "Alps",
    "country": "Europe",
    "lat": 47.6906932,
    "lng": 13.5795574,
    "nearest_airport": "SZG",
    "description": "Auto-imported SCENIC_POINT. Altitude: N/Am"
  },
  "staagen": {
    "name": "Stäägen",
    "slug": "staagen",
    "category": "MOUNTAIN_PASS",
    "region": "Alps",
    "country": "Europe",
    "lat": 47.4027732,
    "lng": 8.9963483,
    "nearest_airport": "ZRH",
    "description": "Auto-imported MOUNTAIN_PASS. Altitude: 834m"
  },
  "stabliplatz": {
    "name": "Stäbliplatz",
    "slug": "stabliplatz",
    "category": "SCENIC_POINT",
    "region": "Alps",
    "country": "Europe",
    "lat": 47.4846575,
    "lng": 8.1909332,
    "nearest_airport": "ZRH",
    "description": "Auto-imported SCENIC_POINT. Altitude: N/Am"
  },
  "stadelwandhohe": {
    "name": "Stadelwandhöhe",
    "slug": "stadelwandhohe",
    "category": "SCENIC_POINT",
    "region": "Alps",
    "country": "Europe",
    "lat": 47.7499427,
    "lng": 15.7920636,
    "nearest_airport": "VIE",
    "description": "Auto-imported SCENIC_POINT. Altitude: 1407m"
  },
  "stadt": {
    "name": "Stadt",
    "slug": "stadt",
    "category": "SCENIC_POINT",
    "region": "Alps",
    "country": "Europe",
    "lat": 46.7614338,
    "lng": 7.6275059,
    "nearest_airport": "ZRH",
    "description": "Auto-imported SCENIC_POINT. Altitude: N/Am"
  },
  "stadt-und-seenblick": {
    "name": "Stadt- und Seenblick",
    "slug": "stadt-und-seenblick",
    "category": "SCENIC_POINT",
    "region": "Alps",
    "country": "Europe",
    "lat": 46.5930687,
    "lng": 13.8070416,
    "nearest_airport": "SZG",
    "description": "Auto-imported SCENIC_POINT. Altitude: 862m"
  },
  "stadtaussicht": {
    "name": "Stadtaussicht",
    "slug": "stadtaussicht",
    "category": "SCENIC_POINT",
    "region": "Alps",
    "country": "Europe",
    "lat": 47.759979,
    "lng": 13.0645506,
    "nearest_airport": "SZG",
    "description": "Auto-imported SCENIC_POINT. Altitude: N/Am"
  },
  "stadtschrofen": {
    "name": "Stadtschrofen",
    "slug": "stadtschrofen",
    "category": "SCENIC_POINT",
    "region": "Alps",
    "country": "Europe",
    "lat": 47.2324932,
    "lng": 9.5962896,
    "nearest_airport": "ZRH",
    "description": "Auto-imported SCENIC_POINT. Altitude: N/Am"
  },
  "staffelegg": {
    "name": "Staffelegg",
    "slug": "staffelegg",
    "category": "MOUNTAIN_PASS",
    "region": "Alps",
    "country": "Europe",
    "lat": 47.433821,
    "lng": 8.0604612,
    "nearest_airport": "ZRH",
    "description": "Auto-imported MOUNTAIN_PASS. Altitude: 621m"
  },
  "staffelegg-130": {
    "name": "Staffelegg",
    "slug": "staffelegg-130",
    "category": "MOUNTAIN_PASS",
    "region": "Alps",
    "country": "",
    "lat": 47.433821,
    "lng": 8.0604612,
    "nearest_airport": "",
    "description": "Verified Location."
  },
  "stagleren": {
    "name": "Stägleren",
    "slug": "stagleren",
    "category": "SCENIC_POINT",
    "region": "Alps",
    "country": "Europe",
    "lat": 47.0239386,
    "lng": 8.7072344,
    "nearest_airport": "ZRH",
    "description": "Auto-imported SCENIC_POINT. Altitude: 1465m"
  },
  "stallebach-wasserfall": {
    "name": "Stallebach Wasserfall",
    "slug": "stallebach-wasserfall",
    "category": "SCENIC_POINT",
    "region": "Alps",
    "country": "Europe",
    "lat": 46.9079389,
    "lng": 12.2978367,
    "nearest_airport": "INN",
    "description": "Auto-imported SCENIC_POINT. Altitude: N/Am"
  },
  "staller-sattel-passo-di-stalle": {
    "name": "Staller Sattel - Passo di Stalle",
    "slug": "staller-sattel-passo-di-stalle",
    "category": "MOUNTAIN_PASS",
    "region": "Alps",
    "country": "Europe",
    "lat": 46.887716,
    "lng": 12.1996903,
    "nearest_airport": "INN",
    "description": "Auto-imported MOUNTAIN_PASS. Altitude: 2052m"
  },
  "staller-sattel-passo-di-stalle-732": {
    "name": "Staller Sattel - Passo di Stalle",
    "slug": "staller-sattel-passo-di-stalle-732",
    "category": "MOUNTAIN_PASS",
    "region": "Alps",
    "country": "",
    "lat": 46.887716,
    "lng": 12.1996903,
    "nearest_airport": "",
    "description": "Verified Location."
  },
  "stallerberg": {
    "name": "Stallerberg",
    "slug": "stallerberg",
    "category": "MOUNTAIN_PASS",
    "region": "Alps",
    "country": "Europe",
    "lat": 46.4481559,
    "lng": 9.5992375,
    "nearest_airport": "MXP",
    "description": "Auto-imported MOUNTAIN_PASS. Altitude: 2581m"
  },
  "stallerberg-2245": {
    "name": "Stallerberg",
    "slug": "stallerberg-2245",
    "category": "MOUNTAIN_PASS",
    "region": "Alps",
    "country": "",
    "lat": 46.4481559,
    "lng": 9.5992375,
    "nearest_airport": "",
    "description": "Verified Location."
  },
  "stallertorl": {
    "name": "Stallertörl",
    "slug": "stallertorl",
    "category": "MOUNTAIN_PASS",
    "region": "Alps",
    "country": "Europe",
    "lat": 47.3051002,
    "lng": 14.2729161,
    "nearest_airport": "SZG",
    "description": "Auto-imported MOUNTAIN_PASS. Altitude: 2090m"
  },
  "stallertorl-2226": {
    "name": "Stallertörl",
    "slug": "stallertorl-2226",
    "category": "MOUNTAIN_PASS",
    "region": "Alps",
    "country": "",
    "lat": 47.3051002,
    "lng": 14.2729161,
    "nearest_airport": "",
    "description": "Verified Location."
  },
  "stammer-joch": {
    "name": "Stammer Joch",
    "slug": "stammer-joch",
    "category": "MOUNTAIN_PASS",
    "region": "Alps",
    "country": "Europe",
    "lat": 46.9193221,
    "lng": 10.3484294,
    "nearest_airport": "INN",
    "description": "Auto-imported MOUNTAIN_PASS. Altitude: N/Am"
  },
  "stand": {
    "name": "Stand",
    "slug": "stand",
    "category": "SCENIC_POINT",
    "region": "Alps",
    "country": "Europe",
    "lat": 46.2539847,
    "lng": 7.8449232,
    "nearest_airport": "MXP",
    "description": "Auto-imported SCENIC_POINT. Altitude: N/Am"
  },
  "standort-wartenberg-821-m": {
    "name": "Standort Wartenberg, 821 m",
    "slug": "standort-wartenberg-821-m",
    "category": "SCENIC_POINT",
    "region": "Alps",
    "country": "Europe",
    "lat": 47.9239835,
    "lng": 8.6166757,
    "nearest_airport": "ZRH",
    "description": "Auto-imported SCENIC_POINT. Altitude: N/Am"
  },
  "stanga-di-bassinale": {
    "name": "Stanga Di Bassinale",
    "slug": "stanga-di-bassinale",
    "category": "MOUNTAIN_PASS",
    "region": "Alps",
    "country": "Europe",
    "lat": 45.8378894,
    "lng": 10.2535987,
    "nearest_airport": "MXP",
    "description": "Auto-imported MOUNTAIN_PASS. Altitude: 1897m"
  },
  "stangenjoch": {
    "name": "Stangenjoch",
    "slug": "stangenjoch",
    "category": "MOUNTAIN_PASS",
    "region": "Alps",
    "country": "Europe",
    "lat": 47.0535384,
    "lng": 11.9802781,
    "nearest_airport": "INN",
    "description": "Auto-imported MOUNTAIN_PASS. Altitude: 3055m"
  },
  "stangenjoch-3180": {
    "name": "Stangenjoch",
    "slug": "stangenjoch-3180",
    "category": "MOUNTAIN_PASS",
    "region": "Alps",
    "country": "",
    "lat": 47.0535384,
    "lng": 11.9802781,
    "nearest_airport": "",
    "description": "Verified Location."
  },
  "stangersattel": {
    "name": "Stangersattel",
    "slug": "stangersattel",
    "category": "MOUNTAIN_PASS",
    "region": "Alps",
    "country": "Europe",
    "lat": 47.1994379,
    "lng": 13.262483,
    "nearest_airport": "SZG",
    "description": "Auto-imported MOUNTAIN_PASS. Altitude: 2060m"
  },
  "stangersattel-2188": {
    "name": "Stangersattel",
    "slug": "stangersattel-2188",
    "category": "MOUNTAIN_PASS",
    "region": "Alps",
    "country": "",
    "lat": 47.1994379,
    "lng": 13.262483,
    "nearest_airport": "",
    "description": "Verified Location."
  },
  "stanserhorn": {
    "name": "Stanserhorn",
    "slug": "stanserhorn",
    "category": "SCENIC_POINT",
    "region": "Alps",
    "country": "Europe",
    "lat": 46.9297512,
    "lng": 8.3401809,
    "nearest_airport": "ZRH",
    "description": "Auto-imported SCENIC_POINT. Altitude: N/Am"
  },
  "stanzscharte": {
    "name": "Stanzscharte",
    "slug": "stanzscharte",
    "category": "MOUNTAIN_PASS",
    "region": "Alps",
    "country": "Europe",
    "lat": 47.1333524,
    "lng": 13.0205866,
    "nearest_airport": "SZG",
    "description": "Auto-imported MOUNTAIN_PASS. Altitude: 2102m"
  },
  "stanzscharte-2859": {
    "name": "Stanzscharte",
    "slug": "stanzscharte-2859",
    "category": "MOUNTAIN_PASS",
    "region": "Alps",
    "country": "",
    "lat": 47.1333524,
    "lng": 13.0205866,
    "nearest_airport": "",
    "description": "Verified Location."
  },
  "stargate": {
    "name": "\"Stargate\"",
    "slug": "stargate",
    "category": "SCENIC_POINT",
    "region": "Alps",
    "country": "Europe",
    "lat": 45.470655,
    "lng": 13.9887296,
    "nearest_airport": "VCE",
    "description": "Auto-imported SCENIC_POINT. Altitude: N/Am"
  },
  "stari-grad": {
    "name": "Stari grad",
    "slug": "stari-grad",
    "category": "SCENIC_POINT",
    "region": "Alps",
    "country": "Europe",
    "lat": 46.6178865,
    "lng": 15.2208827,
    "nearest_airport": "VIE",
    "description": "Auto-imported SCENIC_POINT. Altitude: N/Am"
  },
  "stari-grad-arboretum": {
    "name": "Stari grad (Arboretum)",
    "slug": "stari-grad-arboretum",
    "category": "SCENIC_POINT",
    "region": "Alps",
    "country": "Europe",
    "lat": 46.1890555,
    "lng": 14.6130198,
    "nearest_airport": "VCE",
    "description": "Auto-imported SCENIC_POINT. Altitude: N/Am"
  },
  "stari-grad-dubovac": {
    "name": "Stari grad Dubovac",
    "slug": "stari-grad-dubovac",
    "category": "SCENIC_POINT",
    "region": "Alps",
    "country": "Europe",
    "lat": 45.4948016,
    "lng": 15.5286288,
    "nearest_airport": "VCE",
    "description": "Auto-imported SCENIC_POINT. Altitude: N/Am"
  },
  "stari-vrh-zig": {
    "name": "Stari vrh – žig",
    "slug": "stari-vrh-zig",
    "category": "SCENIC_POINT",
    "region": "Alps",
    "country": "Europe",
    "lat": 46.17011,
    "lng": 14.1732042,
    "nearest_airport": "VCE",
    "description": "Auto-imported SCENIC_POINT. Altitude: 1202m"
  },
  "start-riffigweiher": {
    "name": "Start Riffigweiher",
    "slug": "start-riffigweiher",
    "category": "SCENIC_POINT",
    "region": "Alps",
    "country": "Europe",
    "lat": 47.0881117,
    "lng": 8.2680856,
    "nearest_airport": "ZRH",
    "description": "Auto-imported SCENIC_POINT. Altitude: N/Am"
  },
  "startenegg": {
    "name": "Stärtenegg",
    "slug": "startenegg",
    "category": "SCENIC_POINT",
    "region": "Alps",
    "country": "Europe",
    "lat": 46.959396,
    "lng": 8.4699747,
    "nearest_airport": "ZRH",
    "description": "Auto-imported SCENIC_POINT. Altitude: N/Am"
  },
  "startplatz-paraglider": {
    "name": "Startplatz Paraglider",
    "slug": "startplatz-paraglider",
    "category": "SCENIC_POINT",
    "region": "Alps",
    "country": "Europe",
    "lat": 47.9439704,
    "lng": 8.6329493,
    "nearest_airport": "ZRH",
    "description": "Auto-imported SCENIC_POINT. Altitude: N/Am"
  },
  "starzeljoch": {
    "name": "Starzeljoch",
    "slug": "starzeljoch",
    "category": "MOUNTAIN_PASS",
    "region": "Alps",
    "country": "Europe",
    "lat": 47.3191012,
    "lng": 10.0828271,
    "nearest_airport": "INN",
    "description": "Auto-imported MOUNTAIN_PASS. Altitude: 1867m"
  },
  "starzeljoch-322": {
    "name": "Starzeljoch",
    "slug": "starzeljoch-322",
    "category": "MOUNTAIN_PASS",
    "region": "Alps",
    "country": "",
    "lat": 47.3191012,
    "lng": 10.0828271,
    "nearest_airport": "",
    "description": "Verified Location."
  },
  "station-sehen": {
    "name": "Station Sehen",
    "slug": "station-sehen",
    "category": "SCENIC_POINT",
    "region": "Alps",
    "country": "Europe",
    "lat": 46.7046461,
    "lng": 15.4262968,
    "nearest_airport": "VIE",
    "description": "Auto-imported SCENIC_POINT. Altitude: N/Am"
  },
  "statue-de-la-vierge": {
    "name": "Statue de la Vierge",
    "slug": "statue-de-la-vierge",
    "category": "SCENIC_POINT",
    "region": "Alps",
    "country": "Europe",
    "lat": 46.3081914,
    "lng": 5.7682333,
    "nearest_airport": "GVA",
    "description": "Auto-imported SCENIC_POINT. Altitude: N/Am"
  },
  "statue-de-la-vierge-du-mai-table-dorientaion": {
    "name": "Statue de la Vierge du Mai / table d'orientaion",
    "slug": "statue-de-la-vierge-du-mai-table-dorientaion",
    "category": "SCENIC_POINT",
    "region": "Alps",
    "country": "Europe",
    "lat": 47.9936975,
    "lng": 6.6411399,
    "nearest_airport": "ZRH",
    "description": "Table d'orientation avec vue panoramique sur \"la porte des Hautes-Vosges\""
  },
  "statue-du-sacre-coeur": {
    "name": "Statue du Sacré-Coeur",
    "slug": "statue-du-sacre-coeur",
    "category": "SCENIC_POINT",
    "region": "Alps",
    "country": "Europe",
    "lat": 45.4899513,
    "lng": 5.6746012,
    "nearest_airport": "GVA",
    "description": "Auto-imported SCENIC_POINT. Altitude: N/Am"
  },
  "staubbachbankli": {
    "name": "Staubbachbänkli",
    "slug": "staubbachbankli",
    "category": "SCENIC_POINT",
    "region": "Alps",
    "country": "Europe",
    "lat": 46.592831,
    "lng": 7.9203068,
    "nearest_airport": "ZRH",
    "description": "Auto-imported SCENIC_POINT. Altitude: N/Am"
  },
  "staubige-reib": {
    "name": "Staubige Reib",
    "slug": "staubige-reib",
    "category": "SCENIC_POINT",
    "region": "Alps",
    "country": "Europe",
    "lat": 47.2010749,
    "lng": 12.1714583,
    "nearest_airport": "INN",
    "description": "Auto-imported SCENIC_POINT. Altitude: 1330m"
  },
  "staudenbergjochel": {
    "name": "Staudenbergjöchel",
    "slug": "staudenbergjochel",
    "category": "MOUNTAIN_PASS",
    "region": "Alps",
    "country": "Europe",
    "lat": 46.8849317,
    "lng": 11.2407957,
    "nearest_airport": "INN",
    "description": "Auto-imported MOUNTAIN_PASS. Altitude: 2380m"
  },
  "staudenbergjochel-2889": {
    "name": "Staudenbergjöchel",
    "slug": "staudenbergjochel-2889",
    "category": "MOUNTAIN_PASS",
    "region": "Alps",
    "country": "",
    "lat": 46.8849317,
    "lng": 11.2407957,
    "nearest_airport": "",
    "description": "Verified Location."
  },
  "staufenberg": {
    "name": "Staufenberg",
    "slug": "staufenberg",
    "category": "SCENIC_POINT",
    "region": "Alps",
    "country": "Europe",
    "lat": 47.7578795,
    "lng": 8.4850762,
    "nearest_airport": "ZRH",
    "description": "Auto-imported SCENIC_POINT. Altitude: N/Am"
  },
  "staufner-berg": {
    "name": "Staufner Berg",
    "slug": "staufner-berg",
    "category": "SCENIC_POINT",
    "region": "Alps",
    "country": "Europe",
    "lat": 47.5545238,
    "lng": 10.0362917,
    "nearest_airport": "INN",
    "description": "Auto-imported SCENIC_POINT. Altitude: N/Am"
  },
  "staumauer-ehnbachklamm-gspan-sperre": {
    "name": "Staumauer Ehnbachklamm (Gspan-Sperre)",
    "slug": "staumauer-ehnbachklamm-gspan-sperre",
    "category": "SCENIC_POINT",
    "region": "Alps",
    "country": "Europe",
    "lat": 47.2785995,
    "lng": 11.2572465,
    "nearest_airport": "INN",
    "description": "Auto-imported SCENIC_POINT. Altitude: N/Am"
  },
  "stbernardpl-st-bernard": {
    "name": "St.Bernard;Pl. St-Bernard",
    "slug": "stbernardpl-st-bernard",
    "category": "MOUNTAIN_PASS",
    "region": "Alps",
    "country": "Europe",
    "lat": 46.2310979,
    "lng": 7.2590465,
    "nearest_airport": "GVA",
    "description": "Auto-imported MOUNTAIN_PASS. Altitude: 1074m"
  },
  "stefanjino-razgledisce": {
    "name": "Štefanjino Razgledišče",
    "slug": "stefanjino-razgledisce",
    "category": "SCENIC_POINT",
    "region": "Alps",
    "country": "Europe",
    "lat": 45.6657268,
    "lng": 13.9889439,
    "nearest_airport": "VCE",
    "description": "Auto-imported SCENIC_POINT. Altitude: N/Am"
  },
  "steg-von-strandbad": {
    "name": "Steg von Strandbad",
    "slug": "steg-von-strandbad",
    "category": "SCENIC_POINT",
    "region": "Alps",
    "country": "Europe",
    "lat": 47.9039001,
    "lng": 13.1440322,
    "nearest_airport": "SZG",
    "description": "Auto-imported SCENIC_POINT. Altitude: N/Am"
  },
  "stegyd-panorama-view": {
    "name": "St.Egyd Panorama View",
    "slug": "stegyd-panorama-view",
    "category": "SCENIC_POINT",
    "region": "Alps",
    "country": "Europe",
    "lat": 46.6262235,
    "lng": 14.3072226,
    "nearest_airport": "SZG",
    "description": "Auto-imported SCENIC_POINT. Altitude: N/Am"
  },
  "steigerruhe": {
    "name": "Steigerruhe",
    "slug": "steigerruhe",
    "category": "SCENIC_POINT",
    "region": "Alps",
    "country": "Europe",
    "lat": 47.289973,
    "lng": 11.4065227,
    "nearest_airport": "INN",
    "description": "Auto-imported SCENIC_POINT. Altitude: 870m"
  },
  "steiglpass": {
    "name": "Steiglpass",
    "slug": "steiglpass",
    "category": "MOUNTAIN_PASS",
    "region": "Alps",
    "country": "Europe",
    "lat": 47.4942645,
    "lng": 13.5212536,
    "nearest_airport": "SZG",
    "description": "Auto-imported MOUNTAIN_PASS. Altitude: 2018m"
  },
  "steiglpass-630": {
    "name": "Steiglpass",
    "slug": "steiglpass-630",
    "category": "MOUNTAIN_PASS",
    "region": "Alps",
    "country": "",
    "lat": 47.4942645,
    "lng": 13.5212536,
    "nearest_airport": "",
    "description": "Verified Location."
  },
  "steihow": {
    "name": "Steihow",
    "slug": "steihow",
    "category": "SCENIC_POINT",
    "region": "Alps",
    "country": "Europe",
    "lat": 46.3249469,
    "lng": 7.9486209,
    "nearest_airport": "MXP",
    "description": "Auto-imported SCENIC_POINT. Altitude: N/Am"
  },
  "stein-garten": {
    "name": "Stein-Garten",
    "slug": "stein-garten",
    "category": "SCENIC_POINT",
    "region": "Alps",
    "country": "Europe",
    "lat": 47.4419631,
    "lng": 11.2507725,
    "nearest_airport": "INN",
    "description": "Auto-imported SCENIC_POINT. Altitude: N/Am"
  },
  "steinadler-beobachtungspunkt": {
    "name": "Steinadler-Beobachtungspunkt",
    "slug": "steinadler-beobachtungspunkt",
    "category": "SCENIC_POINT",
    "region": "Alps",
    "country": "Europe",
    "lat": 47.5873391,
    "lng": 12.8273896,
    "nearest_airport": "SZG",
    "description": "Schutzhütte zur Beobachtung von Steinadlern und Wild mit Fernrohr"
  },
  "steinbachblick": {
    "name": "Steinbachblick",
    "slug": "steinbachblick",
    "category": "SCENIC_POINT",
    "region": "Alps",
    "country": "Europe",
    "lat": 47.8128411,
    "lng": 13.5639296,
    "nearest_airport": "SZG",
    "description": "Auto-imported SCENIC_POINT. Altitude: 1020m"
  },
  "steinbachboden": {
    "name": "Steinbachboden",
    "slug": "steinbachboden",
    "category": "SCENIC_POINT",
    "region": "Alps",
    "country": "Europe",
    "lat": 47.8136287,
    "lng": 14.9435761,
    "nearest_airport": "VIE",
    "description": "Auto-imported SCENIC_POINT. Altitude: N/Am"
  },
  "steinbruch": {
    "name": "Steinbruch",
    "slug": "steinbruch",
    "category": "SCENIC_POINT",
    "region": "Alps",
    "country": "Europe",
    "lat": 47.660353,
    "lng": 12.2031528,
    "nearest_airport": "SZG",
    "description": "Auto-imported SCENIC_POINT. Altitude: N/Am"
  },
  "steinbruchaussicht": {
    "name": "Steinbruchaussicht",
    "slug": "steinbruchaussicht",
    "category": "SCENIC_POINT",
    "region": "Alps",
    "country": "Europe",
    "lat": 47.8151484,
    "lng": 16.109852,
    "nearest_airport": "VIE",
    "description": "Auto-imported SCENIC_POINT. Altitude: N/Am"
  },
  "steinegund": {
    "name": "Steinegund",
    "slug": "steinegund",
    "category": "MOUNTAIN_PASS",
    "region": "Alps",
    "country": "Europe",
    "lat": 47.5084185,
    "lng": 10.0143462,
    "nearest_airport": "INN",
    "description": "Auto-imported MOUNTAIN_PASS. Altitude: 1218m"
  },
  "steinenkreuzle": {
    "name": "Steinenkreuzle",
    "slug": "steinenkreuzle",
    "category": "SCENIC_POINT",
    "region": "Alps",
    "country": "Europe",
    "lat": 47.7632604,
    "lng": 7.6364024,
    "nearest_airport": "ZRH",
    "description": "Auto-imported SCENIC_POINT. Altitude: N/Am"
  },
  "steiner-scharte": {
    "name": "Steiner Scharte",
    "slug": "steiner-scharte",
    "category": "MOUNTAIN_PASS",
    "region": "Alps",
    "country": "Europe",
    "lat": 47.4822551,
    "lng": 13.6029395,
    "nearest_airport": "SZG",
    "description": "Auto-imported MOUNTAIN_PASS. Altitude: 2736m"
  },
  "steiner-scharte-1131": {
    "name": "Steiner Scharte",
    "slug": "steiner-scharte-1131",
    "category": "MOUNTAIN_PASS",
    "region": "Alps",
    "country": "",
    "lat": 47.4822551,
    "lng": 13.6029395,
    "nearest_airport": "",
    "description": "Verified Location."
  },
  "steinerner-tisch": {
    "name": "Steinerner Tisch",
    "slug": "steinerner-tisch",
    "category": "SCENIC_POINT",
    "region": "Alps",
    "country": "Europe",
    "lat": 47.6347346,
    "lng": 8.9267412,
    "nearest_airport": "ZRH",
    "description": "Auto-imported SCENIC_POINT. Altitude: N/Am"
  },
  "steinernes-bankerl": {
    "name": "Steinernes Bankerl",
    "slug": "steinernes-bankerl",
    "category": "SCENIC_POINT",
    "region": "Alps",
    "country": "Europe",
    "lat": 47.8134495,
    "lng": 16.1060441,
    "nearest_airport": "VIE",
    "description": "Auto-imported SCENIC_POINT. Altitude: N/Am"
  },
  "steinernes-tor": {
    "name": "Steinernes Tor",
    "slug": "steinernes-tor",
    "category": "MOUNTAIN_PASS",
    "region": "Alps",
    "country": "Europe",
    "lat": 47.4963978,
    "lng": 9.9823679,
    "nearest_airport": "INN",
    "description": "Auto-imported MOUNTAIN_PASS. Altitude: 1282m"
  },
  "steinernes-tor-771": {
    "name": "Steinernes Tor",
    "slug": "steinernes-tor-771",
    "category": "MOUNTAIN_PASS",
    "region": "Alps",
    "country": "",
    "lat": 47.4575081,
    "lng": 11.7493169,
    "nearest_airport": "",
    "description": "Verified Location."
  },
  "steinfeldblick": {
    "name": "Steinfeldblick",
    "slug": "steinfeldblick",
    "category": "SCENIC_POINT",
    "region": "Alps",
    "country": "Europe",
    "lat": 47.825991,
    "lng": 16.1233734,
    "nearest_airport": "VIE",
    "description": "Auto-imported SCENIC_POINT. Altitude: N/Am"
  },
  "steinhang": {
    "name": "Steinhang",
    "slug": "steinhang",
    "category": "SCENIC_POINT",
    "region": "Alps",
    "country": "Europe",
    "lat": 47.8392425,
    "lng": 13.6175939,
    "nearest_airport": "SZG",
    "description": "Auto-imported SCENIC_POINT. Altitude: N/Am"
  },
  "steiniglehnscharte": {
    "name": "Steiniglehnscharte",
    "slug": "steiniglehnscharte",
    "category": "MOUNTAIN_PASS",
    "region": "Alps",
    "country": "Europe",
    "lat": 46.8735483,
    "lng": 10.9841243,
    "nearest_airport": "INN",
    "description": "Auto-imported MOUNTAIN_PASS. Altitude: 3200m"
  },
  "steiniglehnscharte-1055": {
    "name": "Steiniglehnscharte",
    "slug": "steiniglehnscharte-1055",
    "category": "MOUNTAIN_PASS",
    "region": "Alps",
    "country": "",
    "lat": 46.8735483,
    "lng": 10.9841243,
    "nearest_airport": "",
    "description": "Verified Location."
  },
  "steinjochle": {
    "name": "Steinjöchle",
    "slug": "steinjochle",
    "category": "MOUNTAIN_PASS",
    "region": "Alps",
    "country": "Europe",
    "lat": 47.2953637,
    "lng": 10.6643237,
    "nearest_airport": "INN",
    "description": "Auto-imported MOUNTAIN_PASS. Altitude: 2198m"
  },
  "steinjochle-222": {
    "name": "Steinjöchle",
    "slug": "steinjochle-222",
    "category": "MOUNTAIN_PASS",
    "region": "Alps",
    "country": "",
    "lat": 47.2953637,
    "lng": 10.6643237,
    "nearest_airport": "",
    "description": "Verified Location."
  },
  "steinkarscharte": {
    "name": "Steinkarscharte",
    "slug": "steinkarscharte",
    "category": "MOUNTAIN_PASS",
    "region": "Alps",
    "country": "Europe",
    "lat": 46.9205815,
    "lng": 11.6287851,
    "nearest_airport": "INN",
    "description": "Auto-imported MOUNTAIN_PASS. Altitude: 2608m"
  },
  "steinkarscharte-1735": {
    "name": "Steinkarscharte",
    "slug": "steinkarscharte-1735",
    "category": "MOUNTAIN_PASS",
    "region": "Alps",
    "country": "",
    "lat": 46.9205815,
    "lng": 11.6287851,
    "nearest_airport": "",
    "description": "Verified Location."
  },
  "steinlascharte-forcella-di-monte-di-sasso": {
    "name": "Steinlascharte - Forcella di Monte di Sasso",
    "slug": "steinlascharte-forcella-di-monte-di-sasso",
    "category": "MOUNTAIN_PASS",
    "region": "Alps",
    "country": "Europe",
    "lat": 46.8905291,
    "lng": 11.6440326,
    "nearest_airport": "INN",
    "description": "Auto-imported MOUNTAIN_PASS. Altitude: 2576m"
  },
  "steinlascharte-forcella-di-monte-di-sasso-3472": {
    "name": "Steinlascharte - Forcella di Monte di Sasso",
    "slug": "steinlascharte-forcella-di-monte-di-sasso-3472",
    "category": "MOUNTAIN_PASS",
    "region": "Alps",
    "country": "",
    "lat": 46.8905291,
    "lng": 11.6440326,
    "nearest_airport": "",
    "description": "Verified Location."
  },
  "steinmeile-panoramablick": {
    "name": "Steinmeile-Panoramablick",
    "slug": "steinmeile-panoramablick",
    "category": "SCENIC_POINT",
    "region": "Alps",
    "country": "Europe",
    "lat": 47.640049,
    "lng": 10.4262799,
    "nearest_airport": "INN",
    "description": "Auto-imported SCENIC_POINT. Altitude: N/Am"
  },
  "steinpass": {
    "name": "Steinpass",
    "slug": "steinpass",
    "category": "MOUNTAIN_PASS",
    "region": "Alps",
    "country": "Europe",
    "lat": 47.6702732,
    "lng": 12.7561401,
    "nearest_airport": "SZG",
    "description": "Auto-imported MOUNTAIN_PASS. Altitude: 615m"
  },
  "steinpasssattel": {
    "name": "Steinpasssattel",
    "slug": "steinpasssattel",
    "category": "MOUNTAIN_PASS",
    "region": "Alps",
    "country": "Europe",
    "lat": 47.5251901,
    "lng": 10.3919409,
    "nearest_airport": "INN",
    "description": "Auto-imported MOUNTAIN_PASS. Altitude: 1557m"
  },
  "steinschlagjoch-bocchetta-delle-frane": {
    "name": "Steinschlagjoch - Bocchetta delle Frane",
    "slug": "steinschlagjoch-bocchetta-delle-frane",
    "category": "MOUNTAIN_PASS",
    "region": "Alps",
    "country": "Europe",
    "lat": 46.7869231,
    "lng": 10.7403369,
    "nearest_airport": "INN",
    "description": "Auto-imported MOUNTAIN_PASS. Altitude: 3257m"
  },
  "steinschlagjoch-bocchetta-delle-frane-1036": {
    "name": "Steinschlagjoch - Bocchetta delle Frane",
    "slug": "steinschlagjoch-bocchetta-delle-frane-1036",
    "category": "MOUNTAIN_PASS",
    "region": "Alps",
    "country": "",
    "lat": 46.7869231,
    "lng": 10.7403369,
    "nearest_airport": "",
    "description": "Verified Location."
  },
  "steintalsattel": {
    "name": "Steintalsattel",
    "slug": "steintalsattel",
    "category": "MOUNTAIN_PASS",
    "region": "Alps",
    "country": "Europe",
    "lat": 47.1963588,
    "lng": 11.0405209,
    "nearest_airport": "INN",
    "description": "Auto-imported MOUNTAIN_PASS. Altitude: 2741m"
  },
  "steintalsattel-2987": {
    "name": "Steintalsattel",
    "slug": "steintalsattel-2987",
    "category": "MOUNTAIN_PASS",
    "region": "Alps",
    "country": "",
    "lat": 47.1963588,
    "lng": 11.0405209,
    "nearest_airport": "",
    "description": "Verified Location."
  },
  "steinwandl": {
    "name": "Steinwandl",
    "slug": "steinwandl",
    "category": "SCENIC_POINT",
    "region": "Alps",
    "country": "Europe",
    "lat": 47.8825555,
    "lng": 13.2282195,
    "nearest_airport": "SZG",
    "description": "Auto-imported SCENIC_POINT. Altitude: N/Am"
  },
  "steirertor": {
    "name": "Steirertor",
    "slug": "steirertor",
    "category": "MOUNTAIN_PASS",
    "region": "Alps",
    "country": "Europe",
    "lat": 47.6047592,
    "lng": 14.0178224,
    "nearest_airport": "SZG",
    "description": "Auto-imported MOUNTAIN_PASS. Altitude: 1820m"
  },
  "stele-1": {
    "name": "Stele 1",
    "slug": "stele-1",
    "category": "SCENIC_POINT",
    "region": "Alps",
    "country": "Europe",
    "lat": 47.6487671,
    "lng": 10.4409215,
    "nearest_airport": "INN",
    "description": "Auto-imported SCENIC_POINT. Altitude: N/Am"
  },
  "stele-2": {
    "name": "Stele 2",
    "slug": "stele-2",
    "category": "SCENIC_POINT",
    "region": "Alps",
    "country": "Europe",
    "lat": 47.64478,
    "lng": 10.4328167,
    "nearest_airport": "INN",
    "description": "Auto-imported SCENIC_POINT. Altitude: N/Am"
  },
  "stele-3": {
    "name": "Stele 3",
    "slug": "stele-3",
    "category": "SCENIC_POINT",
    "region": "Alps",
    "country": "Europe",
    "lat": 47.6302726,
    "lng": 10.4001622,
    "nearest_airport": "INN",
    "description": "Auto-imported SCENIC_POINT. Altitude: N/Am"
  },
  "stele-4": {
    "name": "Stele 4",
    "slug": "stele-4",
    "category": "SCENIC_POINT",
    "region": "Alps",
    "country": "Europe",
    "lat": 47.6536646,
    "lng": 10.4017635,
    "nearest_airport": "INN",
    "description": "Auto-imported SCENIC_POINT. Altitude: N/Am"
  },
  "stele-5": {
    "name": "Stele 5",
    "slug": "stele-5",
    "category": "SCENIC_POINT",
    "region": "Alps",
    "country": "Europe",
    "lat": 47.6684788,
    "lng": 10.4587524,
    "nearest_airport": "INN",
    "description": "Auto-imported SCENIC_POINT. Altitude: N/Am"
  },
  "stele-6": {
    "name": "Stele 6",
    "slug": "stele-6",
    "category": "SCENIC_POINT",
    "region": "Alps",
    "country": "Europe",
    "lat": 47.6374364,
    "lng": 10.4993466,
    "nearest_airport": "INN",
    "description": "Auto-imported SCENIC_POINT. Altitude: N/Am"
  },
  "stele-7": {
    "name": "Stele 7",
    "slug": "stele-7",
    "category": "SCENIC_POINT",
    "region": "Alps",
    "country": "Europe",
    "lat": 47.6308099,
    "lng": 10.4623076,
    "nearest_airport": "INN",
    "description": "Auto-imported SCENIC_POINT. Altitude: N/Am"
  },
  "stele-8": {
    "name": "Stele 8",
    "slug": "stele-8",
    "category": "SCENIC_POINT",
    "region": "Alps",
    "country": "Europe",
    "lat": 47.6301605,
    "lng": 10.453104,
    "nearest_airport": "INN",
    "description": "Auto-imported SCENIC_POINT. Altitude: N/Am"
  },
  "stellekopf": {
    "name": "Stellekopf",
    "slug": "stellekopf",
    "category": "SCENIC_POINT",
    "region": "Alps",
    "country": "Europe",
    "lat": 47.5860743,
    "lng": 8.0019197,
    "nearest_airport": "ZRH",
    "description": "Blick auf die Ruine Wieladingen"
  },
  "stellipass": {
    "name": "Stellipass",
    "slug": "stellipass",
    "category": "MOUNTAIN_PASS",
    "region": "Alps",
    "country": "Europe",
    "lat": 46.0452542,
    "lng": 7.991321,
    "nearest_airport": "MXP",
    "description": "Auto-imported MOUNTAIN_PASS. Altitude: 3038m"
  },
  "stellipass-2738": {
    "name": "Stellipass",
    "slug": "stellipass-2738",
    "category": "MOUNTAIN_PASS",
    "region": "Alps",
    "country": "",
    "lat": 46.0452542,
    "lng": 7.991321,
    "nearest_airport": "",
    "description": "Verified Location."
  },
  "stempeljoch": {
    "name": "Stempeljoch",
    "slug": "stempeljoch",
    "category": "MOUNTAIN_PASS",
    "region": "Alps",
    "country": "Europe",
    "lat": 47.3270253,
    "lng": 11.442109,
    "nearest_airport": "INN",
    "description": "Auto-imported MOUNTAIN_PASS. Altitude: 2215m"
  },
  "stempeljoch-2052": {
    "name": "Stempeljoch",
    "slug": "stempeljoch-2052",
    "category": "MOUNTAIN_PASS",
    "region": "Alps",
    "country": "",
    "lat": 47.3270253,
    "lng": 11.442109,
    "nearest_airport": "",
    "description": "Verified Location."
  },
  "stenarska-vratca": {
    "name": "Stenarska vratca",
    "slug": "stenarska-vratca",
    "category": "MOUNTAIN_PASS",
    "region": "Alps",
    "country": "Europe",
    "lat": 46.4070553,
    "lng": 13.8137097,
    "nearest_airport": "VCE",
    "description": "Auto-imported MOUNTAIN_PASS. Altitude: 2295m"
  },
  "stenarska-vratca-3238": {
    "name": "Stenarska vratca",
    "slug": "stenarska-vratca-3238",
    "category": "MOUNTAIN_PASS",
    "region": "Alps",
    "country": "",
    "lat": 46.4070553,
    "lng": 13.8137097,
    "nearest_airport": "",
    "description": "Verified Location."
  },
  "stene-markove-glave": {
    "name": "Stene Markove glave",
    "slug": "stene-markove-glave",
    "category": "SCENIC_POINT",
    "region": "Alps",
    "country": "Europe",
    "lat": 45.6634221,
    "lng": 15.1195601,
    "nearest_airport": "VCE",
    "description": "Auto-imported SCENIC_POINT. Altitude: 744m"
  },
  "stene-sv-ane": {
    "name": "Stene Sv. Ane",
    "slug": "stene-sv-ane",
    "category": "SCENIC_POINT",
    "region": "Alps",
    "country": "Europe",
    "lat": 45.7765011,
    "lng": 14.7490919,
    "nearest_airport": "VCE",
    "description": "Auto-imported SCENIC_POINT. Altitude: N/Am"
  },
  "stereoviewer": {
    "name": "Stereoviewer",
    "slug": "stereoviewer",
    "category": "SCENIC_POINT",
    "region": "Alps",
    "country": "Europe",
    "lat": 47.7360613,
    "lng": 8.7043479,
    "nearest_airport": "ZRH",
    "description": "Auto-imported SCENIC_POINT. Altitude: N/Am"
  },
  "sternenbalkon": {
    "name": "Sternenbalkon",
    "slug": "sternenbalkon",
    "category": "SCENIC_POINT",
    "region": "Alps",
    "country": "Europe",
    "lat": 46.7779807,
    "lng": 13.6727896,
    "nearest_airport": "SZG",
    "description": "Auto-imported SCENIC_POINT. Altitude: N/Am"
  },
  "sternenbergpass": {
    "name": "Sternenbergpass",
    "slug": "sternenbergpass",
    "category": "MOUNTAIN_PASS",
    "region": "Alps",
    "country": "Europe",
    "lat": 47.376628,
    "lng": 8.942942,
    "nearest_airport": "ZRH",
    "description": "Auto-imported MOUNTAIN_PASS. Altitude: 952m"
  },
  "sterzens-abendsitz": {
    "name": "Sterzens Abendsitz",
    "slug": "sterzens-abendsitz",
    "category": "SCENIC_POINT",
    "region": "Alps",
    "country": "Europe",
    "lat": 47.7072546,
    "lng": 13.6304985,
    "nearest_airport": "SZG",
    "description": "Auto-imported SCENIC_POINT. Altitude: N/Am"
  },
  "stettelberg": {
    "name": "Stettelberg",
    "slug": "stettelberg",
    "category": "SCENIC_POINT",
    "region": "Alps",
    "country": "Europe",
    "lat": 47.8136922,
    "lng": 9.0757404,
    "nearest_airport": "ZRH",
    "description": "Auto-imported SCENIC_POINT. Altitude: 590m"
  },
  "stieber-wasserfall-cascata-stieber": {
    "name": "Stieber Wasserfall - Cascata Stieber",
    "slug": "stieber-wasserfall-cascata-stieber",
    "category": "SCENIC_POINT",
    "region": "Alps",
    "country": "Europe",
    "lat": 46.8269673,
    "lng": 11.1663106,
    "nearest_airport": "INN",
    "description": "Auto-imported SCENIC_POINT. Altitude: N/Am"
  },
  "stierenberg-rippetli": {
    "name": "Stierenberg - Rippetli",
    "slug": "stierenberg-rippetli",
    "category": "SCENIC_POINT",
    "region": "Alps",
    "country": "Europe",
    "lat": 46.6492362,
    "lng": 7.2804343,
    "nearest_airport": "GVA",
    "description": "Auto-imported SCENIC_POINT. Altitude: N/Am"
  },
  "stierlahnzugjoch": {
    "name": "Stierlahnzugjoch",
    "slug": "stierlahnzugjoch",
    "category": "MOUNTAIN_PASS",
    "region": "Alps",
    "country": "Europe",
    "lat": 47.1934199,
    "lng": 10.3694509,
    "nearest_airport": "INN",
    "description": "Auto-imported MOUNTAIN_PASS. Altitude: 2596m"
  },
  "stierlahnzugjoch-2283": {
    "name": "Stierlahnzugjoch",
    "slug": "stierlahnzugjoch-2283",
    "category": "MOUNTAIN_PASS",
    "region": "Alps",
    "country": "",
    "lat": 47.1934199,
    "lng": 10.3694509,
    "nearest_airport": "",
    "description": "Verified Location."
  },
  "stierlochjoch": {
    "name": "Stierlochjoch",
    "slug": "stierlochjoch",
    "category": "MOUNTAIN_PASS",
    "region": "Alps",
    "country": "Europe",
    "lat": 47.1745711,
    "lng": 10.1001764,
    "nearest_airport": "INN",
    "description": "Auto-imported MOUNTAIN_PASS. Altitude: 2009m"
  },
  "stierlochjoch-493": {
    "name": "Stierlochjoch",
    "slug": "stierlochjoch-493",
    "category": "MOUNTAIN_PASS",
    "region": "Alps",
    "country": "",
    "lat": 47.1745711,
    "lng": 10.1001764,
    "nearest_airport": "",
    "description": "Verified Location."
  },
  "stilfserjoch-passo-stelvio": {
    "name": "Stilfserjoch - Passo Stelvio",
    "slug": "stilfserjoch-passo-stelvio",
    "category": "SCENIC_POINT",
    "region": "Alps",
    "country": "Europe",
    "lat": 46.5289214,
    "lng": 10.4540632,
    "nearest_airport": "INN",
    "description": "Blick vom Stilfserjoch in Richtung Franzenshöhe."
  },
  "stitzel": {
    "name": "Stitzel",
    "slug": "stitzel",
    "category": "SCENIC_POINT",
    "region": "Alps",
    "country": "Europe",
    "lat": 47.4492534,
    "lng": 10.3072599,
    "nearest_airport": "INN",
    "description": "Auto-imported SCENIC_POINT. Altitude: N/Am"
  },
  "stix-aussicht": {
    "name": "Stix-Aussicht",
    "slug": "stix-aussicht",
    "category": "SCENIC_POINT",
    "region": "Alps",
    "country": "Europe",
    "lat": 47.656086,
    "lng": 15.875369,
    "nearest_airport": "VIE",
    "description": "Auto-imported SCENIC_POINT. Altitude: N/Am"
  },
  "stixnerjoch": {
    "name": "Stixnerjoch",
    "slug": "stixnerjoch",
    "category": "MOUNTAIN_PASS",
    "region": "Alps",
    "country": "Europe",
    "lat": 47.5915572,
    "lng": 10.1797268,
    "nearest_airport": "INN",
    "description": "Auto-imported MOUNTAIN_PASS. Altitude: 950m"
  },
  "stjodel": {
    "name": "St.Jodel",
    "slug": "stjodel",
    "category": "SCENIC_POINT",
    "region": "Alps",
    "country": "Europe",
    "lat": 47.0136825,
    "lng": 7.0976823,
    "nearest_airport": "GVA",
    "description": "Auto-imported SCENIC_POINT. Altitude: N/Am"
  },
  "stoani-hans": {
    "name": "Stoani Hans",
    "slug": "stoani-hans",
    "category": "SCENIC_POINT",
    "region": "Alps",
    "country": "Europe",
    "lat": 47.381972,
    "lng": 15.5570229,
    "nearest_airport": "VIE",
    "description": "Auto-imported SCENIC_POINT. Altitude: N/Am"
  },
  "stoani-reinhold": {
    "name": "Stoani Reinhold",
    "slug": "stoani-reinhold",
    "category": "SCENIC_POINT",
    "region": "Alps",
    "country": "Europe",
    "lat": 47.3736506,
    "lng": 15.5528979,
    "nearest_airport": "VIE",
    "description": "Auto-imported SCENIC_POINT. Altitude: N/Am"
  },
  "stock": {
    "name": "Stock",
    "slug": "stock",
    "category": "SCENIC_POINT",
    "region": "Alps",
    "country": "Europe",
    "lat": 46.9455444,
    "lng": 8.5027383,
    "nearest_airport": "ZRH",
    "description": "Auto-imported SCENIC_POINT. Altitude: N/Am"
  },
  "stockberg-ost": {
    "name": "Stockberg Ost",
    "slug": "stockberg-ost",
    "category": "SCENIC_POINT",
    "region": "Alps",
    "country": "Europe",
    "lat": 47.2289335,
    "lng": 9.2480467,
    "nearest_airport": "ZRH",
    "description": "Auto-imported SCENIC_POINT. Altitude: N/Am"
  },
  "stockerehochi": {
    "name": "Stockerehöchi",
    "slug": "stockerehochi",
    "category": "MOUNTAIN_PASS",
    "region": "Alps",
    "country": "Europe",
    "lat": 46.9876059,
    "lng": 7.5096959,
    "nearest_airport": "ZRH",
    "description": "Auto-imported MOUNTAIN_PASS. Altitude: 692m"
  },
  "stockhorn": {
    "name": "Stockhorn",
    "slug": "stockhorn",
    "category": "SCENIC_POINT",
    "region": "Alps",
    "country": "Europe",
    "lat": 46.6940109,
    "lng": 7.5377356,
    "nearest_airport": "ZRH",
    "description": "Auto-imported SCENIC_POINT. Altitude: 2190m"
  },
  "stockhorn-27": {
    "name": "Stockhorn",
    "slug": "stockhorn-27",
    "category": "SCENIC_POINT",
    "region": "Alps",
    "country": "",
    "lat": 46.6940109,
    "lng": 7.5377356,
    "nearest_airport": "",
    "description": "Verified Location."
  },
  "stocklichruz": {
    "name": "Stöcklichrüz",
    "slug": "stocklichruz",
    "category": "SCENIC_POINT",
    "region": "Alps",
    "country": "Europe",
    "lat": 47.1582096,
    "lng": 8.8191347,
    "nearest_airport": "ZRH",
    "description": "Auto-imported SCENIC_POINT. Altitude: N/Am"
  },
  "stoderer-weitblick": {
    "name": "Stoderer Weitblick",
    "slug": "stoderer-weitblick",
    "category": "SCENIC_POINT",
    "region": "Alps",
    "country": "Europe",
    "lat": 47.6987244,
    "lng": 14.2195812,
    "nearest_airport": "SZG",
    "description": "Auto-imported SCENIC_POINT. Altitude: N/Am"
  },
  "stog": {
    "name": "Stog",
    "slug": "stog",
    "category": "MOUNTAIN_PASS",
    "region": "Alps",
    "country": "Europe",
    "lat": 46.3199809,
    "lng": 13.8054391,
    "nearest_airport": "VCE",
    "description": "Auto-imported MOUNTAIN_PASS. Altitude: N/Am"
  },
  "stollen": {
    "name": "Stollen",
    "slug": "stollen",
    "category": "SCENIC_POINT",
    "region": "Alps",
    "country": "Europe",
    "lat": 46.9394208,
    "lng": 8.4874663,
    "nearest_airport": "ZRH",
    "description": "Auto-imported SCENIC_POINT. Altitude: 1678m"
  },
  "stollenkopf": {
    "name": "Stollenkopf",
    "slug": "stollenkopf",
    "category": "SCENIC_POINT",
    "region": "Alps",
    "country": "Europe",
    "lat": 47.1358941,
    "lng": 9.3076534,
    "nearest_airport": "ZRH",
    "description": "Auto-imported SCENIC_POINT. Altitude: N/Am"
  },
  "storeggpass": {
    "name": "Storeggpass",
    "slug": "storeggpass",
    "category": "MOUNTAIN_PASS",
    "region": "Alps",
    "country": "Europe",
    "lat": 46.8447283,
    "lng": 8.3284763,
    "nearest_airport": "ZRH",
    "description": "Auto-imported MOUNTAIN_PASS. Altitude: 1741m"
  },
  "stoss": {
    "name": "Stoss",
    "slug": "stoss",
    "category": "MOUNTAIN_PASS",
    "region": "Alps",
    "country": "Europe",
    "lat": 47.3608479,
    "lng": 9.4948877,
    "nearest_airport": "ZRH",
    "description": "Auto-imported MOUNTAIN_PASS. Altitude: 943m"
  },
  "stoss-2295": {
    "name": "Stoss",
    "slug": "stoss-2295",
    "category": "MOUNTAIN_PASS",
    "region": "Alps",
    "country": "",
    "lat": 47.3608479,
    "lng": 9.4948877,
    "nearest_airport": "",
    "description": "Verified Location."
  },
  "stossfelsen": {
    "name": "Stoßfelsen",
    "slug": "stossfelsen",
    "category": "SCENIC_POINT",
    "region": "Alps",
    "country": "Europe",
    "lat": 47.855031,
    "lng": 8.1475772,
    "nearest_airport": "ZRH",
    "description": "Auto-imported SCENIC_POINT. Altitude: N/Am"
  },
  "stotzig-egg": {
    "name": "Stotzig Egg",
    "slug": "stotzig-egg",
    "category": "SCENIC_POINT",
    "region": "Alps",
    "country": "Europe",
    "lat": 46.7750291,
    "lng": 8.4302491,
    "nearest_airport": "ZRH",
    "description": "Auto-imported SCENIC_POINT. Altitude: 3020m"
  },
  "stovc": {
    "name": "Stovc",
    "slug": "stovc",
    "category": "SCENIC_POINT",
    "region": "Alps",
    "country": "Europe",
    "lat": 46.3033438,
    "lng": 14.2430413,
    "nearest_airport": "VCE",
    "description": "Auto-imported SCENIC_POINT. Altitude: N/Am"
  },
  "strada-romantica-sinio": {
    "name": "Strada Romantica - Sinio",
    "slug": "strada-romantica-sinio",
    "category": "SCENIC_POINT",
    "region": "Alps",
    "country": "Europe",
    "lat": 44.6084271,
    "lng": 8.0380292,
    "nearest_airport": "TRN",
    "description": "Auto-imported SCENIC_POINT. Altitude: N/Am"
  },
  "strakern": {
    "name": "Strakern",
    "slug": "strakern",
    "category": "SCENIC_POINT",
    "region": "Alps",
    "country": "Europe",
    "lat": 47.5040324,
    "lng": 8.4294228,
    "nearest_airport": "ZRH",
    "description": "Views of the Alps on a clear day. Recommended at South Foehn wether conditions."
  },
  "strassberger-furggli": {
    "name": "Strassberger Fürggli",
    "slug": "strassberger-furggli",
    "category": "MOUNTAIN_PASS",
    "region": "Alps",
    "country": "Europe",
    "lat": 46.861495,
    "lng": 9.7586738,
    "nearest_airport": "ZRH",
    "description": "Auto-imported MOUNTAIN_PASS. Altitude: 2308m"
  },
  "strassberger-furggli-2380": {
    "name": "Strassberger Fürggli",
    "slug": "strassberger-furggli-2380",
    "category": "MOUNTAIN_PASS",
    "region": "Alps",
    "country": "",
    "lat": 46.861495,
    "lng": 9.7586738,
    "nearest_airport": "",
    "description": "Verified Location."
  },
  "strassegg": {
    "name": "Straßegg",
    "slug": "strassegg",
    "category": "MOUNTAIN_PASS",
    "region": "Alps",
    "country": "Europe",
    "lat": 47.3898947,
    "lng": 15.5311233,
    "nearest_airport": "VIE",
    "description": "Auto-imported MOUNTAIN_PASS. Altitude: 1163m"
  },
  "strassegg-3536": {
    "name": "Straßegg",
    "slug": "strassegg-3536",
    "category": "MOUNTAIN_PASS",
    "region": "Alps",
    "country": "",
    "lat": 47.3898947,
    "lng": 15.5311233,
    "nearest_airport": "",
    "description": "Verified Location."
  },
  "strausbergsattel": {
    "name": "Strausbergsattel",
    "slug": "strausbergsattel",
    "category": "MOUNTAIN_PASS",
    "region": "Alps",
    "country": "Europe",
    "lat": 47.4742597,
    "lng": 10.3511413,
    "nearest_airport": "INN",
    "description": "Auto-imported MOUNTAIN_PASS. Altitude: 1267m"
  },
  "strazbenica": {
    "name": "Stražbenica",
    "slug": "strazbenica",
    "category": "SCENIC_POINT",
    "region": "Alps",
    "country": "Europe",
    "lat": 43.9637891,
    "lng": 15.6862861,
    "nearest_airport": "VCE",
    "description": "Auto-imported SCENIC_POINT. Altitude: N/Am"
  },
  "strazica": {
    "name": "Stražica",
    "slug": "strazica",
    "category": "SCENIC_POINT",
    "region": "Alps",
    "country": "Europe",
    "lat": 44.1458847,
    "lng": 15.0771037,
    "nearest_airport": "VCE",
    "description": "Auto-imported SCENIC_POINT. Altitude: N/Am"
  },
  "strbacki-buk-1": {
    "name": "Štrbački buk 1",
    "slug": "strbacki-buk-1",
    "category": "SCENIC_POINT",
    "region": "Alps",
    "country": "Europe",
    "lat": 44.6564357,
    "lng": 16.0098103,
    "nearest_airport": "VCE",
    "description": "Auto-imported SCENIC_POINT. Altitude: N/Am"
  },
  "strbacki-buk-2": {
    "name": "Štrbački buk 2",
    "slug": "strbacki-buk-2",
    "category": "SCENIC_POINT",
    "region": "Alps",
    "country": "Europe",
    "lat": 44.6565112,
    "lng": 16.0093515,
    "nearest_airport": "VCE",
    "description": "Auto-imported SCENIC_POINT. Altitude: N/Am"
  },
  "strbacki-buk-3": {
    "name": "Štrbački buk 3",
    "slug": "strbacki-buk-3",
    "category": "SCENIC_POINT",
    "region": "Alps",
    "country": "Europe",
    "lat": 44.65662,
    "lng": 16.0093582,
    "nearest_airport": "VCE",
    "description": "Auto-imported SCENIC_POINT. Altitude: N/Am"
  },
  "strbacki-buk-4": {
    "name": "Štrbački buk 4",
    "slug": "strbacki-buk-4",
    "category": "SCENIC_POINT",
    "region": "Alps",
    "country": "Europe",
    "lat": 44.6568225,
    "lng": 16.0082132,
    "nearest_airport": "VCE",
    "description": "Auto-imported SCENIC_POINT. Altitude: N/Am"
  },
  "streichgampenjoch": {
    "name": "Streichgampenjoch",
    "slug": "streichgampenjoch",
    "category": "MOUNTAIN_PASS",
    "region": "Alps",
    "country": "Europe",
    "lat": 47.2253443,
    "lng": 10.5060101,
    "nearest_airport": "INN",
    "description": "Auto-imported MOUNTAIN_PASS. Altitude: N/Am"
  },
  "strelapass": {
    "name": "Strelapass",
    "slug": "strelapass",
    "category": "MOUNTAIN_PASS",
    "region": "Alps",
    "country": "Europe",
    "lat": 46.8129261,
    "lng": 9.7962072,
    "nearest_airport": "ZRH",
    "description": "Auto-imported MOUNTAIN_PASS. Altitude: 2342m"
  },
  "strelapass-195": {
    "name": "Strelapass",
    "slug": "strelapass-195",
    "category": "MOUNTAIN_PASS",
    "region": "Alps",
    "country": "",
    "lat": 46.8129261,
    "lng": 9.7962072,
    "nearest_airport": "",
    "description": "Verified Location."
  },
  "stretta-del-ciapusso": {
    "name": "Stretta del Ciapusso",
    "slug": "stretta-del-ciapusso",
    "category": "MOUNTAIN_PASS",
    "region": "Alps",
    "country": "Europe",
    "lat": 44.4810457,
    "lng": 9.1616976,
    "nearest_airport": "MXP",
    "description": "Auto-imported MOUNTAIN_PASS. Altitude: 905m"
  },
  "stricevo": {
    "name": "Stričevo",
    "slug": "stricevo",
    "category": "SCENIC_POINT",
    "region": "Alps",
    "country": "Europe",
    "lat": 46.1826145,
    "lng": 16.1264916,
    "nearest_airport": "VIE",
    "description": "Auto-imported SCENIC_POINT. Altitude: N/Am"
  },
  "strick": {
    "name": "Strick",
    "slug": "strick",
    "category": "SCENIC_POINT",
    "region": "Alps",
    "country": "Europe",
    "lat": 46.854521,
    "lng": 7.9856113,
    "nearest_airport": "ZRH",
    "description": "Auto-imported SCENIC_POINT. Altitude: N/Am"
  },
  "strilez": {
    "name": "Strilež",
    "slug": "strilez",
    "category": "SCENIC_POINT",
    "region": "Alps",
    "country": "Europe",
    "lat": 45.2446191,
    "lng": 14.8165678,
    "nearest_airport": "VCE",
    "description": "Auto-imported SCENIC_POINT. Altitude: N/Am"
  },
  "strindenscharte": {
    "name": "Strindenscharte",
    "slug": "strindenscharte",
    "category": "MOUNTAIN_PASS",
    "region": "Alps",
    "country": "Europe",
    "lat": 47.4616792,
    "lng": 10.5417562,
    "nearest_airport": "INN",
    "description": "Auto-imported MOUNTAIN_PASS. Altitude: 1855m"
  },
  "stromschnelle": {
    "name": "Stromschnelle",
    "slug": "stromschnelle",
    "category": "SCENIC_POINT",
    "region": "Alps",
    "country": "Europe",
    "lat": 46.0989849,
    "lng": 7.9199264,
    "nearest_airport": "MXP",
    "description": "Auto-imported SCENIC_POINT. Altitude: N/Am"
  },
  "stronerwand": {
    "name": "Stronerwand",
    "slug": "stronerwand",
    "category": "SCENIC_POINT",
    "region": "Alps",
    "country": "Europe",
    "lat": 46.6263186,
    "lng": 13.6282073,
    "nearest_airport": "SZG",
    "description": "Auto-imported SCENIC_POINT. Altitude: 1026m"
  },
  "strudelkopfsattel-sella-di-monte-specie": {
    "name": "Strudelkopfsattel - Sella di Monte Specie",
    "slug": "strudelkopfsattel-sella-di-monte-specie",
    "category": "MOUNTAIN_PASS",
    "region": "Alps",
    "country": "Europe",
    "lat": 46.6435077,
    "lng": 12.2051962,
    "nearest_airport": "INN",
    "description": "Auto-imported MOUNTAIN_PASS. Altitude: 2204m"
  },
  "strudelkopfsattel-sella-di-monte-specie-1631": {
    "name": "Strudelkopfsattel - Sella di Monte Specie",
    "slug": "strudelkopfsattel-sella-di-monte-specie-1631",
    "category": "MOUNTAIN_PASS",
    "region": "Alps",
    "country": "",
    "lat": 46.6435077,
    "lng": 12.2051962,
    "nearest_airport": "",
    "description": "Verified Location."
  },
  "strunjanska-dolina": {
    "name": "Strunjanska dolina",
    "slug": "strunjanska-dolina",
    "category": "SCENIC_POINT",
    "region": "Alps",
    "country": "Europe",
    "lat": 45.5250942,
    "lng": 13.6371045,
    "nearest_airport": "VCE",
    "description": "Auto-imported SCENIC_POINT. Altitude: N/Am"
  },
  "stubhohe": {
    "name": "Stubhöhe",
    "slug": "stubhohe",
    "category": "MOUNTAIN_PASS",
    "region": "Alps",
    "country": "Europe",
    "lat": 47.270911,
    "lng": 13.4684981,
    "nearest_airport": "SZG",
    "description": "Auto-imported MOUNTAIN_PASS. Altitude: 1739m"
  },
  "stuckli-kreuz": {
    "name": "Stuckli Kreuz",
    "slug": "stuckli-kreuz",
    "category": "SCENIC_POINT",
    "region": "Alps",
    "country": "Europe",
    "lat": 46.8418874,
    "lng": 8.2567833,
    "nearest_airport": "ZRH",
    "description": "Auto-imported SCENIC_POINT. Altitude: 1800m"
  },
  "studorski-preval": {
    "name": "Studorski preval",
    "slug": "studorski-preval",
    "category": "MOUNTAIN_PASS",
    "region": "Alps",
    "country": "Europe",
    "lat": 46.3543547,
    "lng": 13.8820728,
    "nearest_airport": "VCE",
    "description": "Auto-imported MOUNTAIN_PASS. Altitude: 1892m"
  },
  "stuhl": {
    "name": "Stuhl",
    "slug": "stuhl",
    "category": "SCENIC_POINT",
    "region": "Alps",
    "country": "Europe",
    "lat": 47.8768868,
    "lng": 9.5709885,
    "nearest_airport": "ZRH",
    "description": "Auto-imported SCENIC_POINT. Altitude: N/Am"
  },
  "stuhlscharte": {
    "name": "Stuhlscharte",
    "slug": "stuhlscharte",
    "category": "MOUNTAIN_PASS",
    "region": "Alps",
    "country": "Europe",
    "lat": 47.442233,
    "lng": 11.4709437,
    "nearest_airport": "INN",
    "description": "Auto-imported MOUNTAIN_PASS. Altitude: 1821m"
  },
  "stuiben-wasserfall": {
    "name": "Stuiben Wasserfall",
    "slug": "stuiben-wasserfall",
    "category": "SCENIC_POINT",
    "region": "Alps",
    "country": "Europe",
    "lat": 47.133974,
    "lng": 10.7672903,
    "nearest_airport": "INN",
    "description": "Auto-imported SCENIC_POINT. Altitude: N/Am"
  },
  "stuibenfall-plattform-1": {
    "name": "Stuibenfall Plattform 1",
    "slug": "stuibenfall-plattform-1",
    "category": "SCENIC_POINT",
    "region": "Alps",
    "country": "Europe",
    "lat": 47.1261017,
    "lng": 10.9465855,
    "nearest_airport": "INN",
    "description": "Auto-imported SCENIC_POINT. Altitude: N/Am"
  },
  "stuibenfall-plattform-2": {
    "name": "Stuibenfall Plattform 2",
    "slug": "stuibenfall-plattform-2",
    "category": "SCENIC_POINT",
    "region": "Alps",
    "country": "Europe",
    "lat": 47.1254799,
    "lng": 10.9477077,
    "nearest_airport": "INN",
    "description": "Auto-imported SCENIC_POINT. Altitude: N/Am"
  },
  "stuibenfall-plattform-3": {
    "name": "Stuibenfall Plattform 3",
    "slug": "stuibenfall-plattform-3",
    "category": "SCENIC_POINT",
    "region": "Alps",
    "country": "Europe",
    "lat": 47.1262263,
    "lng": 10.9489147,
    "nearest_airport": "INN",
    "description": "Auto-imported SCENIC_POINT. Altitude: N/Am"
  },
  "stuibenfall-plattform-4": {
    "name": "Stuibenfall Plattform 4",
    "slug": "stuibenfall-plattform-4",
    "category": "SCENIC_POINT",
    "region": "Alps",
    "country": "Europe",
    "lat": 47.1264337,
    "lng": 10.949194,
    "nearest_airport": "INN",
    "description": "Auto-imported SCENIC_POINT. Altitude: N/Am"
  },
  "stuibenfall-plattform-5": {
    "name": "Stuibenfall Plattform 5",
    "slug": "stuibenfall-plattform-5",
    "category": "SCENIC_POINT",
    "region": "Alps",
    "country": "Europe",
    "lat": 47.1267843,
    "lng": 10.9489562,
    "nearest_airport": "INN",
    "description": "Auto-imported SCENIC_POINT. Altitude: N/Am"
  },
  "stuibenfalle": {
    "name": "Stuibenfälle",
    "slug": "stuibenfalle",
    "category": "SCENIC_POINT",
    "region": "Alps",
    "country": "Europe",
    "lat": 47.4866665,
    "lng": 10.760953,
    "nearest_airport": "INN",
    "description": "Auto-imported SCENIC_POINT. Altitude: N/Am"
  },
  "stuibenfalle-brucke": {
    "name": "Stuibenfälle Brücke",
    "slug": "stuibenfalle-brucke",
    "category": "SCENIC_POINT",
    "region": "Alps",
    "country": "Europe",
    "lat": 47.4920391,
    "lng": 10.7513561,
    "nearest_airport": "INN",
    "description": "Auto-imported SCENIC_POINT. Altitude: N/Am"
  },
  "stuibenfalle-rundweg": {
    "name": "Stuibenfälle Rundweg",
    "slug": "stuibenfalle-rundweg",
    "category": "SCENIC_POINT",
    "region": "Alps",
    "country": "Europe",
    "lat": 47.4912668,
    "lng": 10.7559091,
    "nearest_airport": "INN",
    "description": "Auto-imported SCENIC_POINT. Altitude: N/Am"
  },
  "stuibensattel": {
    "name": "Stuibensattel",
    "slug": "stuibensattel",
    "category": "MOUNTAIN_PASS",
    "region": "Alps",
    "country": "Europe",
    "lat": 47.4978632,
    "lng": 10.4361153,
    "nearest_airport": "INN",
    "description": "Auto-imported MOUNTAIN_PASS. Altitude: 1600m"
  },
  "stuller-wasserfall-cascate-di-stulles": {
    "name": "Stuller Wasserfall - Cascate di Stulles",
    "slug": "stuller-wasserfall-cascate-di-stulles",
    "category": "SCENIC_POINT",
    "region": "Alps",
    "country": "Europe",
    "lat": 46.8237284,
    "lng": 11.1922552,
    "nearest_airport": "INN",
    "description": "Auto-imported SCENIC_POINT. Altitude: N/Am"
  },
  "stupperkapelle": {
    "name": "Stupperkapelle",
    "slug": "stupperkapelle",
    "category": "SCENIC_POINT",
    "region": "Alps",
    "country": "Europe",
    "lat": 47.9163967,
    "lng": 12.734989,
    "nearest_airport": "SZG",
    "description": "Auto-imported SCENIC_POINT. Altitude: N/Am"
  },
  "sturna-buhel": {
    "name": "Sturna Bühel",
    "slug": "sturna-buhel",
    "category": "SCENIC_POINT",
    "region": "Alps",
    "country": "Europe",
    "lat": 47.2142933,
    "lng": 9.6069725,
    "nearest_airport": "ZRH",
    "description": "Auto-imported SCENIC_POINT. Altitude: 765m"
  },
  "stutenbodensattel-sella-della-spalla": {
    "name": "Stutenbodensattel / Sella della Spalla",
    "slug": "stutenbodensattel-sella-della-spalla",
    "category": "MOUNTAIN_PASS",
    "region": "Alps",
    "country": "Europe",
    "lat": 46.5636779,
    "lng": 13.3381909,
    "nearest_airport": "SZG",
    "description": "Auto-imported MOUNTAIN_PASS. Altitude: 1432m"
  },
  "stutz": {
    "name": "Stutz",
    "slug": "stutz",
    "category": "SCENIC_POINT",
    "region": "Alps",
    "country": "Europe",
    "lat": 47.9002829,
    "lng": 7.862598,
    "nearest_airport": "ZRH",
    "description": "Auto-imported SCENIC_POINT. Altitude: N/Am"
  },
  "stutzel": {
    "name": "Stützel",
    "slug": "stutzel",
    "category": "SCENIC_POINT",
    "region": "Alps",
    "country": "Europe",
    "lat": 47.4080382,
    "lng": 10.2996454,
    "nearest_airport": "INN",
    "description": "Auto-imported SCENIC_POINT. Altitude: N/Am"
  }
}