{
  "ticnica": {
    "name": "Tičnica",
    "slug": "ticnica",
    "category": "SCENIC_POINT",
    "region": "Alps",
    "country": "Europe",
    "lat": 45.9933662,
    "lng": 14.0244303,
    "nearest_airport": "VCE",
    "description": "Auto-imported SCENIC_POINT. Altitude: 580m"
  },
  "tiefblick-ins-elmaugries": {
    "name": "Tiefblick ins Elmaugries",
    "slug": "tiefblick-ins-elmaugries",
    "category": "SCENIC_POINT",
    "region": "Alps",
    "country": "Europe",
    "lat": 47.5220813,
    "lng": 10.9600943,
    "nearest_airport": "INN",
    "description": "Auto-imported SCENIC_POINT. Altitude: N/Am"
  },
  "tiefenbachjoch": {
    "name": "Tiefenbachjoch",
    "slug": "tiefenbachjoch",
    "category": "MOUNTAIN_PASS",
    "region": "Alps",
    "country": "Europe",
    "lat": 46.9219168,
    "lng": 10.919323,
    "nearest_airport": "INN",
    "description": "Auto-imported MOUNTAIN_PASS. Altitude: 3233m"
  },
  "tiefenbachjoch-992": {
    "name": "Tiefenbachjoch",
    "slug": "tiefenbachjoch-992",
    "category": "MOUNTAIN_PASS",
    "region": "Alps",
    "country": "",
    "lat": 46.9219168,
    "lng": 10.919323,
    "nearest_airport": "",
    "description": "Verified Location."
  },
  "tiefenbachklamm": {
    "name": "Tiefenbachklamm",
    "slug": "tiefenbachklamm",
    "category": "SCENIC_POINT",
    "region": "Alps",
    "country": "Europe",
    "lat": 47.4944611,
    "lng": 11.880591,
    "nearest_airport": "INN",
    "description": "Auto-imported SCENIC_POINT. Altitude: N/Am"
  },
  "tiefjoch": {
    "name": "Tiefjoch",
    "slug": "tiefjoch",
    "category": "MOUNTAIN_PASS",
    "region": "Alps",
    "country": "Europe",
    "lat": 47.4846854,
    "lng": 10.6439505,
    "nearest_airport": "INN",
    "description": "Auto-imported MOUNTAIN_PASS. Altitude: 1717m"
  },
  "tiefsee": {
    "name": "Tiefsee",
    "slug": "tiefsee",
    "category": "SCENIC_POINT",
    "region": "Alps",
    "country": "Europe",
    "lat": 47.6602118,
    "lng": 11.0103581,
    "nearest_airport": "INN",
    "description": "Auto-imported SCENIC_POINT. Altitude: N/Am"
  },
  "tiefsteinklamm": {
    "name": "Tiefsteinklamm",
    "slug": "tiefsteinklamm",
    "category": "SCENIC_POINT",
    "region": "Alps",
    "country": "Europe",
    "lat": 47.9460712,
    "lng": 13.1639334,
    "nearest_airport": "SZG",
    "description": "Auto-imported SCENIC_POINT. Altitude: N/Am"
  },
  "tierbergsattel": {
    "name": "Tierbergsattel",
    "slug": "tierbergsattel",
    "category": "MOUNTAIN_PASS",
    "region": "Alps",
    "country": "Europe",
    "lat": 46.387459,
    "lng": 7.4675263,
    "nearest_airport": "GVA",
    "description": "Auto-imported MOUNTAIN_PASS. Altitude: 2653m"
  },
  "tierbergsattel-1020": {
    "name": "Tierbergsattel",
    "slug": "tierbergsattel-1020",
    "category": "MOUNTAIN_PASS",
    "region": "Alps",
    "country": "",
    "lat": 46.387459,
    "lng": 7.4675263,
    "nearest_airport": "",
    "description": "Verified Location."
  },
  "tiergruble": {
    "name": "Tiergrüble",
    "slug": "tiergruble",
    "category": "MOUNTAIN_PASS",
    "region": "Alps",
    "country": "Europe",
    "lat": 47.7769662,
    "lng": 7.9452179,
    "nearest_airport": "ZRH",
    "description": "Auto-imported MOUNTAIN_PASS. Altitude: 1068m"
  },
  "tilliacher-joch-forcella-dignas": {
    "name": "Tilliacher Joch - Forcella Dignas",
    "slug": "tilliacher-joch-forcella-dignas",
    "category": "MOUNTAIN_PASS",
    "region": "Alps",
    "country": "Europe",
    "lat": 46.6563549,
    "lng": 12.5823907,
    "nearest_airport": "INN",
    "description": "Auto-imported MOUNTAIN_PASS. Altitude: 2094m"
  },
  "tilliacher-joch-forcella-dignas-719": {
    "name": "Tilliacher Joch - Forcella Dignas",
    "slug": "tilliacher-joch-forcella-dignas-719",
    "category": "MOUNTAIN_PASS",
    "region": "Alps",
    "country": "",
    "lat": 46.6563549,
    "lng": 12.5823907,
    "nearest_airport": "",
    "description": "Verified Location."
  },
  "timmelsjoch-passo-rombo": {
    "name": "Timmelsjoch - Passo Rombo",
    "slug": "timmelsjoch-passo-rombo",
    "category": "MOUNTAIN_PASS",
    "region": "Alps",
    "country": "Europe",
    "lat": 46.9053451,
    "lng": 11.0973198,
    "nearest_airport": "INN",
    "description": "Auto-imported MOUNTAIN_PASS. Altitude: 2474m"
  },
  "timmelsjoch-passo-rombo-3616": {
    "name": "Timmelsjoch - Passo Rombo",
    "slug": "timmelsjoch-passo-rombo-3616",
    "category": "MOUNTAIN_PASS",
    "region": "Alps",
    "country": "",
    "lat": 46.9053451,
    "lng": 11.0973198,
    "nearest_airport": "",
    "description": "Verified Location."
  },
  "tine-de-conflens": {
    "name": "Tine de Conflens",
    "slug": "tine-de-conflens",
    "category": "SCENIC_POINT",
    "region": "Alps",
    "country": "Europe",
    "lat": 46.6555141,
    "lng": 6.4935728,
    "nearest_airport": "GVA",
    "description": "Auto-imported SCENIC_POINT. Altitude: N/Am"
  },
  "tiocan": {
    "name": "Tiocan",
    "slug": "tiocan",
    "category": "SCENIC_POINT",
    "region": "Alps",
    "country": "Europe",
    "lat": 46.2480304,
    "lng": 5.9581476,
    "nearest_airport": "GVA",
    "description": "Auto-imported SCENIC_POINT. Altitude: 920m"
  },
  "tir-du-canon-de-midi": {
    "name": "Tir du canon de midi",
    "slug": "tir-du-canon-de-midi",
    "category": "SCENIC_POINT",
    "region": "Alps",
    "country": "Europe",
    "lat": 43.6972507,
    "lng": 7.2804723,
    "nearest_airport": "NCE",
    "description": "Endroit d'où est tiré le coup de canon de midi, tous les jours (sauf le 14 juillet, en hommage aux victimes de l'attentat de 2016)."
  },
  "tirosgoutte": {
    "name": "Tirosgoutte",
    "slug": "tirosgoutte",
    "category": "SCENIC_POINT",
    "region": "Alps",
    "country": "Europe",
    "lat": 47.9810924,
    "lng": 6.7656906,
    "nearest_airport": "ZRH",
    "description": "Auto-imported SCENIC_POINT. Altitude: N/Am"
  },
  "tischlwanger-torl-passo-di-pal-grande": {
    "name": "Tischlwanger Törl / Passo di Pal grande",
    "slug": "tischlwanger-torl-passo-di-pal-grande",
    "category": "MOUNTAIN_PASS",
    "region": "Alps",
    "country": "Europe",
    "lat": 46.5994555,
    "lng": 13.0067274,
    "nearest_airport": "VCE",
    "description": "Auto-imported MOUNTAIN_PASS. Altitude: 1761m"
  },
  "tisenjoch-giogo-di-tisa": {
    "name": "Tisenjoch - Giogo di Tisa",
    "slug": "tisenjoch-giogo-di-tisa",
    "category": "MOUNTAIN_PASS",
    "region": "Alps",
    "country": "Europe",
    "lat": 46.7785823,
    "lng": 10.8414097,
    "nearest_airport": "INN",
    "description": "Auto-imported MOUNTAIN_PASS. Altitude: 3188m"
  },
  "tisenjoch-giogo-di-tisa-2398": {
    "name": "Tisenjoch - Giogo di Tisa",
    "slug": "tisenjoch-giogo-di-tisa-2398",
    "category": "MOUNTAIN_PASS",
    "region": "Alps",
    "country": "",
    "lat": 46.7785823,
    "lng": 10.8414097,
    "nearest_airport": "",
    "description": "Verified Location."
  },
  "titisee-feldberg-hollental": {
    "name": "Titisee-Feldberg Höllental",
    "slug": "titisee-feldberg-hollental",
    "category": "SCENIC_POINT",
    "region": "Alps",
    "country": "Europe",
    "lat": 47.9014274,
    "lng": 8.1836051,
    "nearest_airport": "ZRH",
    "description": "Auto-imported SCENIC_POINT. Altitude: N/Am"
  },
  "titlisblick": {
    "name": "Titlisblick",
    "slug": "titlisblick",
    "category": "SCENIC_POINT",
    "region": "Alps",
    "country": "Europe",
    "lat": 47.277882,
    "lng": 8.1624298,
    "nearest_airport": "ZRH",
    "description": "Auto-imported SCENIC_POINT. Altitude: N/Am"
  },
  "titschen-warte": {
    "name": "Titschen Warte",
    "slug": "titschen-warte",
    "category": "SCENIC_POINT",
    "region": "Alps",
    "country": "Europe",
    "lat": 46.4677932,
    "lng": 11.3818862,
    "nearest_airport": "INN",
    "description": "Auto-imported SCENIC_POINT. Altitude: N/Am"
  }
}