{
  "tuckettjoch-passo-di-tuckett": {
    "name": "Tuckettjoch - Passo di Tuckett",
    "slug": "tuckettjoch-passo-di-tuckett",
    "category": "MOUNTAIN_PASS",
    "region": "Alps",
    "country": "Europe",
    "lat": 46.4981141,
    "lng": 10.4918582,
    "nearest_airport": "INN",
    "description": "Auto-imported MOUNTAIN_PASS. Altitude: 3344m"
  },
  "tuckettjoch-passo-di-tuckett-1280": {
    "name": "Tuckettjoch - Passo di Tuckett",
    "slug": "tuckettjoch-passo-di-tuckett-1280",
    "category": "MOUNTAIN_PASS",
    "region": "Alps",
    "country": "",
    "lat": 46.4981141,
    "lng": 10.4918582,
    "nearest_airport": "",
    "description": "Verified Location."
  },
  "tuf-calcaire": {
    "name": "Tuf calcaire",
    "slug": "tuf-calcaire",
    "category": "SCENIC_POINT",
    "region": "Alps",
    "country": "Europe",
    "lat": 45.0457247,
    "lng": 5.7158459,
    "nearest_airport": "GVA",
    "description": "Auto-imported SCENIC_POINT. Altitude: N/Am"
  },
  "tufels-chanzel": {
    "name": "Tüfels Chanzel",
    "slug": "tufels-chanzel",
    "category": "SCENIC_POINT",
    "region": "Alps",
    "country": "Europe",
    "lat": 47.5732779,
    "lng": 8.5752617,
    "nearest_airport": "ZRH",
    "description": "Auto-imported SCENIC_POINT. Altitude: N/Am"
  },
  "tufels-chuchi": {
    "name": "Tüfels-Chuchi",
    "slug": "tufels-chuchi",
    "category": "SCENIC_POINT",
    "region": "Alps",
    "country": "Europe",
    "lat": 47.5252246,
    "lng": 8.1840904,
    "nearest_airport": "ZRH",
    "description": "Auto-imported SCENIC_POINT. Altitude: N/Am"
  },
  "tulfein-jochl": {
    "name": "Tulfein Jöchl",
    "slug": "tulfein-jochl",
    "category": "MOUNTAIN_PASS",
    "region": "Alps",
    "country": "Europe",
    "lat": 47.2160193,
    "lng": 11.534547,
    "nearest_airport": "INN",
    "description": "Auto-imported MOUNTAIN_PASS. Altitude: 2278m"
  },
  "tulfein-jochl-233": {
    "name": "Tulfein Jöchl",
    "slug": "tulfein-jochl-233",
    "category": "MOUNTAIN_PASS",
    "region": "Alps",
    "country": "",
    "lat": 47.2160193,
    "lng": 11.534547,
    "nearest_airport": "",
    "description": "Verified Location."
  },
  "tumpener-wasserfall": {
    "name": "Tumpener Wasserfall",
    "slug": "tumpener-wasserfall",
    "category": "SCENIC_POINT",
    "region": "Alps",
    "country": "Europe",
    "lat": 47.1749174,
    "lng": 10.902328,
    "nearest_airport": "INN",
    "description": "Auto-imported SCENIC_POINT. Altitude: N/Am"
  },
  "tumulus-de-vecoux-table-dorientation": {
    "name": "Tumulus de Vecoux / Table d'orientation",
    "slug": "tumulus-de-vecoux-table-dorientation",
    "category": "SCENIC_POINT",
    "region": "Alps",
    "country": "Europe",
    "lat": 47.9662698,
    "lng": 6.6510318,
    "nearest_airport": "ZRH",
    "description": "Auto-imported SCENIC_POINT. Altitude: N/Am"
  },
  "tungelpass": {
    "name": "Tungelpass",
    "slug": "tungelpass",
    "category": "MOUNTAIN_PASS",
    "region": "Alps",
    "country": "Europe",
    "lat": 46.3929358,
    "lng": 7.3784259,
    "nearest_airport": "GVA",
    "description": "Auto-imported MOUNTAIN_PASS. Altitude: N/Am"
  },
  "tungelpass-3607": {
    "name": "Tungelpass",
    "slug": "tungelpass-3607",
    "category": "MOUNTAIN_PASS",
    "region": "Alps",
    "country": "",
    "lat": 46.3929358,
    "lng": 7.3784259,
    "nearest_airport": "",
    "description": "Verified Location."
  },
  "tunnel-du-fayet": {
    "name": "Tunnel du Fayet",
    "slug": "tunnel-du-fayet",
    "category": "SCENIC_POINT",
    "region": "Alps",
    "country": "Europe",
    "lat": 43.7353987,
    "lng": 6.3653619,
    "nearest_airport": "NCE",
    "description": "Auto-imported SCENIC_POINT. Altitude: N/Am"
  },
  "tunnelfenster": {
    "name": "Tunnelfenster",
    "slug": "tunnelfenster",
    "category": "SCENIC_POINT",
    "region": "Alps",
    "country": "Europe",
    "lat": 47.4332343,
    "lng": 11.0515501,
    "nearest_airport": "INN",
    "description": "Auto-imported SCENIC_POINT. Altitude: N/Am"
  },
  "tuora": {
    "name": "Tuora",
    "slug": "tuora",
    "category": "SCENIC_POINT",
    "region": "Alps",
    "country": "Europe",
    "lat": 46.8091508,
    "lng": 9.2966409,
    "nearest_airport": "ZRH",
    "description": "Auto-imported SCENIC_POINT. Altitude: N/Am"
  },
  "turkenkarscharte": {
    "name": "Türkenkarscharte",
    "slug": "turkenkarscharte",
    "category": "MOUNTAIN_PASS",
    "region": "Alps",
    "country": "Europe",
    "lat": 47.6298288,
    "lng": 14.1323756,
    "nearest_airport": "SZG",
    "description": "Auto-imported MOUNTAIN_PASS. Altitude: N/Am"
  },
  "turkenkopf": {
    "name": "Türkenkopf",
    "slug": "turkenkopf",
    "category": "SCENIC_POINT",
    "region": "Alps",
    "country": "Europe",
    "lat": 47.7079248,
    "lng": 14.5266665,
    "nearest_airport": "SZG",
    "description": "Auto-imported SCENIC_POINT. Altitude: N/Am"
  },
  "turli": {
    "name": "Türli",
    "slug": "turli",
    "category": "MOUNTAIN_PASS",
    "region": "Alps",
    "country": "Europe",
    "lat": 47.2639846,
    "lng": 8.7129321,
    "nearest_airport": "ZRH",
    "description": "Auto-imported MOUNTAIN_PASS. Altitude: 615m"
  },
  "turm": {
    "name": "Turm",
    "slug": "turm",
    "category": "SCENIC_POINT",
    "region": "Alps",
    "country": "Europe",
    "lat": 47.6453143,
    "lng": 9.1339424,
    "nearest_airport": "ZRH",
    "description": "Auto-imported SCENIC_POINT. Altitude: N/Am"
  },
  "turm-2689": {
    "name": "Turm",
    "slug": "turm-2689",
    "category": "SCENIC_POINT",
    "region": "Alps",
    "country": "",
    "lat": 47.6453143,
    "lng": 9.1339424,
    "nearest_airport": "",
    "description": "Official Website Available. "
  },
  "turm-burgruine-landsee": {
    "name": "Turm Burgruine Landsee",
    "slug": "turm-burgruine-landsee",
    "category": "SCENIC_POINT",
    "region": "Alps",
    "country": "Europe",
    "lat": 47.5629498,
    "lng": 16.3497926,
    "nearest_airport": "VIE",
    "description": "Auto-imported SCENIC_POINT. Altitude: 665m"
  },
  "turmereck": {
    "name": "Türmereck",
    "slug": "turmereck",
    "category": "SCENIC_POINT",
    "region": "Alps",
    "country": "Europe",
    "lat": 47.7085169,
    "lng": 12.8785333,
    "nearest_airport": "SZG",
    "description": "Auto-imported SCENIC_POINT. Altitude: N/Am"
  },
  "turmljoch": {
    "name": "Türmljoch",
    "slug": "turmljoch",
    "category": "MOUNTAIN_PASS",
    "region": "Alps",
    "country": "Europe",
    "lat": 47.0648157,
    "lng": 12.3147039,
    "nearest_airport": "INN",
    "description": "Auto-imported MOUNTAIN_PASS. Altitude: 2772m"
  },
  "turmljoch-2780": {
    "name": "Türmljoch",
    "slug": "turmljoch-2780",
    "category": "MOUNTAIN_PASS",
    "region": "Alps",
    "country": "",
    "lat": 47.0648157,
    "lng": 12.3147039,
    "nearest_airport": "",
    "description": "Verified Location."
  },
  "turmscharte": {
    "name": "Turmscharte",
    "slug": "turmscharte",
    "category": "MOUNTAIN_PASS",
    "region": "Alps",
    "country": "Europe",
    "lat": 47.0645567,
    "lng": 11.1156377,
    "nearest_airport": "INN",
    "description": "Auto-imported MOUNTAIN_PASS. Altitude: 3126m"
  },
  "turmscharte-2881": {
    "name": "Turmscharte",
    "slug": "turmscharte-2881",
    "category": "MOUNTAIN_PASS",
    "region": "Alps",
    "country": "",
    "lat": 47.0645567,
    "lng": 11.1156377,
    "nearest_airport": "",
    "description": "Verified Location."
  },
  "turmstein": {
    "name": "Turmstein",
    "slug": "turmstein",
    "category": "SCENIC_POINT",
    "region": "Alps",
    "country": "Europe",
    "lat": 47.769739,
    "lng": 15.7820888,
    "nearest_airport": "VIE",
    "description": "Auto-imported SCENIC_POINT. Altitude: 1416m"
  },
  "turn": {
    "name": "Turn",
    "slug": "turn",
    "category": "SCENIC_POINT",
    "region": "Alps",
    "country": "Europe",
    "lat": 46.3391119,
    "lng": 14.0363539,
    "nearest_airport": "VCE",
    "description": "Auto-imported SCENIC_POINT. Altitude: 1250m"
  },
  "turnac": {
    "name": "Turnac",
    "slug": "turnac",
    "category": "SCENIC_POINT",
    "region": "Alps",
    "country": "Europe",
    "lat": 45.2308208,
    "lng": 14.6932945,
    "nearest_airport": "VCE",
    "description": "Auto-imported SCENIC_POINT. Altitude: N/Am"
  },
  "turnce": {
    "name": "Turnče",
    "slug": "turnce",
    "category": "SCENIC_POINT",
    "region": "Alps",
    "country": "Europe",
    "lat": 46.1482076,
    "lng": 15.4184859,
    "nearest_airport": "VIE",
    "description": "Auto-imported SCENIC_POINT. Altitude: 595m"
  },
  "turnstile": {
    "name": "Turnstile",
    "slug": "turnstile",
    "category": "SCENIC_POINT",
    "region": "Alps",
    "country": "Europe",
    "lat": 47.4549484,
    "lng": 12.7934136,
    "nearest_airport": "SZG",
    "description": "Auto-imported SCENIC_POINT. Altitude: N/Am"
  },
  "turracher-hohe": {
    "name": "Turracher Höhe",
    "slug": "turracher-hohe",
    "category": "MOUNTAIN_PASS",
    "region": "Alps",
    "country": "Europe",
    "lat": 46.9131659,
    "lng": 13.8764531,
    "nearest_airport": "SZG",
    "description": "Auto-imported MOUNTAIN_PASS. Altitude: 1795m"
  },
  "turracher-hohe-3830": {
    "name": "Turracher Höhe",
    "slug": "turracher-hohe-3830",
    "category": "MOUNTAIN_PASS",
    "region": "Alps",
    "country": "",
    "lat": 46.9131659,
    "lng": 13.8764531,
    "nearest_airport": "",
    "description": "Verified Location."
  },
  "turska-vratca": {
    "name": "Turška vratca",
    "slug": "turska-vratca",
    "category": "MOUNTAIN_PASS",
    "region": "Alps",
    "country": "Europe",
    "lat": 46.2920628,
    "lng": 13.7595751,
    "nearest_airport": "VCE",
    "description": "Auto-imported MOUNTAIN_PASS. Altitude: 1608m"
  },
  "tuscak-gradina": {
    "name": "Tušćak Gradina",
    "slug": "tuscak-gradina",
    "category": "SCENIC_POINT",
    "region": "Alps",
    "country": "Europe",
    "lat": 45.8235641,
    "lng": 15.5625844,
    "nearest_airport": "VCE",
    "description": "Auto-imported SCENIC_POINT. Altitude: 585m"
  },
  "tuscak-gradina-5913": {
    "name": "Tušćak Gradina",
    "slug": "tuscak-gradina-5913",
    "category": "SCENIC_POINT",
    "region": "Alps",
    "country": "",
    "lat": 45.8235641,
    "lng": 15.5625844,
    "nearest_airport": "",
    "description": "Verified Location."
  },
  "tuskov-gric": {
    "name": "Tuškov grič",
    "slug": "tuskov-gric",
    "category": "MOUNTAIN_PASS",
    "region": "Alps",
    "country": "Europe",
    "lat": 46.1713258,
    "lng": 14.042378,
    "nearest_airport": "VCE",
    "description": "Auto-imported MOUNTAIN_PASS. Altitude: 1010m"
  }
}