{
  "via-dino-col-via-rigola": {
    "name": "Via Dino Col - Via Rigola",
    "slug": "via-dino-col-via-rigola",
    "category": "SCENIC_POINT",
    "region": "Alps",
    "country": "Europe",
    "lat": 44.4127751,
    "lng": 8.9069584,
    "nearest_airport": "TRN",
    "description": "Auto-imported SCENIC_POINT. Altitude: N/Am"
  },
  "via-salsi-su-argine-san-marco": {
    "name": "Via Salsi su Argine San Marco",
    "slug": "via-salsi-su-argine-san-marco",
    "category": "SCENIC_POINT",
    "region": "Alps",
    "country": "Europe",
    "lat": 45.5757579,
    "lng": 12.5389731,
    "nearest_airport": "VCE",
    "description": "Auto-imported SCENIC_POINT. Altitude: N/Am"
  },
  "viadukt-view": {
    "name": "viadukt view",
    "slug": "viadukt-view",
    "category": "SCENIC_POINT",
    "region": "Alps",
    "country": "Europe",
    "lat": 47.8374873,
    "lng": 13.071209,
    "nearest_airport": "SZG",
    "description": "Auto-imported SCENIC_POINT. Altitude: N/Am"
  },
  "vidikovac": {
    "name": "Vidikovac",
    "slug": "vidikovac",
    "category": "SCENIC_POINT",
    "region": "Alps",
    "country": "Europe",
    "lat": 45.3809097,
    "lng": 14.8196069,
    "nearest_airport": "VCE",
    "description": "Auto-imported SCENIC_POINT. Altitude: N/Am"
  },
  "vidikovac-bozavski-vrh": {
    "name": "Vidikovac Božavski vrh",
    "slug": "vidikovac-bozavski-vrh",
    "category": "SCENIC_POINT",
    "region": "Alps",
    "country": "Europe",
    "lat": 44.1306366,
    "lng": 14.8960444,
    "nearest_airport": "VCE",
    "description": "Auto-imported SCENIC_POINT. Altitude: N/Am"
  },
  "vidikovac-casanova": {
    "name": "Vidikovac Casanova",
    "slug": "vidikovac-casanova",
    "category": "SCENIC_POINT",
    "region": "Alps",
    "country": "Europe",
    "lat": 45.1505757,
    "lng": 13.6052058,
    "nearest_airport": "VCE",
    "description": "Auto-imported SCENIC_POINT. Altitude: N/Am"
  },
  "vidikovac-celine": {
    "name": "vidikovac Celine",
    "slug": "vidikovac-celine",
    "category": "SCENIC_POINT",
    "region": "Alps",
    "country": "Europe",
    "lat": 45.9171043,
    "lng": 15.7384895,
    "nearest_airport": "VIE",
    "description": "Auto-imported SCENIC_POINT. Altitude: N/Am"
  },
  "vidikovac-cevo": {
    "name": "Vidikovac Čevo",
    "slug": "vidikovac-cevo",
    "category": "SCENIC_POINT",
    "region": "Alps",
    "country": "Europe",
    "lat": 46.2061956,
    "lng": 16.2867004,
    "nearest_airport": "VIE",
    "description": "Auto-imported SCENIC_POINT. Altitude: N/Am"
  },
  "vidikovac-franje-ferdinanda": {
    "name": "Vidikovac Franje Ferdinanda",
    "slug": "vidikovac-franje-ferdinanda",
    "category": "SCENIC_POINT",
    "region": "Alps",
    "country": "Europe",
    "lat": 45.2032463,
    "lng": 14.0399526,
    "nearest_airport": "VCE",
    "description": "Auto-imported SCENIC_POINT. Altitude: N/Am"
  },
  "vidikovac-glavica": {
    "name": "Vidikovac Glavica",
    "slug": "vidikovac-glavica",
    "category": "SCENIC_POINT",
    "region": "Alps",
    "country": "Europe",
    "lat": 44.8044491,
    "lng": 15.8762496,
    "nearest_airport": "VCE",
    "description": "Auto-imported SCENIC_POINT. Altitude: N/Am"
  },
  "vidikovac-glazareva-pecina": {
    "name": "Vidikovac Glažareva pećina",
    "slug": "vidikovac-glazareva-pecina",
    "category": "SCENIC_POINT",
    "region": "Alps",
    "country": "Europe",
    "lat": 46.2624307,
    "lng": 16.0157882,
    "nearest_airport": "VIE",
    "description": "Auto-imported SCENIC_POINT. Altitude: N/Am"
  },
  "vidikovac-gradina": {
    "name": "vidikovac gradina",
    "slug": "vidikovac-gradina",
    "category": "SCENIC_POINT",
    "region": "Alps",
    "country": "Europe",
    "lat": 45.1310416,
    "lng": 14.8320493,
    "nearest_airport": "VCE",
    "description": "Auto-imported SCENIC_POINT. Altitude: N/Am"
  },
  "vidikovac-graficar": {
    "name": "Vidikovac Grafičar",
    "slug": "vidikovac-graficar",
    "category": "SCENIC_POINT",
    "region": "Alps",
    "country": "Europe",
    "lat": 45.8874183,
    "lng": 15.933016,
    "nearest_airport": "VIE",
    "description": "Auto-imported SCENIC_POINT. Altitude: N/Am"
  },
  "vidikovac-hrvatskih-branitelja": {
    "name": "Vidikovac hrvatskih branitelja",
    "slug": "vidikovac-hrvatskih-branitelja",
    "category": "SCENIC_POINT",
    "region": "Alps",
    "country": "Europe",
    "lat": 45.3582397,
    "lng": 14.7600948,
    "nearest_airport": "VCE",
    "description": "Auto-imported SCENIC_POINT. Altitude: N/Am"
  },
  "vidikovac-javornik": {
    "name": "Vidikovac Javornik",
    "slug": "vidikovac-javornik",
    "category": "SCENIC_POINT",
    "region": "Alps",
    "country": "Europe",
    "lat": 44.9064986,
    "lng": 13.7688912,
    "nearest_airport": "VCE",
    "description": "Auto-imported SCENIC_POINT. Altitude: N/Am"
  },
  "vidikovac-jelensko": {
    "name": "Vidikovac Jelensko",
    "slug": "vidikovac-jelensko",
    "category": "SCENIC_POINT",
    "region": "Alps",
    "country": "Europe",
    "lat": 45.0766952,
    "lng": 14.0190643,
    "nearest_airport": "VCE",
    "description": "Auto-imported SCENIC_POINT. Altitude: N/Am"
  },
  "vidikovac-krnjeza": {
    "name": "Vidikovac Krnjeza",
    "slug": "vidikovac-krnjeza",
    "category": "SCENIC_POINT",
    "region": "Alps",
    "country": "Europe",
    "lat": 44.2033425,
    "lng": 15.8539185,
    "nearest_airport": "VCE",
    "description": "Auto-imported SCENIC_POINT. Altitude: N/Am"
  },
  "vidikovac-liskovac": {
    "name": "vidikovac Liskovac",
    "slug": "vidikovac-liskovac",
    "category": "SCENIC_POINT",
    "region": "Alps",
    "country": "Europe",
    "lat": 44.9359234,
    "lng": 14.9733947,
    "nearest_airport": "VCE",
    "description": "Auto-imported SCENIC_POINT. Altitude: N/Am"
  },
  "vidikovac-lokvarsko-jezero": {
    "name": "Vidikovac Lokvarsko Jezero",
    "slug": "vidikovac-lokvarsko-jezero",
    "category": "SCENIC_POINT",
    "region": "Alps",
    "country": "Europe",
    "lat": 45.3572959,
    "lng": 14.7211549,
    "nearest_airport": "VCE",
    "description": "Auto-imported SCENIC_POINT. Altitude: N/Am"
  },
  "vidikovac-na-stazi-lupogliano-mahrenfels": {
    "name": "Vidikovac na stazi  Lupogliano – Mahrenfels",
    "slug": "vidikovac-na-stazi-lupogliano-mahrenfels",
    "category": "SCENIC_POINT",
    "region": "Alps",
    "country": "Europe",
    "lat": 45.3605728,
    "lng": 14.1196839,
    "nearest_airport": "VCE",
    "description": "Auto-imported SCENIC_POINT. Altitude: N/Am"
  },
  "vidikovac-odasiljac": {
    "name": "Vidikovac - Odašiljač",
    "slug": "vidikovac-odasiljac",
    "category": "SCENIC_POINT",
    "region": "Alps",
    "country": "Europe",
    "lat": 46.1310897,
    "lng": 16.4567366,
    "nearest_airport": "VIE",
    "description": "Auto-imported SCENIC_POINT. Altitude: N/Am"
  },
  "vidikovac-paragliding-take-off": {
    "name": "Vidikovac Paragliding take off",
    "slug": "vidikovac-paragliding-take-off",
    "category": "SCENIC_POINT",
    "region": "Alps",
    "country": "Europe",
    "lat": 46.1853643,
    "lng": 15.8960637,
    "nearest_airport": "VIE",
    "description": "Auto-imported SCENIC_POINT. Altitude: N/Am"
  },
  "vidikovac-parizevacka-glavica": {
    "name": "Vidikovac Pariževačka glavica",
    "slug": "vidikovac-parizevacka-glavica",
    "category": "SCENIC_POINT",
    "region": "Alps",
    "country": "Europe",
    "lat": 44.2225564,
    "lng": 15.6136375,
    "nearest_airport": "VCE",
    "description": "Auto-imported SCENIC_POINT. Altitude: N/Am"
  },
  "vidikovac-pazinski-ponor": {
    "name": "Vidikovac Pazinski ponor",
    "slug": "vidikovac-pazinski-ponor",
    "category": "SCENIC_POINT",
    "region": "Alps",
    "country": "Europe",
    "lat": 45.2387214,
    "lng": 13.9285145,
    "nearest_airport": "VCE",
    "description": "Auto-imported SCENIC_POINT. Altitude: N/Am"
  },
  "vidikovac-peric": {
    "name": "Vidikovac Perić",
    "slug": "vidikovac-peric",
    "category": "SCENIC_POINT",
    "region": "Alps",
    "country": "Europe",
    "lat": 45.4225443,
    "lng": 14.9087801,
    "nearest_airport": "VCE",
    "description": "Auto-imported SCENIC_POINT. Altitude: N/Am"
  },
  "vidikovac-petuova": {
    "name": "Vidikovac Petuova",
    "slug": "vidikovac-petuova",
    "category": "SCENIC_POINT",
    "region": "Alps",
    "country": "Europe",
    "lat": 44.9815832,
    "lng": 14.9848554,
    "nearest_airport": "VCE",
    "description": "Auto-imported SCENIC_POINT. Altitude: N/Am"
  },
  "vidikovac-pogled-prema-gradu": {
    "name": "Vidikovac pogled prema gradu",
    "slug": "vidikovac-pogled-prema-gradu",
    "category": "SCENIC_POINT",
    "region": "Alps",
    "country": "Europe",
    "lat": 45.2387228,
    "lng": 13.9273521,
    "nearest_airport": "VCE",
    "description": "Auto-imported SCENIC_POINT. Altitude: N/Am"
  },
  "vidikovac-prema-lupoglavu": {
    "name": "Vidikovac prema Lupoglavu",
    "slug": "vidikovac-prema-lupoglavu",
    "category": "SCENIC_POINT",
    "region": "Alps",
    "country": "Europe",
    "lat": 45.3593083,
    "lng": 14.1124208,
    "nearest_airport": "VCE",
    "description": "Auto-imported SCENIC_POINT. Altitude: N/Am"
  },
  "vidikovac-prema-pazinu": {
    "name": "Vidikovac prema Pazinu",
    "slug": "vidikovac-prema-pazinu",
    "category": "SCENIC_POINT",
    "region": "Alps",
    "country": "Europe",
    "lat": 45.2539887,
    "lng": 13.9161068,
    "nearest_airport": "VCE",
    "description": "Auto-imported SCENIC_POINT. Altitude: N/Am"
  },
  "vidikovac-prema-rocu": {
    "name": "Vidikovac prema Roču",
    "slug": "vidikovac-prema-rocu",
    "category": "SCENIC_POINT",
    "region": "Alps",
    "country": "Europe",
    "lat": 45.3966882,
    "lng": 14.0697984,
    "nearest_airport": "VCE",
    "description": "Auto-imported SCENIC_POINT. Altitude: N/Am"
  },
  "vidikovac-slipica": {
    "name": "Vidikovac Slipica",
    "slug": "vidikovac-slipica",
    "category": "SCENIC_POINT",
    "region": "Alps",
    "country": "Europe",
    "lat": 45.1663929,
    "lng": 14.7693875,
    "nearest_airport": "VCE",
    "description": "Auto-imported SCENIC_POINT. Altitude: N/Am"
  },
  "vidikovac-sova": {
    "name": "Vidikovac \"Sova\"",
    "slug": "vidikovac-sova",
    "category": "SCENIC_POINT",
    "region": "Alps",
    "country": "Europe",
    "lat": 46.1705636,
    "lng": 16.1432958,
    "nearest_airport": "VIE",
    "description": "Auto-imported SCENIC_POINT. Altitude: N/Am"
  },
  "vidikovac-strazica": {
    "name": "Vidikovac Stražica",
    "slug": "vidikovac-strazica",
    "category": "SCENIC_POINT",
    "region": "Alps",
    "country": "Europe",
    "lat": 45.3098379,
    "lng": 14.2017424,
    "nearest_airport": "VCE",
    "description": "Auto-imported SCENIC_POINT. Altitude: N/Am"
  },
  "vidikovac-sv-jelene": {
    "name": "Vidikovac Sv. Jelene",
    "slug": "vidikovac-sv-jelene",
    "category": "SCENIC_POINT",
    "region": "Alps",
    "country": "Europe",
    "lat": 45.2035327,
    "lng": 14.0414829,
    "nearest_airport": "VCE",
    "description": "Auto-imported SCENIC_POINT. Altitude: N/Am"
  },
  "vidikovac-sv-kriz": {
    "name": "Vidikovac Sv. Križ",
    "slug": "vidikovac-sv-kriz",
    "category": "SCENIC_POINT",
    "region": "Alps",
    "country": "Europe",
    "lat": 45.667922,
    "lng": 15.4411266,
    "nearest_airport": "VCE",
    "description": "Auto-imported SCENIC_POINT. Altitude: 468m"
  },
  "vidikovac-sviba": {
    "name": "Vidikovac Sviba",
    "slug": "vidikovac-sviba",
    "category": "SCENIC_POINT",
    "region": "Alps",
    "country": "Europe",
    "lat": 45.1178202,
    "lng": 14.8920032,
    "nearest_airport": "VCE",
    "description": "Auto-imported SCENIC_POINT. Altitude: N/Am"
  },
  "vidikovac-tete-olge": {
    "name": "Vidikovac tete Olge",
    "slug": "vidikovac-tete-olge",
    "category": "SCENIC_POINT",
    "region": "Alps",
    "country": "Europe",
    "lat": 44.6439669,
    "lng": 14.3972697,
    "nearest_airport": "VCE",
    "description": "Auto-imported SCENIC_POINT. Altitude: N/Am"
  },
  "vidikovac-velka-pec": {
    "name": "vidikovac Velka Peč",
    "slug": "vidikovac-velka-pec",
    "category": "SCENIC_POINT",
    "region": "Alps",
    "country": "Europe",
    "lat": 45.9369396,
    "lng": 16.0618929,
    "nearest_airport": "VIE",
    "description": "Auto-imported SCENIC_POINT. Altitude: N/Am"
  },
  "vidikovac-zelimira-janesa": {
    "name": "Vidikovac Želimira Janeša",
    "slug": "vidikovac-zelimira-janesa",
    "category": "SCENIC_POINT",
    "region": "Alps",
    "country": "Europe",
    "lat": 45.3918132,
    "lng": 14.0474914,
    "nearest_airport": "VCE",
    "description": "Auto-imported SCENIC_POINT. Altitude: N/Am"
  },
  "vidilica": {
    "name": "Vidilica",
    "slug": "vidilica",
    "category": "SCENIC_POINT",
    "region": "Alps",
    "country": "Europe",
    "lat": 43.5082759,
    "lng": 16.4174936,
    "nearest_airport": "VCE",
    "description": "Auto-imported SCENIC_POINT. Altitude: N/Am"
  },
  "vidilica-tomasic": {
    "name": "Vidilica Tomašić",
    "slug": "vidilica-tomasic",
    "category": "SCENIC_POINT",
    "region": "Alps",
    "country": "Europe",
    "lat": 44.7718919,
    "lng": 14.779502,
    "nearest_airport": "VCE",
    "description": "Auto-imported SCENIC_POINT. Altitude: N/Am"
  },
  "viehkogelnieder": {
    "name": "Viehkogelnieder",
    "slug": "viehkogelnieder",
    "category": "MOUNTAIN_PASS",
    "region": "Alps",
    "country": "Europe",
    "lat": 47.4862577,
    "lng": 12.9311702,
    "nearest_airport": "SZG",
    "description": "Auto-imported MOUNTAIN_PASS. Altitude: N/Am"
  },
  "vier-bahnen-blick": {
    "name": "Vier-Bahnen-Blick",
    "slug": "vier-bahnen-blick",
    "category": "SCENIC_POINT",
    "region": "Alps",
    "country": "Europe",
    "lat": 47.8280131,
    "lng": 8.5531749,
    "nearest_airport": "ZRH",
    "description": "Von diesem Aussichtspunkt oberhalb des Biesenbach-Viadukts kann man viermal die Strecke der Sauschwänzlebahn sehen."
  },
  "vier-barga": {
    "name": "Vier Barga",
    "slug": "vier-barga",
    "category": "SCENIC_POINT",
    "region": "Alps",
    "country": "Europe",
    "lat": 46.9744518,
    "lng": 10.0049156,
    "nearest_airport": "INN",
    "description": "Auto-imported SCENIC_POINT. Altitude: N/Am"
  },
  "vierge-de-belmont": {
    "name": "Vierge de Belmont",
    "slug": "vierge-de-belmont",
    "category": "SCENIC_POINT",
    "region": "Alps",
    "country": "Europe",
    "lat": 47.7189013,
    "lng": 5.5488149,
    "nearest_airport": "GVA",
    "description": "Auto-imported SCENIC_POINT. Altitude: N/Am"
  },
  "vierseenblick": {
    "name": "Vierseenblick",
    "slug": "vierseenblick",
    "category": "SCENIC_POINT",
    "region": "Alps",
    "country": "Europe",
    "lat": 47.5650087,
    "lng": 10.6246835,
    "nearest_airport": "INN",
    "description": "Auto-imported SCENIC_POINT. Altitude: N/Am"
  },
  "vierte-flue": {
    "name": "Vierte Flue",
    "slug": "vierte-flue",
    "category": "SCENIC_POINT",
    "region": "Alps",
    "country": "Europe",
    "lat": 47.0557297,
    "lng": 7.6350064,
    "nearest_airport": "ZRH",
    "description": "Auto-imported SCENIC_POINT. Altitude: N/Am"
  },
  "view-cervinomatterhorn": {
    "name": "View Cervino/Matterhorn",
    "slug": "view-cervinomatterhorn",
    "category": "SCENIC_POINT",
    "region": "Alps",
    "country": "Europe",
    "lat": 45.9222649,
    "lng": 7.6179534,
    "nearest_airport": "TRN",
    "description": "Auto-imported SCENIC_POINT. Altitude: N/Am"
  },
  "view-korana": {
    "name": "View Korana",
    "slug": "view-korana",
    "category": "SCENIC_POINT",
    "region": "Alps",
    "country": "Europe",
    "lat": 44.9488235,
    "lng": 15.6610827,
    "nearest_airport": "VCE",
    "description": "Auto-imported SCENIC_POINT. Altitude: N/Am"
  },
  "view-of-calde": {
    "name": "View of Caldè",
    "slug": "view-of-calde",
    "category": "SCENIC_POINT",
    "region": "Alps",
    "country": "Europe",
    "lat": 45.9252912,
    "lng": 8.638967,
    "nearest_airport": "MXP",
    "description": "Auto-imported SCENIC_POINT. Altitude: N/Am"
  },
  "view-of-mergozzo": {
    "name": "View of Mergozzo",
    "slug": "view-of-mergozzo",
    "category": "SCENIC_POINT",
    "region": "Alps",
    "country": "Europe",
    "lat": 45.9472597,
    "lng": 8.4686807,
    "nearest_airport": "MXP",
    "description": "Auto-imported SCENIC_POINT. Altitude: N/Am"
  },
  "view-of-the-planina-v-lazu": {
    "name": "View of the Planina v Lazu",
    "slug": "view-of-the-planina-v-lazu",
    "category": "SCENIC_POINT",
    "region": "Alps",
    "country": "Europe",
    "lat": 46.3270007,
    "lng": 13.8283188,
    "nearest_airport": "VCE",
    "description": "Auto-imported SCENIC_POINT. Altitude: N/Am"
  },
  "view-of-unterach-and-lake-attersee": {
    "name": "View of Unterach and Lake Attersee",
    "slug": "view-of-unterach-and-lake-attersee",
    "category": "SCENIC_POINT",
    "region": "Alps",
    "country": "Europe",
    "lat": 47.7754726,
    "lng": 13.4973774,
    "nearest_airport": "SZG",
    "description": "Auto-imported SCENIC_POINT. Altitude: N/Am"
  },
  "view-over-meran": {
    "name": "View over Meran",
    "slug": "view-over-meran",
    "category": "SCENIC_POINT",
    "region": "Alps",
    "country": "Europe",
    "lat": 46.6453066,
    "lng": 11.2064359,
    "nearest_airport": "INN",
    "description": "Auto-imported SCENIC_POINT. Altitude: N/Am"
  },
  "view-piont": {
    "name": "view  piont",
    "slug": "view-piont",
    "category": "SCENIC_POINT",
    "region": "Alps",
    "country": "Europe",
    "lat": 45.1579081,
    "lng": 14.7767027,
    "nearest_airport": "VCE",
    "description": "Auto-imported SCENIC_POINT. Altitude: N/Am"
  },
  "view-point": {
    "name": "View point",
    "slug": "view-point",
    "category": "SCENIC_POINT",
    "region": "Alps",
    "country": "Europe",
    "lat": 44.1116023,
    "lng": 15.1205812,
    "nearest_airport": "VCE",
    "description": "Auto-imported SCENIC_POINT. Altitude: N/Am"
  },
  "view-point-rocia-dal-diau": {
    "name": "View point \"Rocia dal diau\"",
    "slug": "view-point-rocia-dal-diau",
    "category": "SCENIC_POINT",
    "region": "Alps",
    "country": "Europe",
    "lat": 44.4950754,
    "lng": 7.2186757,
    "nearest_airport": "TRN",
    "description": "Auto-imported SCENIC_POINT. Altitude: N/Am"
  },
  "view-porto-valtravaglialago-maggiore": {
    "name": "View Porto Valtravaglia/Lago Maggiore",
    "slug": "view-porto-valtravaglialago-maggiore",
    "category": "SCENIC_POINT",
    "region": "Alps",
    "country": "Europe",
    "lat": 45.9399538,
    "lng": 8.7076172,
    "nearest_airport": "MXP",
    "description": "Auto-imported SCENIC_POINT. Altitude: N/Am"
  },
  "view-to-mont-blanc-etc": {
    "name": "View To Mont Blanc etc",
    "slug": "view-to-mont-blanc-etc",
    "category": "SCENIC_POINT",
    "region": "Alps",
    "country": "Europe",
    "lat": 46.3586289,
    "lng": 6.0183158,
    "nearest_airport": "GVA",
    "description": "Auto-imported SCENIC_POINT. Altitude: N/Am"
  },
  "viewpoint": {
    "name": "Viewpoint",
    "slug": "viewpoint",
    "category": "SCENIC_POINT",
    "region": "Alps",
    "country": "Europe",
    "lat": 46.1504823,
    "lng": 13.6284136,
    "nearest_airport": "VCE",
    "description": "Auto-imported SCENIC_POINT. Altitude: N/Am"
  },
  "viewpoint-i-caire": {
    "name": "viewpoint \"I caire\"",
    "slug": "viewpoint-i-caire",
    "category": "SCENIC_POINT",
    "region": "Alps",
    "country": "Europe",
    "lat": 44.4931422,
    "lng": 7.2269274,
    "nearest_airport": "TRN",
    "description": "Auto-imported SCENIC_POINT. Altitude: N/Am"
  },
  "vigneti-del-prustinenc": {
    "name": "Vigneti del Prustinenc",
    "slug": "vigneti-del-prustinenc",
    "category": "SCENIC_POINT",
    "region": "Alps",
    "country": "Europe",
    "lat": 44.878367,
    "lng": 7.2922132,
    "nearest_airport": "TRN",
    "description": "Auto-imported SCENIC_POINT. Altitude: N/Am"
  },
  "vikendica": {
    "name": "Vikendica",
    "slug": "vikendica",
    "category": "SCENIC_POINT",
    "region": "Alps",
    "country": "Europe",
    "lat": 45.5643535,
    "lng": 16.0948276,
    "nearest_airport": "VIE",
    "description": "Auto-imported SCENIC_POINT. Altitude: N/Am"
  },
  "vileidjoch": {
    "name": "Vileidjoch",
    "slug": "vileidjoch",
    "category": "MOUNTAIN_PASS",
    "region": "Alps",
    "country": "Europe",
    "lat": 47.2054979,
    "lng": 10.5580447,
    "nearest_airport": "INN",
    "description": "Auto-imported MOUNTAIN_PASS. Altitude: 2519m"
  },
  "vileidjoch-1078": {
    "name": "Vileidjoch",
    "slug": "vileidjoch-1078",
    "category": "MOUNTAIN_PASS",
    "region": "Alps",
    "country": "",
    "lat": 47.2054979,
    "lng": 10.5580447,
    "nearest_airport": "",
    "description": "Verified Location."
  },
  "vilkotova-klopca": {
    "name": "Vilkotova klopca",
    "slug": "vilkotova-klopca",
    "category": "SCENIC_POINT",
    "region": "Alps",
    "country": "Europe",
    "lat": 46.3350105,
    "lng": 14.4293116,
    "nearest_airport": "VCE",
    "description": "Vilkotova klopca"
  },
  "villa-aldini": {
    "name": "Villa Aldini",
    "slug": "villa-aldini",
    "category": "SCENIC_POINT",
    "region": "Alps",
    "country": "Europe",
    "lat": 44.4815956,
    "lng": 11.3305819,
    "nearest_airport": "VCE",
    "description": "Auto-imported SCENIC_POINT. Altitude: N/Am"
  },
  "villa-di-tirano-maranta": {
    "name": "Villa di Tirano, Maranta",
    "slug": "villa-di-tirano-maranta",
    "category": "SCENIC_POINT",
    "region": "Alps",
    "country": "Europe",
    "lat": 46.2041913,
    "lng": 10.1311171,
    "nearest_airport": "MXP",
    "description": "Auto-imported SCENIC_POINT. Altitude: N/Am"
  },
  "villa-gherardi": {
    "name": "Villa Gherardi",
    "slug": "villa-gherardi",
    "category": "SCENIC_POINT",
    "region": "Alps",
    "country": "Europe",
    "lat": 43.894946,
    "lng": 11.1164045,
    "nearest_airport": "VCE",
    "description": "Auto-imported SCENIC_POINT. Altitude: N/Am"
  },
  "villa-romana-di-bussana": {
    "name": "Villa romana di Bussana",
    "slug": "villa-romana-di-bussana",
    "category": "SCENIC_POINT",
    "region": "Alps",
    "country": "Europe",
    "lat": 43.8211241,
    "lng": 7.8386821,
    "nearest_airport": "NCE",
    "description": "Auto-imported SCENIC_POINT. Altitude: N/Am"
  },
  "villa-seerose": {
    "name": "Villa Seerose",
    "slug": "villa-seerose",
    "category": "SCENIC_POINT",
    "region": "Alps",
    "country": "Europe",
    "lat": 47.2625477,
    "lng": 8.5954145,
    "nearest_airport": "ZRH",
    "description": "Auto-imported SCENIC_POINT. Altitude: N/Am"
  },
  "vilma-haid-aussicht": {
    "name": "Vilma-Haid-Aussicht",
    "slug": "vilma-haid-aussicht",
    "category": "SCENIC_POINT",
    "region": "Alps",
    "country": "Europe",
    "lat": 47.712398,
    "lng": 15.7623224,
    "nearest_airport": "VIE",
    "description": "Auto-imported SCENIC_POINT. Altitude: N/Am"
  },
  "vilser-jochl": {
    "name": "Vilser Jöchl",
    "slug": "vilser-jochl",
    "category": "MOUNTAIN_PASS",
    "region": "Alps",
    "country": "Europe",
    "lat": 47.5250736,
    "lng": 10.5829134,
    "nearest_airport": "INN",
    "description": "Auto-imported MOUNTAIN_PASS. Altitude: 1718m"
  },
  "vilser-scharte": {
    "name": "Vilser Scharte",
    "slug": "vilser-scharte",
    "category": "MOUNTAIN_PASS",
    "region": "Alps",
    "country": "Europe",
    "lat": 47.5591281,
    "lng": 10.6381555,
    "nearest_airport": "INN",
    "description": "Auto-imported MOUNTAIN_PASS. Altitude: 878m"
  },
  "vim1": {
    "name": "VIM1",
    "slug": "vim1",
    "category": "SCENIC_POINT",
    "region": "Alps",
    "country": "Europe",
    "lat": 46.556923,
    "lng": 15.683964,
    "nearest_airport": "VIE",
    "description": "Auto-imported SCENIC_POINT. Altitude: N/Am"
  },
  "vim2": {
    "name": "VIM2",
    "slug": "vim2",
    "category": "SCENIC_POINT",
    "region": "Alps",
    "country": "Europe",
    "lat": 46.5303445,
    "lng": 15.7175373,
    "nearest_airport": "VIE",
    "description": "Auto-imported SCENIC_POINT. Altitude: N/Am"
  },
  "vina-gora": {
    "name": "Vina gora",
    "slug": "vina-gora",
    "category": "SCENIC_POINT",
    "region": "Alps",
    "country": "Europe",
    "lat": 46.0969368,
    "lng": 15.5398136,
    "nearest_airport": "VIE",
    "description": "Auto-imported SCENIC_POINT. Altitude: N/Am"
  },
  "vinzenz-zahn": {
    "name": "Vinzenz Zahn",
    "slug": "vinzenz-zahn",
    "category": "SCENIC_POINT",
    "region": "Alps",
    "country": "Europe",
    "lat": 47.9007827,
    "lng": 8.1011046,
    "nearest_airport": "ZRH",
    "description": "Auto-imported SCENIC_POINT. Altitude: N/Am"
  },
  "vir-du-cher": {
    "name": "Vir du cher",
    "slug": "vir-du-cher",
    "category": "SCENIC_POINT",
    "region": "Alps",
    "country": "Europe",
    "lat": 45.0574879,
    "lng": 7.3996594,
    "nearest_airport": "TRN",
    "description": "Auto-imported SCENIC_POINT. Altitude: N/Am"
  },
  "virage-des-arcades": {
    "name": "Virage des Arcades",
    "slug": "virage-des-arcades",
    "category": "SCENIC_POINT",
    "region": "Alps",
    "country": "Europe",
    "lat": 45.6409532,
    "lng": 6.8446125,
    "nearest_airport": "TRN",
    "description": "Auto-imported SCENIC_POINT. Altitude: N/Am"
  },
  "virtueller-aussichtsturm": {
    "name": "Virtueller Aussichtsturm",
    "slug": "virtueller-aussichtsturm",
    "category": "SCENIC_POINT",
    "region": "Alps",
    "country": "Europe",
    "lat": 47.9362729,
    "lng": 9.55383,
    "nearest_airport": "ZRH",
    "description": "Bodennahe Aussichtsplattform mit betitelten Panoramafotografien aus größerer Höhe (Drohne)"
  },
  "visevnik": {
    "name": "Viševnik",
    "slug": "visevnik",
    "category": "SCENIC_POINT",
    "region": "Alps",
    "country": "Europe",
    "lat": 46.3589823,
    "lng": 13.8982404,
    "nearest_airport": "VCE",
    "description": "Auto-imported SCENIC_POINT. Altitude: 2050m"
  },
  "visevnik-1082": {
    "name": "Viševnik",
    "slug": "visevnik-1082",
    "category": "SCENIC_POINT",
    "region": "Alps",
    "country": "",
    "lat": 46.3589823,
    "lng": 13.8982404,
    "nearest_airport": "",
    "description": "Verified Location."
  },
  "visholo": {
    "name": "Visholo",
    "slug": "visholo",
    "category": "SCENIC_POINT",
    "region": "Alps",
    "country": "Europe",
    "lat": 46.8870665,
    "lng": 10.7269266,
    "nearest_airport": "INN",
    "description": "Auto-imported SCENIC_POINT. Altitude: N/Am"
  },
  "visitation": {
    "name": "Visitation",
    "slug": "visitation",
    "category": "SCENIC_POINT",
    "region": "Alps",
    "country": "Europe",
    "lat": 45.8929167,
    "lng": 6.1265721,
    "nearest_airport": "GVA",
    "description": "Auto-imported SCENIC_POINT. Altitude: N/Am"
  },
  "vista-2-cascate": {
    "name": "Vista 2 Cascate",
    "slug": "vista-2-cascate",
    "category": "SCENIC_POINT",
    "region": "Alps",
    "country": "Europe",
    "lat": 44.175649,
    "lng": 9.9382559,
    "nearest_airport": "MXP",
    "description": "Auto-imported SCENIC_POINT. Altitude: N/Am"
  },
  "vista-cascata": {
    "name": "vista cascata",
    "slug": "vista-cascata",
    "category": "SCENIC_POINT",
    "region": "Alps",
    "country": "Europe",
    "lat": 44.1011024,
    "lng": 10.0281883,
    "nearest_airport": "MXP",
    "description": "Auto-imported SCENIC_POINT. Altitude: N/Am"
  },
  "vista-castello-della-pietra": {
    "name": "vista Castello della Pietra",
    "slug": "vista-castello-della-pietra",
    "category": "SCENIC_POINT",
    "region": "Alps",
    "country": "Europe",
    "lat": 44.6064596,
    "lng": 9.016318,
    "nearest_airport": "MXP",
    "description": "Auto-imported SCENIC_POINT. Altitude: N/Am"
  },
  "vista-da-madonna-vista-della-madonna-della-guardia": {
    "name": "Vista da Madonna (Vista della Madonna della Guardia)",
    "slug": "vista-da-madonna-vista-della-madonna-della-guardia",
    "category": "SCENIC_POINT",
    "region": "Alps",
    "country": "Europe",
    "lat": 44.4443246,
    "lng": 9.0459212,
    "nearest_airport": "MXP",
    "description": "Auto-imported SCENIC_POINT. Altitude: N/Am"
  },
  "vista-de-cane-vista-di-canate": {
    "name": "Vista de Canè (Vista di Canate)",
    "slug": "vista-de-cane-vista-di-canate",
    "category": "SCENIC_POINT",
    "region": "Alps",
    "country": "Europe",
    "lat": 44.4532268,
    "lng": 9.0405453,
    "nearest_airport": "MXP",
    "description": "Auto-imported SCENIC_POINT. Altitude: N/Am"
  },
  "vista-laterale-sulla-cascata-dellalferello": {
    "name": "Vista laterale sulla Cascata dell'Alferello",
    "slug": "vista-laterale-sulla-cascata-dellalferello",
    "category": "SCENIC_POINT",
    "region": "Alps",
    "country": "Europe",
    "lat": 43.8519425,
    "lng": 12.0736951,
    "nearest_airport": "VCE",
    "description": "Auto-imported SCENIC_POINT. Altitude: N/Am"
  },
  "vista-montagna": {
    "name": "vista montagna",
    "slug": "vista-montagna",
    "category": "SCENIC_POINT",
    "region": "Alps",
    "country": "Europe",
    "lat": 44.579878,
    "lng": 9.4655056,
    "nearest_airport": "MXP",
    "description": "Auto-imported SCENIC_POINT. Altitude: N/Am"
  },
  "vista-panoramica-su-val-darigna": {
    "name": "Vista panoramica su Val d'Arigna",
    "slug": "vista-panoramica-su-val-darigna",
    "category": "SCENIC_POINT",
    "region": "Alps",
    "country": "Europe",
    "lat": 46.1445752,
    "lng": 9.9950862,
    "nearest_airport": "MXP",
    "description": "Auto-imported SCENIC_POINT. Altitude: N/Am"
  },
  "vista-panoramica-su-varzo": {
    "name": "Vista panoramica su Varzo",
    "slug": "vista-panoramica-su-varzo",
    "category": "SCENIC_POINT",
    "region": "Alps",
    "country": "Europe",
    "lat": 46.2072733,
    "lng": 8.2592463,
    "nearest_airport": "MXP",
    "description": "Auto-imported SCENIC_POINT. Altitude: N/Am"
  },
  "vista-su-borghetto": {
    "name": "Vista su Borghetto",
    "slug": "vista-su-borghetto",
    "category": "SCENIC_POINT",
    "region": "Alps",
    "country": "Europe",
    "lat": 45.354803,
    "lng": 10.7249388,
    "nearest_airport": "VCE",
    "description": "Auto-imported SCENIC_POINT. Altitude: N/Am"
  },
  "vista-su-cascata": {
    "name": "vista su cascata",
    "slug": "vista-su-cascata",
    "category": "SCENIC_POINT",
    "region": "Alps",
    "country": "Europe",
    "lat": 45.9869923,
    "lng": 11.0878038,
    "nearest_airport": "VCE",
    "description": "Auto-imported SCENIC_POINT. Altitude: N/Am"
  },
  "vista-su-cava": {
    "name": "Vista su Cava",
    "slug": "vista-su-cava",
    "category": "SCENIC_POINT",
    "region": "Alps",
    "country": "Europe",
    "lat": 45.8860863,
    "lng": 8.6448035,
    "nearest_airport": "MXP",
    "description": "Auto-imported SCENIC_POINT. Altitude: N/Am"
  },
  "vista-su-civetta": {
    "name": "Vista su Civetta",
    "slug": "vista-su-civetta",
    "category": "SCENIC_POINT",
    "region": "Alps",
    "country": "Europe",
    "lat": 46.4538875,
    "lng": 11.9764937,
    "nearest_airport": "INN",
    "description": "Auto-imported SCENIC_POINT. Altitude: N/Am"
  },
  "vista-su-crealla": {
    "name": "Vista su Crealla",
    "slug": "vista-su-crealla",
    "category": "SCENIC_POINT",
    "region": "Alps",
    "country": "Europe",
    "lat": 46.0733639,
    "lng": 8.5922912,
    "nearest_airport": "MXP",
    "description": "Auto-imported SCENIC_POINT. Altitude: N/Am"
  },
  "vista-su-monselice-e-arqua-petrarca": {
    "name": "Vista su Monselice e Arquà Petrarca",
    "slug": "vista-su-monselice-e-arqua-petrarca",
    "category": "SCENIC_POINT",
    "region": "Alps",
    "country": "Europe",
    "lat": 45.2511678,
    "lng": 11.6994081,
    "nearest_airport": "VCE",
    "description": "Auto-imported SCENIC_POINT. Altitude: N/Am"
  },
  "vista-su-pelmo-e-civetta": {
    "name": "Vista su Pelmo e Civetta",
    "slug": "vista-su-pelmo-e-civetta",
    "category": "SCENIC_POINT",
    "region": "Alps",
    "country": "Europe",
    "lat": 46.4598782,
    "lng": 11.9639043,
    "nearest_airport": "INN",
    "description": "Auto-imported SCENIC_POINT. Altitude: N/Am"
  },
  "vista-su-pietrafagnana": {
    "name": "Vista su Pietrafagnana",
    "slug": "vista-su-pietrafagnana",
    "category": "SCENIC_POINT",
    "region": "Alps",
    "country": "Europe",
    "lat": 43.7916496,
    "lng": 12.3675846,
    "nearest_airport": "VCE",
    "description": "Auto-imported SCENIC_POINT. Altitude: N/Am"
  },
  "vista-su-pietrarubbia-e-pietrafagnana": {
    "name": "Vista su Pietrarubbia e Pietrafagnana",
    "slug": "vista-su-pietrarubbia-e-pietrafagnana",
    "category": "SCENIC_POINT",
    "region": "Alps",
    "country": "Europe",
    "lat": 43.805244,
    "lng": 12.3531197,
    "nearest_airport": "VCE",
    "description": "Auto-imported SCENIC_POINT. Altitude: N/Am"
  },
  "vista-su-prealpi-venete": {
    "name": "Vista su Prealpi Venete",
    "slug": "vista-su-prealpi-venete",
    "category": "SCENIC_POINT",
    "region": "Alps",
    "country": "Europe",
    "lat": 45.4378722,
    "lng": 11.9335663,
    "nearest_airport": "VCE",
    "description": "Auto-imported SCENIC_POINT. Altitude: N/Am"
  },
  "vista-su-rocca-di-brendola": {
    "name": "Vista su Rocca di Brendola",
    "slug": "vista-su-rocca-di-brendola",
    "category": "SCENIC_POINT",
    "region": "Alps",
    "country": "Europe",
    "lat": 45.4710309,
    "lng": 11.4919834,
    "nearest_airport": "VCE",
    "description": "Auto-imported SCENIC_POINT. Altitude: N/Am"
  },
  "vista-sui-paesi-circostanti-e-citta-alta": {
    "name": "Vista sui paesi circostanti e Città Alta",
    "slug": "vista-sui-paesi-circostanti-e-citta-alta",
    "category": "SCENIC_POINT",
    "region": "Alps",
    "country": "Europe",
    "lat": 45.7144761,
    "lng": 9.7402786,
    "nearest_airport": "MXP",
    "description": "Auto-imported SCENIC_POINT. Altitude: N/Am"
  },
  "vista-sui-sassi-di-rocca-malatina": {
    "name": "Vista sui Sassi di Rocca Malatina",
    "slug": "vista-sui-sassi-di-rocca-malatina",
    "category": "SCENIC_POINT",
    "region": "Alps",
    "country": "Europe",
    "lat": 44.3893754,
    "lng": 10.9503004,
    "nearest_airport": "VCE",
    "description": "Auto-imported SCENIC_POINT. Altitude: N/Am"
  },
  "vista-sui-trus": {
    "name": "vista sui Trus",
    "slug": "vista-sui-trus",
    "category": "SCENIC_POINT",
    "region": "Alps",
    "country": "Europe",
    "lat": 44.7090589,
    "lng": 9.7223376,
    "nearest_airport": "MXP",
    "description": "Auto-imported SCENIC_POINT. Altitude: 885m"
  },
  "vista-sul-forte-di-bard": {
    "name": "Vista sul forte di Bard",
    "slug": "vista-sul-forte-di-bard",
    "category": "SCENIC_POINT",
    "region": "Alps",
    "country": "Europe",
    "lat": 45.611512,
    "lng": 7.7404649,
    "nearest_airport": "TRN",
    "description": "Auto-imported SCENIC_POINT. Altitude: N/Am"
  },
  "vista-sul-lago-del-segrino": {
    "name": "Vista sul lago del Segrino",
    "slug": "vista-sul-lago-del-segrino",
    "category": "SCENIC_POINT",
    "region": "Alps",
    "country": "Europe",
    "lat": 45.8406079,
    "lng": 9.2767412,
    "nearest_airport": "MXP",
    "description": "Auto-imported SCENIC_POINT. Altitude: N/Am"
  },
  "vista-sul-lago-di-fimon": {
    "name": "Vista sul Lago di Fimon",
    "slug": "vista-sul-lago-di-fimon",
    "category": "SCENIC_POINT",
    "region": "Alps",
    "country": "Europe",
    "lat": 45.4502143,
    "lng": 11.5385894,
    "nearest_airport": "VCE",
    "description": "Auto-imported SCENIC_POINT. Altitude: N/Am"
  },
  "vista-sul-lago-di-garda": {
    "name": "Vista sul Lago di Garda",
    "slug": "vista-sul-lago-di-garda",
    "category": "SCENIC_POINT",
    "region": "Alps",
    "country": "Europe",
    "lat": 45.810634,
    "lng": 10.8875452,
    "nearest_airport": "VCE",
    "description": "Auto-imported SCENIC_POINT. Altitude: N/Am"
  },
  "vista-sul-lago-di-villagrande": {
    "name": "Vista sul lago di Villagrande",
    "slug": "vista-sul-lago-di-villagrande",
    "category": "SCENIC_POINT",
    "region": "Alps",
    "country": "Europe",
    "lat": 43.8369455,
    "lng": 12.3437067,
    "nearest_airport": "VCE",
    "description": "Auto-imported SCENIC_POINT. Altitude: N/Am"
  },
  "vista-sul-lago-verde": {
    "name": "Vista sul lago Verde",
    "slug": "vista-sul-lago-verde",
    "category": "SCENIC_POINT",
    "region": "Alps",
    "country": "Europe",
    "lat": 46.7324818,
    "lng": 11.0876942,
    "nearest_airport": "INN",
    "description": "Auto-imported SCENIC_POINT. Altitude: N/Am"
  },
  "vista-sul-mare-adriatico": {
    "name": "vista sul mare adriatico",
    "slug": "vista-sul-mare-adriatico",
    "category": "SCENIC_POINT",
    "region": "Alps",
    "country": "Europe",
    "lat": 43.9250135,
    "lng": 12.6085543,
    "nearest_airport": "VCE",
    "description": "Auto-imported SCENIC_POINT. Altitude: N/Am"
  },
  "vista-sul-monte-serra-e-la-piana-pisana": {
    "name": "Vista sul Monte Serra e la piana pisana",
    "slug": "vista-sul-monte-serra-e-la-piana-pisana",
    "category": "SCENIC_POINT",
    "region": "Alps",
    "country": "Europe",
    "lat": 43.5392734,
    "lng": 10.4065523,
    "nearest_airport": "NCE",
    "description": "Auto-imported SCENIC_POINT. Altitude: N/Am"
  },
  "vista-sul-monviso": {
    "name": "Vista sul Monviso",
    "slug": "vista-sul-monviso",
    "category": "SCENIC_POINT",
    "region": "Alps",
    "country": "Europe",
    "lat": 44.6013135,
    "lng": 7.3168441,
    "nearest_airport": "TRN",
    "description": "Auto-imported SCENIC_POINT. Altitude: N/Am"
  },
  "vista-sul-parco-sempione": {
    "name": "Vista sul Parco Sempione",
    "slug": "vista-sul-parco-sempione",
    "category": "SCENIC_POINT",
    "region": "Alps",
    "country": "Europe",
    "lat": 45.4716914,
    "lng": 9.177696,
    "nearest_airport": "MXP",
    "description": "Auto-imported SCENIC_POINT. Altitude: N/Am"
  },
  "vista-sul-pelmo": {
    "name": "Vista sul Pelmo",
    "slug": "vista-sul-pelmo",
    "category": "SCENIC_POINT",
    "region": "Alps",
    "country": "Europe",
    "lat": 46.4362194,
    "lng": 12.1010529,
    "nearest_airport": "VCE",
    "description": "Auto-imported SCENIC_POINT. Altitude: N/Am"
  },
  "vista-sul-piave": {
    "name": "Vista sul Piave",
    "slug": "vista-sul-piave",
    "category": "SCENIC_POINT",
    "region": "Alps",
    "country": "Europe",
    "lat": 45.860503,
    "lng": 12.1979967,
    "nearest_airport": "VCE",
    "description": "Auto-imported SCENIC_POINT. Altitude: N/Am"
  },
  "vista-sulla-cascata-dellacquacheta": {
    "name": "Vista sulla cascata dell'Acquacheta",
    "slug": "vista-sulla-cascata-dellacquacheta",
    "category": "SCENIC_POINT",
    "region": "Alps",
    "country": "Europe",
    "lat": 43.9913142,
    "lng": 11.6456567,
    "nearest_airport": "VCE",
    "description": "Auto-imported SCENIC_POINT. Altitude: N/Am"
  },
  "vista-sulla-citta-di-livorno": {
    "name": "Vista sulla città di Livorno",
    "slug": "vista-sulla-citta-di-livorno",
    "category": "SCENIC_POINT",
    "region": "Alps",
    "country": "Europe",
    "lat": 43.5469384,
    "lng": 10.4011437,
    "nearest_airport": "NCE",
    "description": "Auto-imported SCENIC_POINT. Altitude: N/Am"
  },
  "vista-sulla-dora-baltea": {
    "name": "Vista Sulla Dora Baltea",
    "slug": "vista-sulla-dora-baltea",
    "category": "SCENIC_POINT",
    "region": "Alps",
    "country": "Europe",
    "lat": 45.4645096,
    "lng": 7.8577553,
    "nearest_airport": "TRN",
    "description": "Auto-imported SCENIC_POINT. Altitude: N/Am"
  },
  "vista-sulla-marmolada": {
    "name": "Vista sulla Marmolada",
    "slug": "vista-sulla-marmolada",
    "category": "SCENIC_POINT",
    "region": "Alps",
    "country": "Europe",
    "lat": 46.4609186,
    "lng": 11.9441954,
    "nearest_airport": "INN",
    "description": "Auto-imported SCENIC_POINT. Altitude: N/Am"
  },
  "vista-sulla-pianura": {
    "name": "vista sulla pianura",
    "slug": "vista-sulla-pianura",
    "category": "SCENIC_POINT",
    "region": "Alps",
    "country": "Europe",
    "lat": 45.6869227,
    "lng": 11.3480418,
    "nearest_airport": "VCE",
    "description": "Auto-imported SCENIC_POINT. Altitude: N/Am"
  },
  "vista-sulla-rocca-di-pietrarubbia": {
    "name": "Vista sulla Rocca di Pietrarubbia",
    "slug": "vista-sulla-rocca-di-pietrarubbia",
    "category": "SCENIC_POINT",
    "region": "Alps",
    "country": "Europe",
    "lat": 43.793187,
    "lng": 12.3810841,
    "nearest_airport": "VCE",
    "description": "Auto-imported SCENIC_POINT. Altitude: N/Am"
  },
  "vista-sulla-rotonda": {
    "name": "Vista sulla Rotonda",
    "slug": "vista-sulla-rotonda",
    "category": "SCENIC_POINT",
    "region": "Alps",
    "country": "Europe",
    "lat": 45.5310919,
    "lng": 11.5623574,
    "nearest_airport": "VCE",
    "description": "Auto-imported SCENIC_POINT. Altitude: N/Am"
  },
  "vista-sulla-valchiavenna": {
    "name": "Vista sulla Valchiavenna",
    "slug": "vista-sulla-valchiavenna",
    "category": "SCENIC_POINT",
    "region": "Alps",
    "country": "Europe",
    "lat": 46.3747215,
    "lng": 9.371577,
    "nearest_airport": "MXP",
    "description": "Auto-imported SCENIC_POINT. Altitude: N/Am"
  },
  "vista-sulla-vallagarina-da-malga-tof": {
    "name": "Vista sulla vallagarina da Malga Tof",
    "slug": "vista-sulla-vallagarina-da-malga-tof",
    "category": "SCENIC_POINT",
    "region": "Alps",
    "country": "Europe",
    "lat": 45.8442789,
    "lng": 11.0494183,
    "nearest_airport": "VCE",
    "description": "Auto-imported SCENIC_POINT. Altitude: N/Am"
  },
  "vista-val-concei": {
    "name": "Vista Val Concei",
    "slug": "vista-val-concei",
    "category": "SCENIC_POINT",
    "region": "Alps",
    "country": "Europe",
    "lat": 45.9038934,
    "lng": 10.7320231,
    "nearest_airport": "VCE",
    "description": "Auto-imported SCENIC_POINT. Altitude: N/Am"
  },
  "vista-valle-del-chiampo": {
    "name": "Vista Valle del Chiampo",
    "slug": "vista-valle-del-chiampo",
    "category": "SCENIC_POINT",
    "region": "Alps",
    "country": "Europe",
    "lat": 45.6666976,
    "lng": 11.207032,
    "nearest_airport": "VCE",
    "description": "Auto-imported SCENIC_POINT. Altitude: N/Am"
  },
  "vista-valle-piobbico": {
    "name": "Vista Valle Piobbico",
    "slug": "vista-valle-piobbico",
    "category": "SCENIC_POINT",
    "region": "Alps",
    "country": "Europe",
    "lat": 43.5793303,
    "lng": 12.5099269,
    "nearest_airport": "VCE",
    "description": "Auto-imported SCENIC_POINT. Altitude: N/Am"
  },
  "vista-wasserfall-pfeiftal": {
    "name": "Vista Wasserfall Pfeiftal",
    "slug": "vista-wasserfall-pfeiftal",
    "category": "SCENIC_POINT",
    "region": "Alps",
    "country": "Europe",
    "lat": 46.7877893,
    "lng": 11.2394871,
    "nearest_airport": "INN",
    "description": "Auto-imported SCENIC_POINT. Altitude: N/Am"
  },
  "vita-schrofen": {
    "name": "Vita Schrofen",
    "slug": "vita-schrofen",
    "category": "SCENIC_POINT",
    "region": "Alps",
    "country": "Europe",
    "lat": 47.2757416,
    "lng": 9.6872056,
    "nearest_airport": "ZRH",
    "description": "Auto-imported SCENIC_POINT. Altitude: N/Am"
  },
  "vitibuckturm": {
    "name": "Vitibuckturm",
    "slug": "vitibuckturm",
    "category": "SCENIC_POINT",
    "region": "Alps",
    "country": "Europe",
    "lat": 47.6397598,
    "lng": 8.2771651,
    "nearest_airport": "ZRH",
    "description": "Auto-imported SCENIC_POINT. Altitude: N/Am"
  },
  "vitz-sparber": {
    "name": "Vitz Sparber",
    "slug": "vitz-sparber",
    "category": "SCENIC_POINT",
    "region": "Alps",
    "country": "Europe",
    "lat": 47.7123516,
    "lng": 13.4298212,
    "nearest_airport": "SZG",
    "description": "Auto-imported SCENIC_POINT. Altitude: 746m"
  }
}