{
  "vucjak": {
    "name": "Vučjak",
    "slug": "vucjak",
    "category": "SCENIC_POINT",
    "region": "Alps",
    "country": "Europe",
    "lat": 44.815823,
    "lng": 14.9761287,
    "nearest_airport": "VCE",
    "description": "Auto-imported SCENIC_POINT. Altitude: 1645m"
  },
  "vue": {
    "name": "vue",
    "slug": "vue",
    "category": "SCENIC_POINT",
    "region": "Alps",
    "country": "Europe",
    "lat": 44.892342,
    "lng": 5.9352331,
    "nearest_airport": "TRN",
    "description": "Auto-imported SCENIC_POINT. Altitude: N/Am"
  },
  "vue-chateau": {
    "name": "Vue château",
    "slug": "vue-chateau",
    "category": "SCENIC_POINT",
    "region": "Alps",
    "country": "Europe",
    "lat": 43.7750526,
    "lng": 6.2430212,
    "nearest_airport": "NCE",
    "description": "Auto-imported SCENIC_POINT. Altitude: N/Am"
  },
  "vue-de-dessus-de-la-grande-cascade": {
    "name": "Vue de dessus de la Grande Cascade",
    "slug": "vue-de-dessus-de-la-grande-cascade",
    "category": "SCENIC_POINT",
    "region": "Alps",
    "country": "Europe",
    "lat": 45.596387,
    "lng": 5.9741643,
    "nearest_airport": "GVA",
    "description": "Auto-imported SCENIC_POINT. Altitude: N/Am"
  },
  "vue-de-geneve": {
    "name": "Vue de Genève",
    "slug": "vue-de-geneve",
    "category": "SCENIC_POINT",
    "region": "Alps",
    "country": "Europe",
    "lat": 46.5325635,
    "lng": 6.1847777,
    "nearest_airport": "GVA",
    "description": "Auto-imported SCENIC_POINT. Altitude: N/Am"
  },
  "vue-des-alpes": {
    "name": "Vue des Alpes",
    "slug": "vue-des-alpes",
    "category": "SCENIC_POINT",
    "region": "Alps",
    "country": "Europe",
    "lat": 47.3758121,
    "lng": 8.2037394,
    "nearest_airport": "ZRH",
    "description": "Auto-imported SCENIC_POINT. Altitude: N/Am"
  },
  "vue-des-alpes-204": {
    "name": "Vue des Alpes",
    "slug": "vue-des-alpes-204",
    "category": "MOUNTAIN_PASS",
    "region": "Alps",
    "country": "",
    "lat": 47.072722,
    "lng": 6.869822,
    "nearest_airport": "",
    "description": "Verified Location."
  },
  "vue-du-bout-du-monde": {
    "name": "Vue du bout du monde",
    "slug": "vue-du-bout-du-monde",
    "category": "SCENIC_POINT",
    "region": "Alps",
    "country": "Europe",
    "lat": 46.110622,
    "lng": 6.8630274,
    "nearest_airport": "GVA",
    "description": "Auto-imported SCENIC_POINT. Altitude: N/Am"
  },
  "vue-du-moulin-davanne": {
    "name": "Vue du Moulin d'Avanne",
    "slug": "vue-du-moulin-davanne",
    "category": "SCENIC_POINT",
    "region": "Alps",
    "country": "Europe",
    "lat": 47.2045239,
    "lng": 5.977335,
    "nearest_airport": "GVA",
    "description": "Auto-imported SCENIC_POINT. Altitude: N/Am"
  },
  "vue-du-paradis": {
    "name": "Vue du Paradis",
    "slug": "vue-du-paradis",
    "category": "SCENIC_POINT",
    "region": "Alps",
    "country": "Europe",
    "lat": 44.9087962,
    "lng": 5.772768,
    "nearest_airport": "GVA",
    "description": "Auto-imported SCENIC_POINT. Altitude: N/Am"
  },
  "vue-lac": {
    "name": "Vue lac",
    "slug": "vue-lac",
    "category": "SCENIC_POINT",
    "region": "Alps",
    "country": "Europe",
    "lat": 43.7769078,
    "lng": 6.2436018,
    "nearest_airport": "NCE",
    "description": "Auto-imported SCENIC_POINT. Altitude: N/Am"
  },
  "vue-panoramique-sur-annecy": {
    "name": "Vue panoramique sur Annecy",
    "slug": "vue-panoramique-sur-annecy",
    "category": "SCENIC_POINT",
    "region": "Alps",
    "country": "Europe",
    "lat": 45.8978244,
    "lng": 6.1268466,
    "nearest_airport": "GVA",
    "description": "Auto-imported SCENIC_POINT. Altitude: N/Am"
  },
  "vue-panoramique-sur-la-albertville-et-le-mont-blanc": {
    "name": "Vue panoramique sur la Albertville et le Mont-Blanc",
    "slug": "vue-panoramique-sur-la-albertville-et-le-mont-blanc",
    "category": "SCENIC_POINT",
    "region": "Alps",
    "country": "Europe",
    "lat": 45.6731191,
    "lng": 6.3167379,
    "nearest_airport": "GVA",
    "description": "Auto-imported SCENIC_POINT. Altitude: N/Am"
  },
  "vue-panoramique-sur-la-combe-de-savoie": {
    "name": "Vue panoramique sur la combe de Savoie",
    "slug": "vue-panoramique-sur-la-combe-de-savoie",
    "category": "SCENIC_POINT",
    "region": "Alps",
    "country": "Europe",
    "lat": 45.5797987,
    "lng": 6.185845,
    "nearest_airport": "GVA",
    "description": "Auto-imported SCENIC_POINT. Altitude: N/Am"
  },
  "vue-panoramique-sur-le-barrage-de-roselend": {
    "name": "Vue panoramique sur le barrage de Roselend",
    "slug": "vue-panoramique-sur-le-barrage-de-roselend",
    "category": "SCENIC_POINT",
    "region": "Alps",
    "country": "Europe",
    "lat": 45.6900638,
    "lng": 6.655761,
    "nearest_airport": "GVA",
    "description": "Auto-imported SCENIC_POINT. Altitude: N/Am"
  },
  "vue-panoramique-sur-le-lac-du-bourget-et-la-dent-du-chat": {
    "name": "Vue panoramique sur le lac du Bourget et la Dent du Chat",
    "slug": "vue-panoramique-sur-le-lac-du-bourget-et-la-dent-du-chat",
    "category": "SCENIC_POINT",
    "region": "Alps",
    "country": "Europe",
    "lat": 45.6984386,
    "lng": 5.8855075,
    "nearest_airport": "GVA",
    "description": "Auto-imported SCENIC_POINT. Altitude: N/Am"
  },
  "vue-sur-albertville": {
    "name": "Vue sur Albertville",
    "slug": "vue-sur-albertville",
    "category": "SCENIC_POINT",
    "region": "Alps",
    "country": "Europe",
    "lat": 45.6707949,
    "lng": 6.3961254,
    "nearest_airport": "GVA",
    "description": "Auto-imported SCENIC_POINT. Altitude: N/Am"
  },
  "vue-sur-albertville-la-combe-de-savoie": {
    "name": "Vue sur Albertville, la combe de Savoie",
    "slug": "vue-sur-albertville-la-combe-de-savoie",
    "category": "SCENIC_POINT",
    "region": "Alps",
    "country": "Europe",
    "lat": 45.6703548,
    "lng": 6.3959629,
    "nearest_airport": "GVA",
    "description": "Auto-imported SCENIC_POINT. Altitude: N/Am"
  },
  "vue-sur-fougere": {
    "name": "Vue sur fougere",
    "slug": "vue-sur-fougere",
    "category": "SCENIC_POINT",
    "region": "Alps",
    "country": "Europe",
    "lat": 47.1193704,
    "lng": 5.6751431,
    "nearest_airport": "GVA",
    "description": "Auto-imported SCENIC_POINT. Altitude: N/Am"
  },
  "vue-sur-gapencais-and-ecrins": {
    "name": "Vue sur Gapençais & Écrins",
    "slug": "vue-sur-gapencais-and-ecrins",
    "category": "SCENIC_POINT",
    "region": "Alps",
    "country": "Europe",
    "lat": 44.4581178,
    "lng": 6.0033581,
    "nearest_airport": "NCE",
    "description": "Auto-imported SCENIC_POINT. Altitude: N/Am"
  },
  "vue-sur-la-haute-vallee-de-larc": {
    "name": "Vue sur la haute vallée de l'Arc",
    "slug": "vue-sur-la-haute-vallee-de-larc",
    "category": "SCENIC_POINT",
    "region": "Alps",
    "country": "Europe",
    "lat": 43.5048421,
    "lng": 5.6155319,
    "nearest_airport": "NCE",
    "description": "Auto-imported SCENIC_POINT. Altitude: N/Am"
  },
  "vue-sur-la-vallee-de-collongues": {
    "name": "Vue sur la vallée de Collongues",
    "slug": "vue-sur-la-vallee-de-collongues",
    "category": "SCENIC_POINT",
    "region": "Alps",
    "country": "Europe",
    "lat": 43.8887394,
    "lng": 6.8630415,
    "nearest_airport": "NCE",
    "description": "Auto-imported SCENIC_POINT. Altitude: N/Am"
  },
  "vue-sur-la-vallee-de-lognon": {
    "name": "Vue sur la Vallée de L'Ognon",
    "slug": "vue-sur-la-vallee-de-lognon",
    "category": "SCENIC_POINT",
    "region": "Alps",
    "country": "Europe",
    "lat": 47.3083164,
    "lng": 6.0051716,
    "nearest_airport": "GVA",
    "description": "Auto-imported SCENIC_POINT. Altitude: N/Am"
  },
  "vue-sur-la-vallee-dubraye": {
    "name": "Vue sur la vallée d'Ubraye",
    "slug": "vue-sur-la-vallee-dubraye",
    "category": "SCENIC_POINT",
    "region": "Alps",
    "country": "Europe",
    "lat": 43.8814678,
    "lng": 6.7696982,
    "nearest_airport": "NCE",
    "description": "Auto-imported SCENIC_POINT. Altitude: N/Am"
  },
  "vue-sur-labbaye": {
    "name": "Vue sur l'abbaye",
    "slug": "vue-sur-labbaye",
    "category": "SCENIC_POINT",
    "region": "Alps",
    "country": "Europe",
    "lat": 47.2497742,
    "lng": 6.3530003,
    "nearest_airport": "GVA",
    "description": "Auto-imported SCENIC_POINT. Altitude: N/Am"
  },
  "vue-sur-larclusaz": {
    "name": "Vue sur l'Arclusaz",
    "slug": "vue-sur-larclusaz",
    "category": "SCENIC_POINT",
    "region": "Alps",
    "country": "Europe",
    "lat": 45.5563607,
    "lng": 6.1725894,
    "nearest_airport": "GVA",
    "description": "Auto-imported SCENIC_POINT. Altitude: N/Am"
  },
  "vue-sur-le-barrage-du-chatelot-et-les-gorges-du-doubs": {
    "name": "Vue sur le barrage du châtelot et les gorges du Doubs",
    "slug": "vue-sur-le-barrage-du-chatelot-et-les-gorges-du-doubs",
    "category": "SCENIC_POINT",
    "region": "Alps",
    "country": "Europe",
    "lat": 47.1020285,
    "lng": 6.7420383,
    "nearest_airport": "GVA",
    "description": "Auto-imported SCENIC_POINT. Altitude: N/Am"
  },
  "vue-sur-le-grand-ballon": {
    "name": "Vue sur le Grand Ballon",
    "slug": "vue-sur-le-grand-ballon",
    "category": "SCENIC_POINT",
    "region": "Alps",
    "country": "Europe",
    "lat": 47.9248499,
    "lng": 7.2043199,
    "nearest_airport": "ZRH",
    "description": "Auto-imported SCENIC_POINT. Altitude: N/Am"
  },
  "vue-sur-le-massif-de-la-lauziere": {
    "name": "Vue sur le massif de la Lauziere",
    "slug": "vue-sur-le-massif-de-la-lauziere",
    "category": "SCENIC_POINT",
    "region": "Alps",
    "country": "Europe",
    "lat": 45.4897916,
    "lng": 6.2484244,
    "nearest_airport": "GVA",
    "description": "Auto-imported SCENIC_POINT. Altitude: N/Am"
  },
  "vue-sur-le-mont-blanc": {
    "name": "Vue sur le Mont-Blanc",
    "slug": "vue-sur-le-mont-blanc",
    "category": "SCENIC_POINT",
    "region": "Alps",
    "country": "Europe",
    "lat": 45.7607688,
    "lng": 6.5518227,
    "nearest_airport": "GVA",
    "description": "Auto-imported SCENIC_POINT. Altitude: N/Am"
  },
  "vue-sur-le-petit-balllon": {
    "name": "Vue sur le Petit Balllon",
    "slug": "vue-sur-le-petit-balllon",
    "category": "SCENIC_POINT",
    "region": "Alps",
    "country": "Europe",
    "lat": 47.9288284,
    "lng": 7.1990021,
    "nearest_airport": "ZRH",
    "description": "Auto-imported SCENIC_POINT. Altitude: N/Am"
  },
  "vue-sur-le-pont": {
    "name": "Vue sur le pont",
    "slug": "vue-sur-le-pont",
    "category": "SCENIC_POINT",
    "region": "Alps",
    "country": "Europe",
    "lat": 46.5233169,
    "lng": 5.6939485,
    "nearest_airport": "GVA",
    "description": "Auto-imported SCENIC_POINT. Altitude: N/Am"
  },
  "vue-sur-les-alpes": {
    "name": "Vue sur les Alpes",
    "slug": "vue-sur-les-alpes",
    "category": "SCENIC_POINT",
    "region": "Alps",
    "country": "Europe",
    "lat": 47.6838279,
    "lng": 7.3457457,
    "nearest_airport": "ZRH",
    "description": "Auto-imported SCENIC_POINT. Altitude: N/Am"
  },
  "vue-sur-les-belledonnes-et-la-combe-de-savoie": {
    "name": "Vue sur les Belledonnes et la Combe de Savoie",
    "slug": "vue-sur-les-belledonnes-et-la-combe-de-savoie",
    "category": "SCENIC_POINT",
    "region": "Alps",
    "country": "Europe",
    "lat": 45.6023191,
    "lng": 6.2519065,
    "nearest_airport": "GVA",
    "description": "Auto-imported SCENIC_POINT. Altitude: N/Am"
  },
  "vue-sur-les-portes-de-la-maurienne": {
    "name": "Vue sur les portes de la Maurienne",
    "slug": "vue-sur-les-portes-de-la-maurienne",
    "category": "SCENIC_POINT",
    "region": "Alps",
    "country": "Europe",
    "lat": 45.5995337,
    "lng": 6.2431799,
    "nearest_airport": "GVA",
    "description": "Auto-imported SCENIC_POINT. Altitude: N/Am"
  },
  "vue-sur-les-tours-st-jacques": {
    "name": "Vue sur les Tours St Jacques",
    "slug": "vue-sur-les-tours-st-jacques",
    "category": "SCENIC_POINT",
    "region": "Alps",
    "country": "Europe",
    "lat": 45.7492993,
    "lng": 6.0583534,
    "nearest_airport": "GVA",
    "description": "Auto-imported SCENIC_POINT. Altitude: N/Am"
  },
  "vue-sur-les-vosges-la-vallee-du-rhin-mulhouse": {
    "name": "Vue sur les Vosges, la vallée du Rhin, Mulhouse",
    "slug": "vue-sur-les-vosges-la-vallee-du-rhin-mulhouse",
    "category": "SCENIC_POINT",
    "region": "Alps",
    "country": "Europe",
    "lat": 47.6799959,
    "lng": 7.2874357,
    "nearest_airport": "ZRH",
    "description": "Auto-imported SCENIC_POINT. Altitude: N/Am"
  },
  "vue-sur-lillgraben": {
    "name": "Vue sur l'Illgraben",
    "slug": "vue-sur-lillgraben",
    "category": "SCENIC_POINT",
    "region": "Alps",
    "country": "Europe",
    "lat": 46.2719045,
    "lng": 7.5984156,
    "nearest_airport": "MXP",
    "description": "Auto-imported SCENIC_POINT. Altitude: N/Am"
  },
  "vue-sur-mulhouse": {
    "name": "Vue sur Mulhouse",
    "slug": "vue-sur-mulhouse",
    "category": "SCENIC_POINT",
    "region": "Alps",
    "country": "Europe",
    "lat": 47.7293825,
    "lng": 7.3096513,
    "nearest_airport": "ZRH",
    "description": "Auto-imported SCENIC_POINT. Altitude: N/Am"
  },
  "vue-sur-saut-du-doubs": {
    "name": "vue sur Saut-du-Doubs",
    "slug": "vue-sur-saut-du-doubs",
    "category": "SCENIC_POINT",
    "region": "Alps",
    "country": "Europe",
    "lat": 47.0871642,
    "lng": 6.7140603,
    "nearest_airport": "GVA",
    "description": "Auto-imported SCENIC_POINT. Altitude: N/Am"
  },
  "vue-sur-tour": {
    "name": "vue sur tour",
    "slug": "vue-sur-tour",
    "category": "SCENIC_POINT",
    "region": "Alps",
    "country": "Europe",
    "lat": 45.0700606,
    "lng": 5.7309037,
    "nearest_airport": "GVA",
    "description": "Auto-imported SCENIC_POINT. Altitude: N/Am"
  },
  "vukanovec": {
    "name": "Vukanovec",
    "slug": "vukanovec",
    "category": "SCENIC_POINT",
    "region": "Alps",
    "country": "Europe",
    "lat": 46.4590593,
    "lng": 16.3401257,
    "nearest_airport": "VIE",
    "description": "Auto-imported SCENIC_POINT. Altitude: 331m"
  },
  "vukovica-podi": {
    "name": "Vukovica podi",
    "slug": "vukovica-podi",
    "category": "SCENIC_POINT",
    "region": "Alps",
    "country": "Europe",
    "lat": 43.8561529,
    "lng": 15.9630127,
    "nearest_airport": "VCE",
    "description": "Auto-imported SCENIC_POINT. Altitude: N/Am"
  }
}