{
  "wachbuhl": {
    "name": "Wachbühl",
    "slug": "wachbuhl",
    "category": "SCENIC_POINT",
    "region": "Alps",
    "country": "Europe",
    "lat": 47.8729963,
    "lng": 9.9706344,
    "nearest_airport": "ZRH",
    "description": "Auto-imported SCENIC_POINT. Altitude: 793m"
  },
  "wacht": {
    "name": "Wacht",
    "slug": "wacht",
    "category": "MOUNTAIN_PASS",
    "region": "Alps",
    "country": "Europe",
    "lat": 47.8030225,
    "lng": 8.0040407,
    "nearest_airport": "ZRH",
    "description": "Auto-imported MOUNTAIN_PASS. Altitude: 973m"
  },
  "wachtfeuer": {
    "name": "Wachtfeuer",
    "slug": "wachtfeuer",
    "category": "SCENIC_POINT",
    "region": "Alps",
    "country": "Europe",
    "lat": 46.6953245,
    "lng": 7.8841916,
    "nearest_airport": "ZRH",
    "description": "Auto-imported SCENIC_POINT. Altitude: N/Am"
  },
  "wachtturm": {
    "name": "Wachtturm",
    "slug": "wachtturm",
    "category": "SCENIC_POINT",
    "region": "Alps",
    "country": "Europe",
    "lat": 47.0540136,
    "lng": 8.3031923,
    "nearest_airport": "ZRH",
    "description": "Auto-imported SCENIC_POINT. Altitude: N/Am"
  },
  "wagner-camp": {
    "name": "Wagner Camp",
    "slug": "wagner-camp",
    "category": "SCENIC_POINT",
    "region": "Alps",
    "country": "Europe",
    "lat": 46.9965834,
    "lng": 15.0816348,
    "nearest_airport": "VIE",
    "description": "Auto-imported SCENIC_POINT. Altitude: N/Am"
  },
  "waid": {
    "name": "Waid",
    "slug": "waid",
    "category": "SCENIC_POINT",
    "region": "Alps",
    "country": "Europe",
    "lat": 47.3996128,
    "lng": 8.5144127,
    "nearest_airport": "ZRH",
    "description": "Auto-imported SCENIC_POINT. Altitude: N/Am"
  },
  "waidhofner-blick": {
    "name": "Waidhofner Blick",
    "slug": "waidhofner-blick",
    "category": "SCENIC_POINT",
    "region": "Alps",
    "country": "Europe",
    "lat": 47.9475623,
    "lng": 14.771727,
    "nearest_airport": "SZG",
    "description": "Auto-imported SCENIC_POINT. Altitude: N/Am"
  },
  "walchenklamm": {
    "name": "Walchenklamm",
    "slug": "walchenklamm",
    "category": "SCENIC_POINT",
    "region": "Alps",
    "country": "Europe",
    "lat": 47.5814449,
    "lng": 11.5953436,
    "nearest_airport": "INN",
    "description": "Auto-imported SCENIC_POINT. Altitude: N/Am"
  },
  "walchstadter-hohe": {
    "name": "Walchstädter Höhe",
    "slug": "walchstadter-hohe",
    "category": "SCENIC_POINT",
    "region": "Alps",
    "country": "Europe",
    "lat": 47.9411199,
    "lng": 11.415043,
    "nearest_airport": "MUC",
    "description": "Auto-imported SCENIC_POINT. Altitude: 703m"
  },
  "wald-wasser-zauber": {
    "name": "Wald Wasser Zauber",
    "slug": "wald-wasser-zauber",
    "category": "SCENIC_POINT",
    "region": "Alps",
    "country": "Europe",
    "lat": 47.7020586,
    "lng": 13.2855434,
    "nearest_airport": "SZG",
    "description": "Auto-imported SCENIC_POINT. Altitude: N/Am"
  },
  "waldegg": {
    "name": "Waldegg",
    "slug": "waldegg",
    "category": "MOUNTAIN_PASS",
    "region": "Alps",
    "country": "Europe",
    "lat": 47.4027307,
    "lng": 9.4110952,
    "nearest_airport": "ZRH",
    "description": "Auto-imported MOUNTAIN_PASS. Altitude: 986m"
  },
  "walden": {
    "name": "Walden",
    "slug": "walden",
    "category": "SCENIC_POINT",
    "region": "Alps",
    "country": "Europe",
    "lat": 47.2786845,
    "lng": 7.6780643,
    "nearest_airport": "ZRH",
    "description": "Auto-imported SCENIC_POINT. Altitude: N/Am"
  },
  "walderalp": {
    "name": "Walderalp",
    "slug": "walderalp",
    "category": "SCENIC_POINT",
    "region": "Alps",
    "country": "Europe",
    "lat": 47.2864347,
    "lng": 7.6874965,
    "nearest_airport": "ZRH",
    "description": "Auto-imported SCENIC_POINT. Altitude: N/Am"
  },
  "waldesstille": {
    "name": "Waldesstille",
    "slug": "waldesstille",
    "category": "SCENIC_POINT",
    "region": "Alps",
    "country": "Europe",
    "lat": 46.577005,
    "lng": 14.3012684,
    "nearest_airport": "SZG",
    "description": "Auto-imported SCENIC_POINT. Altitude: N/Am"
  },
  "waldfernseher": {
    "name": "Waldfernseher",
    "slug": "waldfernseher",
    "category": "SCENIC_POINT",
    "region": "Alps",
    "country": "Europe",
    "lat": 47.7365569,
    "lng": 11.5114182,
    "nearest_airport": "INN",
    "description": "Auto-imported SCENIC_POINT. Altitude: N/Am"
  },
  "waldhorntorl": {
    "name": "Waldhorntörl",
    "slug": "waldhorntorl",
    "category": "MOUNTAIN_PASS",
    "region": "Alps",
    "country": "Europe",
    "lat": 47.2934315,
    "lng": 13.8084114,
    "nearest_airport": "SZG",
    "description": "Auto-imported MOUNTAIN_PASS. Altitude: 2283m"
  },
  "waldhorntorl-794": {
    "name": "Waldhorntörl",
    "slug": "waldhorntorl-794",
    "category": "MOUNTAIN_PASS",
    "region": "Alps",
    "country": "",
    "lat": 47.2934315,
    "lng": 13.8084114,
    "nearest_airport": "",
    "description": "Verified Location."
  },
  "waldlehrpfad-edelkastanienwald-und-weingarten": {
    "name": "Waldlehrpfad Edelkastanienwald und Weingarten",
    "slug": "waldlehrpfad-edelkastanienwald-und-weingarten",
    "category": "SCENIC_POINT",
    "region": "Alps",
    "country": "Europe",
    "lat": 47.8098096,
    "lng": 13.4908619,
    "nearest_airport": "SZG",
    "description": "Auto-imported SCENIC_POINT. Altitude: N/Am"
  },
  "waldrast": {
    "name": "Waldrast",
    "slug": "waldrast",
    "category": "SCENIC_POINT",
    "region": "Alps",
    "country": "Europe",
    "lat": 46.5761343,
    "lng": 13.7916649,
    "nearest_airport": "SZG",
    "description": "Auto-imported SCENIC_POINT. Altitude: 965m"
  },
  "waldturm": {
    "name": "Waldturm",
    "slug": "waldturm",
    "category": "SCENIC_POINT",
    "region": "Alps",
    "country": "Europe",
    "lat": 47.5646626,
    "lng": 8.8958227,
    "nearest_airport": "ZRH",
    "description": "Auto-imported SCENIC_POINT. Altitude: N/Am"
  },
  "walenalp": {
    "name": "Walenalp",
    "slug": "walenalp",
    "category": "SCENIC_POINT",
    "region": "Alps",
    "country": "Europe",
    "lat": 46.8638777,
    "lng": 8.3990309,
    "nearest_airport": "ZRH",
    "description": "Auto-imported SCENIC_POINT. Altitude: N/Am"
  },
  "walisches-kar-forcella-val-grande": {
    "name": "Walisches Kar / Forcella Val Grande",
    "slug": "walisches-kar-forcella-val-grande",
    "category": "MOUNTAIN_PASS",
    "region": "Alps",
    "country": "Europe",
    "lat": 46.6561979,
    "lng": 12.6837949,
    "nearest_airport": "INN",
    "description": "Auto-imported MOUNTAIN_PASS. Altitude: 2401m"
  },
  "walisches-kar-forcella-val-grande-2830": {
    "name": "Walisches Kar / Forcella Val Grande",
    "slug": "walisches-kar-forcella-val-grande-2830",
    "category": "MOUNTAIN_PASS",
    "region": "Alps",
    "country": "",
    "lat": 46.6561979,
    "lng": 12.6837949,
    "nearest_airport": "",
    "description": "Verified Location."
  },
  "wallberg-fernrohr": {
    "name": "Wallberg Fernrohr",
    "slug": "wallberg-fernrohr",
    "category": "SCENIC_POINT",
    "region": "Alps",
    "country": "Europe",
    "lat": 47.6658887,
    "lng": 11.7966601,
    "nearest_airport": "INN",
    "description": "Auto-imported SCENIC_POINT. Altitude: N/Am"
  },
  "wallburg": {
    "name": "Wallburg",
    "slug": "wallburg",
    "category": "SCENIC_POINT",
    "region": "Alps",
    "country": "Europe",
    "lat": 46.6504385,
    "lng": 10.9796453,
    "nearest_airport": "INN",
    "description": "Auto-imported SCENIC_POINT. Altitude: N/Am"
  },
  "wallfahrtsjochl": {
    "name": "Wallfahrtsjöchl",
    "slug": "wallfahrtsjochl",
    "category": "MOUNTAIN_PASS",
    "region": "Alps",
    "country": "Europe",
    "lat": 47.057024,
    "lng": 10.800845,
    "nearest_airport": "INN",
    "description": "Auto-imported MOUNTAIN_PASS. Altitude: 2766m"
  },
  "wallfahrtsjochl-1874": {
    "name": "Wallfahrtsjöchl",
    "slug": "wallfahrtsjochl-1874",
    "category": "MOUNTAIN_PASS",
    "region": "Alps",
    "country": "",
    "lat": 47.057024,
    "lng": 10.800845,
    "nearest_airport": "",
    "description": "Verified Location."
  },
  "wallfahrtskirche-gormund": {
    "name": "Wallfahrtskirche Gormund",
    "slug": "wallfahrtskirche-gormund",
    "category": "SCENIC_POINT",
    "region": "Alps",
    "country": "Europe",
    "lat": 47.1595496,
    "lng": 8.2200901,
    "nearest_airport": "ZRH",
    "description": "Auto-imported SCENIC_POINT. Altitude: N/Am"
  },
  "wallnereck-monte-valnera": {
    "name": "Wallnereck - Monte Valnera",
    "slug": "wallnereck-monte-valnera",
    "category": "SCENIC_POINT",
    "region": "Alps",
    "country": "Europe",
    "lat": 46.5274899,
    "lng": 11.4389724,
    "nearest_airport": "INN",
    "description": "Auto-imported SCENIC_POINT. Altitude: N/Am"
  },
  "walmendinger-horn": {
    "name": "Walmendinger Horn",
    "slug": "walmendinger-horn",
    "category": "SCENIC_POINT",
    "region": "Alps",
    "country": "Europe",
    "lat": 47.3266645,
    "lng": 10.1281645,
    "nearest_airport": "INN",
    "description": "Auto-imported SCENIC_POINT. Altitude: 1980m"
  },
  "walzenberg": {
    "name": "Walzenberg",
    "slug": "walzenberg",
    "category": "SCENIC_POINT",
    "region": "Alps",
    "country": "Europe",
    "lat": 47.7224144,
    "lng": 9.065321,
    "nearest_airport": "ZRH",
    "description": "Auto-imported SCENIC_POINT. Altitude: N/Am"
  },
  "wandertrilogie-allgau-kapelle-st-peter": {
    "name": "Wandertrilogie Allgäu Kapelle St. Peter",
    "slug": "wandertrilogie-allgau-kapelle-st-peter",
    "category": "SCENIC_POINT",
    "region": "Alps",
    "country": "Europe",
    "lat": 47.6299942,
    "lng": 10.8049717,
    "nearest_airport": "INN",
    "description": "Auto-imported SCENIC_POINT. Altitude: 843m"
  },
  "wandertrilogie-blick": {
    "name": "Wandertrilogie Blick",
    "slug": "wandertrilogie-blick",
    "category": "SCENIC_POINT",
    "region": "Alps",
    "country": "Europe",
    "lat": 47.5980725,
    "lng": 9.8415305,
    "nearest_airport": "ZRH",
    "description": "Auto-imported SCENIC_POINT. Altitude: N/Am"
  },
  "wandflue": {
    "name": "Wandflue",
    "slug": "wandflue",
    "category": "SCENIC_POINT",
    "region": "Alps",
    "country": "Europe",
    "lat": 47.5849107,
    "lng": 8.1627171,
    "nearest_airport": "ZRH",
    "description": "Auto-imported SCENIC_POINT. Altitude: N/Am"
  },
  "wandfluh": {
    "name": "Wandfluh",
    "slug": "wandfluh",
    "category": "SCENIC_POINT",
    "region": "Alps",
    "country": "Europe",
    "lat": 47.2324869,
    "lng": 9.94441,
    "nearest_airport": "INN",
    "description": "Auto-imported SCENIC_POINT. Altitude: N/Am"
  },
  "wangscharte": {
    "name": "Wangscharte",
    "slug": "wangscharte",
    "category": "MOUNTAIN_PASS",
    "region": "Alps",
    "country": "Europe",
    "lat": 47.1883697,
    "lng": 10.1982312,
    "nearest_airport": "INN",
    "description": "Auto-imported MOUNTAIN_PASS. Altitude: N/Am"
  },
  "wanifurggel": {
    "name": "Wänifurggel",
    "slug": "wanifurggel",
    "category": "MOUNTAIN_PASS",
    "region": "Alps",
    "country": "Europe",
    "lat": 47.1180541,
    "lng": 8.9946536,
    "nearest_airport": "ZRH",
    "description": "Auto-imported MOUNTAIN_PASS. Altitude: 1610m"
  },
  "wankerfels": {
    "name": "Wänkerfels",
    "slug": "wankerfels",
    "category": "SCENIC_POINT",
    "region": "Alps",
    "country": "Europe",
    "lat": 47.7864044,
    "lng": 7.6900773,
    "nearest_airport": "ZRH",
    "description": "Auto-imported SCENIC_POINT. Altitude: N/Am"
  },
  "wankweg": {
    "name": "Wankweg",
    "slug": "wankweg",
    "category": "SCENIC_POINT",
    "region": "Alps",
    "country": "Europe",
    "lat": 47.5035116,
    "lng": 11.1283095,
    "nearest_airport": "INN",
    "description": "Auto-imported SCENIC_POINT. Altitude: N/Am"
  },
  "wannenfluh": {
    "name": "Wannenfluh",
    "slug": "wannenfluh",
    "category": "SCENIC_POINT",
    "region": "Alps",
    "country": "Europe",
    "lat": 47.2912066,
    "lng": 7.6879061,
    "nearest_airport": "ZRH",
    "description": "Auto-imported SCENIC_POINT. Altitude: N/Am"
  },
  "wannenhohe": {
    "name": "Wannenhöhe",
    "slug": "wannenhohe",
    "category": "MOUNTAIN_PASS",
    "region": "Alps",
    "country": "Europe",
    "lat": 47.3128445,
    "lng": 9.8926733,
    "nearest_airport": "ZRH",
    "description": "Auto-imported MOUNTAIN_PASS. Altitude: 1915m"
  },
  "wannenjochli": {
    "name": "Wannenjöchli",
    "slug": "wannenjochli",
    "category": "MOUNTAIN_PASS",
    "region": "Alps",
    "country": "Europe",
    "lat": 47.0354217,
    "lng": 10.1799061,
    "nearest_airport": "INN",
    "description": "Auto-imported MOUNTAIN_PASS. Altitude: 2633m"
  },
  "wannenjochli-3040": {
    "name": "Wannenjöchli",
    "slug": "wannenjochli-3040",
    "category": "MOUNTAIN_PASS",
    "region": "Alps",
    "country": "",
    "lat": 47.0354217,
    "lng": 10.1799061,
    "nearest_airport": "",
    "description": "Verified Location."
  },
  "wannenkarsattel": {
    "name": "Wannenkarsattel",
    "slug": "wannenkarsattel",
    "category": "MOUNTAIN_PASS",
    "region": "Alps",
    "country": "Europe",
    "lat": 46.9344988,
    "lng": 11.0685612,
    "nearest_airport": "INN",
    "description": "Auto-imported MOUNTAIN_PASS. Altitude: 2916m"
  },
  "wannenkarsattel-3157": {
    "name": "Wannenkarsattel",
    "slug": "wannenkarsattel-3157",
    "category": "MOUNTAIN_PASS",
    "region": "Alps",
    "country": "",
    "lat": 46.9344988,
    "lng": 11.0685612,
    "nearest_airport": "",
    "description": "Verified Location."
  },
  "wannepass": {
    "name": "Wannepass",
    "slug": "wannepass",
    "category": "MOUNTAIN_PASS",
    "region": "Alps",
    "country": "Europe",
    "lat": 46.7812391,
    "lng": 7.9949589,
    "nearest_airport": "ZRH",
    "description": "Auto-imported MOUNTAIN_PASS. Altitude: 2070m"
  },
  "wannepass-3865": {
    "name": "Wannepass",
    "slug": "wannepass-3865",
    "category": "MOUNTAIN_PASS",
    "region": "Alps",
    "country": "",
    "lat": 46.7812391,
    "lng": 7.9949589,
    "nearest_airport": "",
    "description": "Verified Location."
  },
  "wannetjoch": {
    "name": "Wannetjoch",
    "slug": "wannetjoch",
    "category": "MOUNTAIN_PASS",
    "region": "Alps",
    "country": "Europe",
    "lat": 46.8895347,
    "lng": 10.7809446,
    "nearest_airport": "INN",
    "description": "Auto-imported MOUNTAIN_PASS. Altitude: 3110m"
  },
  "wannetjoch-1027": {
    "name": "Wannetjoch",
    "slug": "wannetjoch-1027",
    "category": "MOUNTAIN_PASS",
    "region": "Alps",
    "country": "",
    "lat": 46.8895347,
    "lng": 10.7809446,
    "nearest_airport": "",
    "description": "Verified Location."
  },
  "wannser-joch": {
    "name": "Wannser Joch",
    "slug": "wannser-joch",
    "category": "MOUNTAIN_PASS",
    "region": "Alps",
    "country": "Europe",
    "lat": 46.7975233,
    "lng": 11.3606003,
    "nearest_airport": "INN",
    "description": "Auto-imported MOUNTAIN_PASS. Altitude: 2245m"
  },
  "wannser-joch-3249": {
    "name": "Wannser Joch",
    "slug": "wannser-joch-3249",
    "category": "MOUNTAIN_PASS",
    "region": "Alps",
    "country": "",
    "lat": 46.7975233,
    "lng": 11.3606003,
    "nearest_airport": "",
    "description": "Verified Location."
  },
  "warenkarscharte": {
    "name": "Warenkarscharte",
    "slug": "warenkarscharte",
    "category": "MOUNTAIN_PASS",
    "region": "Alps",
    "country": "Europe",
    "lat": 46.9843988,
    "lng": 11.080107,
    "nearest_airport": "INN",
    "description": "Auto-imported MOUNTAIN_PASS. Altitude: 3186m"
  },
  "warenkarscharte-1865": {
    "name": "Warenkarscharte",
    "slug": "warenkarscharte-1865",
    "category": "MOUNTAIN_PASS",
    "region": "Alps",
    "country": "",
    "lat": 46.9843988,
    "lng": 11.080107,
    "nearest_airport": "",
    "description": "Verified Location."
  },
  "wartboden": {
    "name": "Wartboden",
    "slug": "wartboden",
    "category": "SCENIC_POINT",
    "region": "Alps",
    "country": "Europe",
    "lat": 46.7556901,
    "lng": 7.6410926,
    "nearest_airport": "ZRH",
    "description": "Auto-imported SCENIC_POINT. Altitude: N/Am"
  },
  "wartbuck": {
    "name": "Wartbuck",
    "slug": "wartbuck",
    "category": "SCENIC_POINT",
    "region": "Alps",
    "country": "Europe",
    "lat": 47.7347259,
    "lng": 8.2121202,
    "nearest_airport": "ZRH",
    "description": "Auto-imported SCENIC_POINT. Altitude: N/Am"
  },
  "wartebereich-gate-d43": {
    "name": "Wartebereich Gate D43",
    "slug": "wartebereich-gate-d43",
    "category": "SCENIC_POINT",
    "region": "Alps",
    "country": "Europe",
    "lat": 47.4511665,
    "lng": 8.5573989,
    "nearest_airport": "ZRH",
    "description": "Der Wartebereich des Gate D43 ist ungleich der anderen D43 im 1 Stock und bietet eine hervorragende Aussicht über startende und landende Flugzeuge, ähnlich der darüber liegenden Zuschauerterrasse. Zugang nur für Kunden des Gate D."
  },
  "wartherhorn-sattel": {
    "name": "Wartherhorn-Sattel",
    "slug": "wartherhorn-sattel",
    "category": "MOUNTAIN_PASS",
    "region": "Alps",
    "country": "Europe",
    "lat": 47.2507212,
    "lng": 10.1561227,
    "nearest_airport": "INN",
    "description": "Auto-imported MOUNTAIN_PASS. Altitude: 2193m"
  },
  "wartherhorn-sattel-3594": {
    "name": "Wartherhorn-Sattel",
    "slug": "wartherhorn-sattel-3594",
    "category": "MOUNTAIN_PASS",
    "region": "Alps",
    "country": "",
    "lat": 47.2507212,
    "lng": 10.1561227,
    "nearest_airport": "",
    "description": "Verified Location."
  },
  "wasserbehalter": {
    "name": "Wasserbehälter",
    "slug": "wasserbehalter",
    "category": "SCENIC_POINT",
    "region": "Alps",
    "country": "Europe",
    "lat": 47.3421443,
    "lng": 16.2392626,
    "nearest_airport": "VIE",
    "description": "Auto-imported SCENIC_POINT. Altitude: N/Am"
  },
  "wasserfall": {
    "name": "Wasserfall",
    "slug": "wasserfall",
    "category": "SCENIC_POINT",
    "region": "Alps",
    "country": "Europe",
    "lat": 47.5003887,
    "lng": 10.1946493,
    "nearest_airport": "INN",
    "description": "Auto-imported SCENIC_POINT. Altitude: N/Am"
  },
  "wasserfall-al-maglio": {
    "name": "Wasserfall Al Maglio",
    "slug": "wasserfall-al-maglio",
    "category": "SCENIC_POINT",
    "region": "Alps",
    "country": "Europe",
    "lat": 46.0248207,
    "lng": 8.8684939,
    "nearest_airport": "MXP",
    "description": "Auto-imported SCENIC_POINT. Altitude: N/Am"
  },
  "wasserfall-blick": {
    "name": "Wasserfall-Blick",
    "slug": "wasserfall-blick",
    "category": "SCENIC_POINT",
    "region": "Alps",
    "country": "Europe",
    "lat": 47.3784059,
    "lng": 11.2845625,
    "nearest_airport": "INN",
    "description": "Auto-imported SCENIC_POINT. Altitude: N/Am"
  },
  "wasserfall-cascata": {
    "name": "Wasserfall - Cascata",
    "slug": "wasserfall-cascata",
    "category": "SCENIC_POINT",
    "region": "Alps",
    "country": "Europe",
    "lat": 46.6938829,
    "lng": 11.0506543,
    "nearest_airport": "INN",
    "description": "Auto-imported SCENIC_POINT. Altitude: N/Am"
  },
  "wasserfall-und-kaskade": {
    "name": "Wasserfall und Kaskade",
    "slug": "wasserfall-und-kaskade",
    "category": "SCENIC_POINT",
    "region": "Alps",
    "country": "Europe",
    "lat": 47.2986823,
    "lng": 10.2739243,
    "nearest_airport": "INN",
    "description": "Auto-imported SCENIC_POINT. Altitude: N/Am"
  },
  "wasserfallblick": {
    "name": "Wasserfallblick",
    "slug": "wasserfallblick",
    "category": "SCENIC_POINT",
    "region": "Alps",
    "country": "Europe",
    "lat": 47.2330369,
    "lng": 12.2639478,
    "nearest_airport": "INN",
    "description": "Auto-imported SCENIC_POINT. Altitude: N/Am"
  },
  "wasserfallblick-vista-sulla-cascata": {
    "name": "Wasserfallblick - Vista sulla cascata",
    "slug": "wasserfallblick-vista-sulla-cascata",
    "category": "SCENIC_POINT",
    "region": "Alps",
    "country": "Europe",
    "lat": 46.8738075,
    "lng": 12.1083062,
    "nearest_airport": "INN",
    "description": "Auto-imported SCENIC_POINT. Altitude: N/Am"
  },
  "wasserfalle": {
    "name": "Wasserfälle",
    "slug": "wasserfalle",
    "category": "SCENIC_POINT",
    "region": "Alps",
    "country": "Europe",
    "lat": 47.4714932,
    "lng": 12.8618287,
    "nearest_airport": "SZG",
    "description": "Auto-imported SCENIC_POINT. Altitude: N/Am"
  },
  "wasserfallkanzel": {
    "name": "Wasserfallkanzel",
    "slug": "wasserfallkanzel",
    "category": "SCENIC_POINT",
    "region": "Alps",
    "country": "Europe",
    "lat": 47.2317328,
    "lng": 12.2654295,
    "nearest_airport": "INN",
    "description": "Auto-imported SCENIC_POINT. Altitude: N/Am"
  },
  "wasserfallscharte": {
    "name": "Wasserfallscharte",
    "slug": "wasserfallscharte",
    "category": "MOUNTAIN_PASS",
    "region": "Alps",
    "country": "Europe",
    "lat": 47.4460396,
    "lng": 12.9698625,
    "nearest_airport": "SZG",
    "description": "Auto-imported MOUNTAIN_PASS. Altitude: N/Am"
  },
  "wasserfallwand": {
    "name": "Wasserfallwand",
    "slug": "wasserfallwand",
    "category": "SCENIC_POINT",
    "region": "Alps",
    "country": "Europe",
    "lat": 47.5633061,
    "lng": 13.6947141,
    "nearest_airport": "SZG",
    "description": "Auto-imported SCENIC_POINT. Altitude: N/Am"
  },
  "wasserflue-844m-u-m": {
    "name": "Wasserflue 844m ü. M.",
    "slug": "wasserflue-844m-u-m",
    "category": "SCENIC_POINT",
    "region": "Alps",
    "country": "Europe",
    "lat": 47.430027,
    "lng": 8.0245187,
    "nearest_airport": "ZRH",
    "description": "Auto-imported SCENIC_POINT. Altitude: N/Am"
  },
  "wasserfluh": {
    "name": "Wasserfluh",
    "slug": "wasserfluh",
    "category": "MOUNTAIN_PASS",
    "region": "Alps",
    "country": "Europe",
    "lat": 47.3260492,
    "lng": 9.1145655,
    "nearest_airport": "ZRH",
    "description": "Auto-imported MOUNTAIN_PASS. Altitude: 848m"
  },
  "wasserfluh-2415": {
    "name": "Wasserfluh",
    "slug": "wasserfluh-2415",
    "category": "MOUNTAIN_PASS",
    "region": "Alps",
    "country": "",
    "lat": 47.3260492,
    "lng": 9.1145655,
    "nearest_airport": "",
    "description": "Verified Location."
  },
  "wasserkopfbergbach": {
    "name": "Wasserkopf/Bergbach",
    "slug": "wasserkopfbergbach",
    "category": "SCENIC_POINT",
    "region": "Alps",
    "country": "Europe",
    "lat": 46.1000164,
    "lng": 7.9651307,
    "nearest_airport": "MXP",
    "description": "Auto-imported SCENIC_POINT. Altitude: N/Am"
  },
  "wassersage": {
    "name": "Wassersäge",
    "slug": "wassersage",
    "category": "SCENIC_POINT",
    "region": "Alps",
    "country": "Europe",
    "lat": 47.460087,
    "lng": 8.0485419,
    "nearest_airport": "ZRH",
    "description": "Auto-imported SCENIC_POINT. Altitude: N/Am"
  },
  "wasserscheide-donaurhein": {
    "name": "Wasserscheide Donau/Rhein",
    "slug": "wasserscheide-donaurhein",
    "category": "MOUNTAIN_PASS",
    "region": "Alps",
    "country": "Europe",
    "lat": 47.8833196,
    "lng": 8.7262574,
    "nearest_airport": "ZRH",
    "description": "Auto-imported MOUNTAIN_PASS. Altitude: 792m"
  },
  "wasserscheide-dreisamgutach": {
    "name": "Wasserscheide Dreisam/Gutach",
    "slug": "wasserscheide-dreisamgutach",
    "category": "MOUNTAIN_PASS",
    "region": "Alps",
    "country": "Europe",
    "lat": 47.9115203,
    "lng": 8.1108414,
    "nearest_airport": "ZRH",
    "description": "Auto-imported MOUNTAIN_PASS. Altitude: 910m"
  },
  "wasserscheide-eschachiller": {
    "name": "Wasserscheide Eschach/Iller",
    "slug": "wasserscheide-eschachiller",
    "category": "MOUNTAIN_PASS",
    "region": "Alps",
    "country": "Europe",
    "lat": 47.7195702,
    "lng": 10.2166658,
    "nearest_airport": "INN",
    "description": "Auto-imported MOUNTAIN_PASS. Altitude: 913m"
  },
  "wasserscheide-rheindonau": {
    "name": "Wasserscheide Rhein/Donau",
    "slug": "wasserscheide-rheindonau",
    "category": "MOUNTAIN_PASS",
    "region": "Alps",
    "country": "Europe",
    "lat": 47.551722,
    "lng": 10.0457622,
    "nearest_airport": "INN",
    "description": "Auto-imported MOUNTAIN_PASS. Altitude: 774m"
  },
  "wasserscheide-wertachiller": {
    "name": "Wasserscheide Wertach/Iller",
    "slug": "wasserscheide-wertachiller",
    "category": "MOUNTAIN_PASS",
    "region": "Alps",
    "country": "Europe",
    "lat": 47.5178954,
    "lng": 10.4090263,
    "nearest_airport": "INN",
    "description": "Auto-imported MOUNTAIN_PASS. Altitude: 1156m"
  },
  "wasserschloss": {
    "name": "Wasserschloss",
    "slug": "wasserschloss",
    "category": "SCENIC_POINT",
    "region": "Alps",
    "country": "Europe",
    "lat": 47.2420843,
    "lng": 9.5944301,
    "nearest_airport": "ZRH",
    "description": "Auto-imported SCENIC_POINT. Altitude: N/Am"
  },
  "wasserschlossblick": {
    "name": "Wasserschlossblick",
    "slug": "wasserschlossblick",
    "category": "SCENIC_POINT",
    "region": "Alps",
    "country": "Europe",
    "lat": 47.5006056,
    "lng": 8.22546,
    "nearest_airport": "ZRH",
    "description": "Auto-imported SCENIC_POINT. Altitude: N/Am"
  },
  "wasserturm-heitersheim": {
    "name": "Wasserturm Heitersheim",
    "slug": "wasserturm-heitersheim",
    "category": "SCENIC_POINT",
    "region": "Alps",
    "country": "Europe",
    "lat": 47.8627001,
    "lng": 7.6766969,
    "nearest_airport": "ZRH",
    "description": "Auto-imported SCENIC_POINT. Altitude: N/Am"
  },
  "wasserturm-horn": {
    "name": "Wasserturm Horn",
    "slug": "wasserturm-horn",
    "category": "SCENIC_POINT",
    "region": "Alps",
    "country": "Europe",
    "lat": 47.6993038,
    "lng": 8.9854314,
    "nearest_airport": "ZRH",
    "description": "Auto-imported SCENIC_POINT. Altitude: N/Am"
  },
  "wasswerreservoir-dudingen": {
    "name": "Wasswerreservoir Düdingen",
    "slug": "wasswerreservoir-dudingen",
    "category": "SCENIC_POINT",
    "region": "Alps",
    "country": "Europe",
    "lat": 46.834743,
    "lng": 7.1915652,
    "nearest_airport": "GVA",
    "description": "Auto-imported SCENIC_POINT. Altitude: 667m"
  },
  "wastl-am-wald": {
    "name": "Wastl am Wald",
    "slug": "wastl-am-wald",
    "category": "MOUNTAIN_PASS",
    "region": "Alps",
    "country": "Europe",
    "lat": 47.8939688,
    "lng": 15.3038458,
    "nearest_airport": "VIE",
    "description": "Auto-imported MOUNTAIN_PASS. Altitude: 1110m"
  },
  "wastl-am-wald-55": {
    "name": "Wastl am Wald",
    "slug": "wastl-am-wald-55",
    "category": "MOUNTAIN_PASS",
    "region": "Alps",
    "country": "",
    "lat": 47.8939688,
    "lng": 15.3038458,
    "nearest_airport": "",
    "description": "Verified Location."
  },
  "wasujoch": {
    "name": "Wasujoch",
    "slug": "wasujoch",
    "category": "MOUNTAIN_PASS",
    "region": "Alps",
    "country": "Europe",
    "lat": 46.1721895,
    "lng": 7.7435052,
    "nearest_airport": "MXP",
    "description": "Auto-imported MOUNTAIN_PASS. Altitude: 3224m"
  },
  "wasujoch-3669": {
    "name": "Wasujoch",
    "slug": "wasujoch-3669",
    "category": "MOUNTAIN_PASS",
    "region": "Alps",
    "country": "",
    "lat": 46.1721895,
    "lng": 7.7435052,
    "nearest_airport": "",
    "description": "Verified Location."
  },
  "wasulicke": {
    "name": "Wasulicke",
    "slug": "wasulicke",
    "category": "MOUNTAIN_PASS",
    "region": "Alps",
    "country": "Europe",
    "lat": 46.175454,
    "lng": 7.753957,
    "nearest_airport": "MXP",
    "description": "Auto-imported MOUNTAIN_PASS. Altitude: 3114m"
  },
  "wasulicke-1444": {
    "name": "Wasulicke",
    "slug": "wasulicke-1444",
    "category": "MOUNTAIN_PASS",
    "region": "Alps",
    "country": "",
    "lat": 46.175454,
    "lng": 7.753957,
    "nearest_airport": "",
    "description": "Verified Location."
  },
  "water-mill": {
    "name": "Water Mill",
    "slug": "water-mill",
    "category": "SCENIC_POINT",
    "region": "Alps",
    "country": "Europe",
    "lat": 46.3941386,
    "lng": 14.6988455,
    "nearest_airport": "SZG",
    "description": "Auto-imported SCENIC_POINT. Altitude: N/Am"
  },
  "watzejoch": {
    "name": "Watzejoch",
    "slug": "watzejoch",
    "category": "MOUNTAIN_PASS",
    "region": "Alps",
    "country": "Europe",
    "lat": 46.9770733,
    "lng": 10.798888,
    "nearest_airport": "INN",
    "description": "Auto-imported MOUNTAIN_PASS. Altitude: 3138m"
  },
  "watzejoch-422": {
    "name": "Watzejoch",
    "slug": "watzejoch-422",
    "category": "MOUNTAIN_PASS",
    "region": "Alps",
    "country": "",
    "lat": 46.9770733,
    "lng": 10.798888,
    "nearest_airport": "",
    "description": "Verified Location."
  },
  "watzmannblick": {
    "name": "Watzmannblick",
    "slug": "watzmannblick",
    "category": "SCENIC_POINT",
    "region": "Alps",
    "country": "Europe",
    "lat": 47.9205187,
    "lng": 13.6902141,
    "nearest_airport": "SZG",
    "description": "Auto-imported SCENIC_POINT. Altitude: N/Am"
  },
  "watzmannscharte": {
    "name": "Watzmannscharte",
    "slug": "watzmannscharte",
    "category": "MOUNTAIN_PASS",
    "region": "Alps",
    "country": "Europe",
    "lat": 47.5549882,
    "lng": 12.9393131,
    "nearest_airport": "SZG",
    "description": "Auto-imported MOUNTAIN_PASS. Altitude: 2060m"
  },
  "watzmannscharte-1867": {
    "name": "Watzmannscharte",
    "slug": "watzmannscharte-1867",
    "category": "MOUNTAIN_PASS",
    "region": "Alps",
    "country": "",
    "lat": 47.5549882,
    "lng": 12.9393131,
    "nearest_airport": "",
    "description": "Verified Location."
  },
  "waxriegel": {
    "name": "Waxriegel",
    "slug": "waxriegel",
    "category": "SCENIC_POINT",
    "region": "Alps",
    "country": "Europe",
    "lat": 47.7602617,
    "lng": 15.8303233,
    "nearest_airport": "VIE",
    "description": "Auto-imported SCENIC_POINT. Altitude: 1888m"
  },
  "wazekopfscharte": {
    "name": "Wazekopfscharte",
    "slug": "wazekopfscharte",
    "category": "MOUNTAIN_PASS",
    "region": "Alps",
    "country": "Europe",
    "lat": 46.9917872,
    "lng": 10.7728294,
    "nearest_airport": "INN",
    "description": "Auto-imported MOUNTAIN_PASS. Altitude: 2784m"
  },
  "wazekopfscharte-1005": {
    "name": "Wazekopfscharte",
    "slug": "wazekopfscharte-1005",
    "category": "MOUNTAIN_PASS",
    "region": "Alps",
    "country": "",
    "lat": 46.9917872,
    "lng": 10.7728294,
    "nearest_airport": "",
    "description": "Verified Location."
  }
}