{
  "web-cam": {
    "name": "web-cam",
    "slug": "web-cam",
    "category": "SCENIC_POINT",
    "region": "Alps",
    "country": "Europe",
    "lat": 43.8002521,
    "lng": 7.4559266,
    "nearest_airport": "NCE",
    "description": "Auto-imported SCENIC_POINT. Altitude: N/Am"
  },
  "webcam-vounetz": {
    "name": "webcam vounetz",
    "slug": "webcam-vounetz",
    "category": "SCENIC_POINT",
    "region": "Alps",
    "country": "Europe",
    "lat": 46.6266414,
    "lng": 7.2072188,
    "nearest_airport": "GVA",
    "description": "Auto-imported SCENIC_POINT. Altitude: N/Am"
  },
  "wechsel": {
    "name": "Wechsel",
    "slug": "wechsel",
    "category": "MOUNTAIN_PASS",
    "region": "Alps",
    "country": "Europe",
    "lat": 47.6447405,
    "lng": 11.8428952,
    "nearest_airport": "INN",
    "description": "Auto-imported MOUNTAIN_PASS. Altitude: 1031m"
  },
  "wechsel-1912": {
    "name": "Wechsel",
    "slug": "wechsel-1912",
    "category": "MOUNTAIN_PASS",
    "region": "Alps",
    "country": "",
    "lat": 47.6447405,
    "lng": 11.8428952,
    "nearest_airport": "",
    "description": "Verified Location."
  },
  "weg-zum-obersee": {
    "name": "Weg zum Obersee",
    "slug": "weg-zum-obersee",
    "category": "SCENIC_POINT",
    "region": "Alps",
    "country": "Europe",
    "lat": 47.5192351,
    "lng": 12.9810809,
    "nearest_airport": "SZG",
    "description": "Auto-imported SCENIC_POINT. Altitude: N/Am"
  },
  "wegendmarkierung": {
    "name": "Wegendmarkierung",
    "slug": "wegendmarkierung",
    "category": "SCENIC_POINT",
    "region": "Alps",
    "country": "Europe",
    "lat": 47.8462207,
    "lng": 13.0334929,
    "nearest_airport": "SZG",
    "description": "Auto-imported SCENIC_POINT. Altitude: N/Am"
  },
  "wegkreuz-mit-marienstatue": {
    "name": "Wegkreuz mit Marienstatue",
    "slug": "wegkreuz-mit-marienstatue",
    "category": "SCENIC_POINT",
    "region": "Alps",
    "country": "Europe",
    "lat": 47.8561394,
    "lng": 12.8129591,
    "nearest_airport": "SZG",
    "description": "Auto-imported SCENIC_POINT. Altitude: N/Am"
  },
  "wegscharte": {
    "name": "Wegscharte",
    "slug": "wegscharte",
    "category": "MOUNTAIN_PASS",
    "region": "Alps",
    "country": "Europe",
    "lat": 47.1893058,
    "lng": 10.4861458,
    "nearest_airport": "INN",
    "description": "Auto-imported MOUNTAIN_PASS. Altitude: 2585m"
  },
  "wegscharte-1072": {
    "name": "Wegscharte",
    "slug": "wegscharte-1072",
    "category": "MOUNTAIN_PASS",
    "region": "Alps",
    "country": "",
    "lat": 47.1893058,
    "lng": 10.4861458,
    "nearest_airport": "",
    "description": "Verified Location."
  },
  "wegweiser-abzweigung-gletscherseewini-saas-balen": {
    "name": "Wegweiser Abzweigung Gletscherseewini / Saas Balen",
    "slug": "wegweiser-abzweigung-gletscherseewini-saas-balen",
    "category": "SCENIC_POINT",
    "region": "Alps",
    "country": "Europe",
    "lat": 46.159232,
    "lng": 7.9466075,
    "nearest_airport": "MXP",
    "description": "Auto-imported SCENIC_POINT. Altitude: N/Am"
  },
  "wegweiser-mit-abzweigung-alpinwanderweg": {
    "name": "Wegweiser mit Abzweigung Alpinwanderweg",
    "slug": "wegweiser-mit-abzweigung-alpinwanderweg",
    "category": "SCENIC_POINT",
    "region": "Alps",
    "country": "Europe",
    "lat": 46.1533537,
    "lng": 7.9509244,
    "nearest_airport": "MXP",
    "description": "Auto-imported SCENIC_POINT. Altitude: N/Am"
  },
  "wehrgrubenjoch": {
    "name": "Wehrgrubenjoch",
    "slug": "wehrgrubenjoch",
    "category": "MOUNTAIN_PASS",
    "region": "Alps",
    "country": "Europe",
    "lat": 47.5434389,
    "lng": 12.6361512,
    "nearest_airport": "SZG",
    "description": "Auto-imported MOUNTAIN_PASS. Altitude: 2218m"
  },
  "wehrgrubenjoch-1678": {
    "name": "Wehrgrubenjoch",
    "slug": "wehrgrubenjoch-1678",
    "category": "MOUNTAIN_PASS",
    "region": "Alps",
    "country": "",
    "lat": 47.5434389,
    "lng": 12.6361512,
    "nearest_airport": "",
    "description": "Verified Location."
  },
  "weidbuche": {
    "name": "Weidbuche",
    "slug": "weidbuche",
    "category": "SCENIC_POINT",
    "region": "Alps",
    "country": "Europe",
    "lat": 47.8016423,
    "lng": 7.8680479,
    "nearest_airport": "ZRH",
    "description": "Auto-imported SCENIC_POINT. Altitude: N/Am"
  },
  "weierhohe": {
    "name": "Weierhöhe",
    "slug": "weierhohe",
    "category": "MOUNTAIN_PASS",
    "region": "Alps",
    "country": "Europe",
    "lat": 47.2509778,
    "lng": 7.7264127,
    "nearest_airport": "ZRH",
    "description": "Auto-imported MOUNTAIN_PASS. Altitude: 485m"
  },
  "weiherkopffelsen": {
    "name": "Weiherkopffelsen",
    "slug": "weiherkopffelsen",
    "category": "SCENIC_POINT",
    "region": "Alps",
    "country": "Europe",
    "lat": 47.7916641,
    "lng": 7.7982548,
    "nearest_airport": "ZRH",
    "description": "Auto-imported SCENIC_POINT. Altitude: N/Am"
  },
  "weinberg-aussicht": {
    "name": "Weinberg-Aussicht",
    "slug": "weinberg-aussicht",
    "category": "SCENIC_POINT",
    "region": "Alps",
    "country": "Europe",
    "lat": 47.9783995,
    "lng": 12.4464068,
    "nearest_airport": "SZG",
    "description": "Auto-imported SCENIC_POINT. Altitude: N/Am"
  },
  "weinberghohe": {
    "name": "Weinberghöhe",
    "slug": "weinberghohe",
    "category": "SCENIC_POINT",
    "region": "Alps",
    "country": "Europe",
    "lat": 47.5460705,
    "lng": 10.2873948,
    "nearest_airport": "INN",
    "description": "Auto-imported SCENIC_POINT. Altitude: 900m"
  },
  "weinbergwarte": {
    "name": "Weinbergwarte",
    "slug": "weinbergwarte",
    "category": "SCENIC_POINT",
    "region": "Alps",
    "country": "Europe",
    "lat": 46.8780979,
    "lng": 15.2199905,
    "nearest_airport": "VIE",
    "description": "Auto-imported SCENIC_POINT. Altitude: N/Am"
  },
  "weinblick-aussichtsplattform": {
    "name": "Weinblick Aussichtsplattform",
    "slug": "weinblick-aussichtsplattform",
    "category": "SCENIC_POINT",
    "region": "Alps",
    "country": "Europe",
    "lat": 47.1946214,
    "lng": 16.4137743,
    "nearest_airport": "VIE",
    "description": "Auto-imported SCENIC_POINT. Altitude: N/Am"
  },
  "weinebene": {
    "name": "Weinebene",
    "slug": "weinebene",
    "category": "MOUNTAIN_PASS",
    "region": "Alps",
    "country": "Europe",
    "lat": 46.8399073,
    "lng": 15.016477,
    "nearest_airport": "VIE",
    "description": "Auto-imported MOUNTAIN_PASS. Altitude: 1668m"
  },
  "weinebene-3556": {
    "name": "Weinebene",
    "slug": "weinebene-3556",
    "category": "MOUNTAIN_PASS",
    "region": "Alps",
    "country": "",
    "lat": 46.8399073,
    "lng": 15.016477,
    "nearest_airport": "",
    "description": "Verified Location."
  },
  "weinhalden": {
    "name": "Weinhalden",
    "slug": "weinhalden",
    "category": "SCENIC_POINT",
    "region": "Alps",
    "country": "Europe",
    "lat": 47.8622616,
    "lng": 8.8061057,
    "nearest_airport": "ZRH",
    "description": "Auto-imported SCENIC_POINT. Altitude: N/Am"
  },
  "weissbachlscharte": {
    "name": "Weißbachlscharte",
    "slug": "weissbachlscharte",
    "category": "MOUNTAIN_PASS",
    "region": "Alps",
    "country": "Europe",
    "lat": 47.4783392,
    "lng": 12.8977871,
    "nearest_airport": "SZG",
    "description": "Auto-imported MOUNTAIN_PASS. Altitude: 2259m"
  },
  "weissbachlscharte-937": {
    "name": "Weißbachlscharte",
    "slug": "weissbachlscharte-937",
    "category": "MOUNTAIN_PASS",
    "region": "Alps",
    "country": "",
    "lat": 47.4783392,
    "lng": 12.8977871,
    "nearest_airport": "",
    "description": "Verified Location."
  },
  "weissbachruh": {
    "name": "Weißbachruh",
    "slug": "weissbachruh",
    "category": "SCENIC_POINT",
    "region": "Alps",
    "country": "Europe",
    "lat": 47.7150953,
    "lng": 12.7672936,
    "nearest_airport": "SZG",
    "description": "Auto-imported SCENIC_POINT. Altitude: 720m"
  },
  "weisse-wand": {
    "name": "Weiße Wand",
    "slug": "weisse-wand",
    "category": "SCENIC_POINT",
    "region": "Alps",
    "country": "Europe",
    "lat": 46.7757467,
    "lng": 13.6603085,
    "nearest_airport": "SZG",
    "description": "Auto-imported SCENIC_POINT. Altitude: N/Am"
  },
  "weissenbacher-sattel": {
    "name": "Weißenbacher Sattel",
    "slug": "weissenbacher-sattel",
    "category": "MOUNTAIN_PASS",
    "region": "Alps",
    "country": "Europe",
    "lat": 47.771075,
    "lng": 13.6201045,
    "nearest_airport": "SZG",
    "description": "Auto-imported MOUNTAIN_PASS. Altitude: 566m"
  },
  "weissenbachsattel": {
    "name": "Weißenbachsattel",
    "slug": "weissenbachsattel",
    "category": "MOUNTAIN_PASS",
    "region": "Alps",
    "country": "Europe",
    "lat": 47.4082199,
    "lng": 11.6948712,
    "nearest_airport": "INN",
    "description": "Auto-imported MOUNTAIN_PASS. Altitude: 1686m"
  },
  "weissenbachscharte": {
    "name": "Weißenbachscharte",
    "slug": "weissenbachscharte",
    "category": "MOUNTAIN_PASS",
    "region": "Alps",
    "country": "Europe",
    "lat": 47.0857991,
    "lng": 12.8726,
    "nearest_airport": "SZG",
    "description": "Auto-imported MOUNTAIN_PASS. Altitude: 2645m"
  },
  "weissenbachscharte-540": {
    "name": "Weißenbachscharte",
    "slug": "weissenbachscharte-540",
    "category": "MOUNTAIN_PASS",
    "region": "Alps",
    "country": "",
    "lat": 47.0857991,
    "lng": 12.8726,
    "nearest_airport": "",
    "description": "Verified Location."
  },
  "weissensberger-halde": {
    "name": "Weißensberger Halde",
    "slug": "weissensberger-halde",
    "category": "SCENIC_POINT",
    "region": "Alps",
    "country": "Europe",
    "lat": 47.5774839,
    "lng": 9.7262608,
    "nearest_airport": "ZRH",
    "description": "Auto-imported SCENIC_POINT. Altitude: N/Am"
  },
  "weissensee-panorama-blick": {
    "name": "Weißensee Panorama Blick",
    "slug": "weissensee-panorama-blick",
    "category": "SCENIC_POINT",
    "region": "Alps",
    "country": "Europe",
    "lat": 47.5659521,
    "lng": 10.6224637,
    "nearest_airport": "INN",
    "description": "Auto-imported SCENIC_POINT. Altitude: N/Am"
  },
  "weissenstein": {
    "name": "Weißenstein",
    "slug": "weissenstein",
    "category": "SCENIC_POINT",
    "region": "Alps",
    "country": "Europe",
    "lat": 47.76367,
    "lng": 8.1200552,
    "nearest_airport": "ZRH",
    "description": "Auto-imported SCENIC_POINT. Altitude: N/Am"
  },
  "weisses-kreuz": {
    "name": "Weisses Kreuz",
    "slug": "weisses-kreuz",
    "category": "SCENIC_POINT",
    "region": "Alps",
    "country": "Europe",
    "lat": 47.1451557,
    "lng": 8.5923663,
    "nearest_airport": "ZRH",
    "description": "Auto-imported SCENIC_POINT. Altitude: N/Am"
  },
  "weisskugeljoch-forcella-di-palla-bianca": {
    "name": "Weißkugeljoch - Forcella di Palla Bianca",
    "slug": "weisskugeljoch-forcella-di-palla-bianca",
    "category": "MOUNTAIN_PASS",
    "region": "Alps",
    "country": "Europe",
    "lat": 46.7990248,
    "lng": 10.7343424,
    "nearest_airport": "INN",
    "description": "Auto-imported MOUNTAIN_PASS. Altitude: 3362m"
  },
  "weisskugeljoch-forcella-di-palla-bianca-1032": {
    "name": "Weißkugeljoch - Forcella di Palla Bianca",
    "slug": "weisskugeljoch-forcella-di-palla-bianca-1032",
    "category": "MOUNTAIN_PASS",
    "region": "Alps",
    "country": "",
    "lat": 46.7990248,
    "lng": 10.7343424,
    "nearest_airport": "",
    "description": "Verified Location."
  },
  "weisslahnsattel-sella-di-lavina-bianca": {
    "name": "Weißlahnsattel - Sella di Lavina Bianca",
    "slug": "weisslahnsattel-sella-di-lavina-bianca",
    "category": "MOUNTAIN_PASS",
    "region": "Alps",
    "country": "Europe",
    "lat": 46.6937752,
    "lng": 12.1098345,
    "nearest_airport": "INN",
    "description": "Auto-imported MOUNTAIN_PASS. Altitude: 2194m"
  },
  "weisslahnsattel-sella-di-lavina-bianca-1652": {
    "name": "Weißlahnsattel - Sella di Lavina Bianca",
    "slug": "weisslahnsattel-sella-di-lavina-bianca-1652",
    "category": "MOUNTAIN_PASS",
    "region": "Alps",
    "country": "",
    "lat": 46.6937752,
    "lng": 12.1098345,
    "nearest_airport": "",
    "description": "Verified Location."
  },
  "weissmaurachjoch": {
    "name": "Weißmaurachjoch",
    "slug": "weissmaurachjoch",
    "category": "MOUNTAIN_PASS",
    "region": "Alps",
    "country": "Europe",
    "lat": 46.9875628,
    "lng": 10.9099352,
    "nearest_airport": "INN",
    "description": "Auto-imported MOUNTAIN_PASS. Altitude: 2959m"
  },
  "weissmaurachjoch-987": {
    "name": "Weißmaurachjoch",
    "slug": "weissmaurachjoch-987",
    "category": "MOUNTAIN_PASS",
    "region": "Alps",
    "country": "",
    "lat": 46.9875628,
    "lng": 10.9099352,
    "nearest_airport": "",
    "description": "Verified Location."
  },
  "weissn-am-sattl": {
    "name": "Weiß'n am Sattl",
    "slug": "weissn-am-sattl",
    "category": "SCENIC_POINT",
    "region": "Alps",
    "country": "Europe",
    "lat": 47.952942,
    "lng": 14.1832729,
    "nearest_airport": "SZG",
    "description": "Auto-imported SCENIC_POINT. Altitude: 763m"
  },
  "weisspass": {
    "name": "Weißpass",
    "slug": "weisspass",
    "category": "MOUNTAIN_PASS",
    "region": "Alps",
    "country": "Europe",
    "lat": 47.7136474,
    "lng": 9.629914,
    "nearest_airport": "ZRH",
    "description": "Auto-imported MOUNTAIN_PASS. Altitude: 516m"
  },
  "weissseejoch": {
    "name": "Weißseejoch",
    "slug": "weissseejoch",
    "category": "MOUNTAIN_PASS",
    "region": "Alps",
    "country": "Europe",
    "lat": 46.8666595,
    "lng": 10.6910987,
    "nearest_airport": "INN",
    "description": "Auto-imported MOUNTAIN_PASS. Altitude: 2968m"
  },
  "weissseejoch-1016": {
    "name": "Weißseejoch",
    "slug": "weissseejoch-1016",
    "category": "MOUNTAIN_PASS",
    "region": "Alps",
    "country": "",
    "lat": 46.8666595,
    "lng": 10.6910987,
    "nearest_airport": "",
    "description": "Verified Location."
  },
  "weitalpjoch": {
    "name": "Weitalpjoch",
    "slug": "weitalpjoch",
    "category": "MOUNTAIN_PASS",
    "region": "Alps",
    "country": "Europe",
    "lat": 47.5522409,
    "lng": 10.8586257,
    "nearest_airport": "INN",
    "description": "Auto-imported MOUNTAIN_PASS. Altitude: 1778m"
  },
  "weitblick": {
    "name": "Weitblick",
    "slug": "weitblick",
    "category": "SCENIC_POINT",
    "region": "Alps",
    "country": "Europe",
    "lat": 47.6561284,
    "lng": 15.9298166,
    "nearest_airport": "VIE",
    "description": "Auto-imported SCENIC_POINT. Altitude: N/Am"
  },
  "weitblick-hock": {
    "name": "Weitblick-Hock",
    "slug": "weitblick-hock",
    "category": "SCENIC_POINT",
    "region": "Alps",
    "country": "Europe",
    "lat": 47.6385633,
    "lng": 10.4232617,
    "nearest_airport": "INN",
    "description": "Auto-imported SCENIC_POINT. Altitude: N/Am"
  },
  "weitblick-punkt-b": {
    "name": "Weitblick (Punkt B)",
    "slug": "weitblick-punkt-b",
    "category": "SCENIC_POINT",
    "region": "Alps",
    "country": "Europe",
    "lat": 47.6596193,
    "lng": 16.3644657,
    "nearest_airport": "VIE",
    "description": "Auto-imported SCENIC_POINT. Altitude: N/Am"
  },
  "weitblick-punkt-c": {
    "name": "Weitblick (Punkt C)",
    "slug": "weitblick-punkt-c",
    "category": "SCENIC_POINT",
    "region": "Alps",
    "country": "Europe",
    "lat": 47.6602923,
    "lng": 16.3636221,
    "nearest_airport": "VIE",
    "description": "Auto-imported SCENIC_POINT. Altitude: N/Am"
  },
  "weitblick-punkt-d": {
    "name": "Weitblick (Punkt D)",
    "slug": "weitblick-punkt-d",
    "category": "SCENIC_POINT",
    "region": "Alps",
    "country": "Europe",
    "lat": 47.6601929,
    "lng": 16.3625693,
    "nearest_airport": "VIE",
    "description": "Auto-imported SCENIC_POINT. Altitude: N/Am"
  },
  "weitblicke": {
    "name": "Weitblicke",
    "slug": "weitblicke",
    "category": "SCENIC_POINT",
    "region": "Alps",
    "country": "Europe",
    "lat": 47.6432699,
    "lng": 10.4337725,
    "nearest_airport": "INN",
    "description": "Auto-imported SCENIC_POINT. Altitude: N/Am"
  },
  "weitseeblick": {
    "name": "Weitseeblick",
    "slug": "weitseeblick",
    "category": "SCENIC_POINT",
    "region": "Alps",
    "country": "Europe",
    "lat": 47.6798196,
    "lng": 12.5568736,
    "nearest_airport": "SZG",
    "description": "Auto-imported SCENIC_POINT. Altitude: N/Am"
  },
  "welterbe-blick": {
    "name": "Welterbe-Blick",
    "slug": "welterbe-blick",
    "category": "SCENIC_POINT",
    "region": "Alps",
    "country": "Europe",
    "lat": 47.5611821,
    "lng": 13.6436377,
    "nearest_airport": "SZG",
    "description": "Auto-imported SCENIC_POINT. Altitude: N/Am"
  },
  "welzescharte": {
    "name": "Welzescharte",
    "slug": "welzescharte",
    "category": "MOUNTAIN_PASS",
    "region": "Alps",
    "country": "Europe",
    "lat": 46.4485605,
    "lng": 14.4089,
    "nearest_airport": "SZG",
    "description": "Auto-imported MOUNTAIN_PASS. Altitude: 1750m"
  },
  "wenger-moor": {
    "name": "Wenger Moor",
    "slug": "wenger-moor",
    "category": "SCENIC_POINT",
    "region": "Alps",
    "country": "Europe",
    "lat": 47.928136,
    "lng": 13.1748403,
    "nearest_airport": "SZG",
    "description": "Auto-imported SCENIC_POINT. Altitude: N/Am"
  },
  "wenzelangersattel": {
    "name": "Wenzelangersattel",
    "slug": "wenzelangersattel",
    "category": "MOUNTAIN_PASS",
    "region": "Alps",
    "country": "Europe",
    "lat": 47.4295828,
    "lng": 16.2674532,
    "nearest_airport": "VIE",
    "description": "Auto-imported MOUNTAIN_PASS. Altitude: 712m"
  },
  "westliche-moselescharte": {
    "name": "Westliche Möselescharte",
    "slug": "westliche-moselescharte",
    "category": "MOUNTAIN_PASS",
    "region": "Alps",
    "country": "Europe",
    "lat": 46.9896194,
    "lng": 11.7810211,
    "nearest_airport": "INN",
    "description": "Auto-imported MOUNTAIN_PASS. Altitude: 3370m"
  },
  "westliche-moselescharte-3827": {
    "name": "Westliche Möselescharte",
    "slug": "westliche-moselescharte-3827",
    "category": "MOUNTAIN_PASS",
    "region": "Alps",
    "country": "",
    "lat": 46.9896194,
    "lng": 11.7810211,
    "nearest_airport": "",
    "description": "Verified Location."
  },
  "westliche-moserkarscharte": {
    "name": "Westliche Moserkarscharte",
    "slug": "westliche-moserkarscharte",
    "category": "MOUNTAIN_PASS",
    "region": "Alps",
    "country": "Europe",
    "lat": 47.401095,
    "lng": 11.4626939,
    "nearest_airport": "INN",
    "description": "Auto-imported MOUNTAIN_PASS. Altitude: N/Am"
  },
  "westliches-lachenjoch": {
    "name": "Westliches Lachenjoch",
    "slug": "westliches-lachenjoch",
    "category": "MOUNTAIN_PASS",
    "region": "Alps",
    "country": "Europe",
    "lat": 47.4408657,
    "lng": 10.5021859,
    "nearest_airport": "INN",
    "description": "Auto-imported MOUNTAIN_PASS. Altitude: 1970m"
  },
  "westliches-lamsenjoch": {
    "name": "Westliches Lamsenjoch",
    "slug": "westliches-lamsenjoch",
    "category": "MOUNTAIN_PASS",
    "region": "Alps",
    "country": "Europe",
    "lat": 47.3878875,
    "lng": 11.5953588,
    "nearest_airport": "INN",
    "description": "Auto-imported MOUNTAIN_PASS. Altitude: 1940m"
  },
  "westliches-lamsenjoch-2508": {
    "name": "Westliches Lamsenjoch",
    "slug": "westliches-lamsenjoch-2508",
    "category": "MOUNTAIN_PASS",
    "region": "Alps",
    "country": "",
    "lat": 47.3878875,
    "lng": 11.5953588,
    "nearest_airport": "",
    "description": "Verified Location."
  },
  "westliches-marzelljoch": {
    "name": "Westliches Marzelljoch",
    "slug": "westliches-marzelljoch",
    "category": "MOUNTAIN_PASS",
    "region": "Alps",
    "country": "Europe",
    "lat": 46.7693429,
    "lng": 10.9079685,
    "nearest_airport": "INN",
    "description": "Auto-imported MOUNTAIN_PASS. Altitude: N/Am"
  },
  "westliches-obersulzbachtorl": {
    "name": "Westliches Obersulzbachtörl",
    "slug": "westliches-obersulzbachtorl",
    "category": "MOUNTAIN_PASS",
    "region": "Alps",
    "country": "Europe",
    "lat": 47.0988875,
    "lng": 12.3130545,
    "nearest_airport": "INN",
    "description": "Auto-imported MOUNTAIN_PASS. Altitude: 2921m"
  },
  "westliches-obersulzbachtorl-3089": {
    "name": "Westliches Obersulzbachtörl",
    "slug": "westliches-obersulzbachtorl-3089",
    "category": "MOUNTAIN_PASS",
    "region": "Alps",
    "country": "",
    "lat": 47.0988875,
    "lng": 12.3130545,
    "nearest_airport": "",
    "description": "Verified Location."
  },
  "wetterkreuz": {
    "name": "Wetterkreuz",
    "slug": "wetterkreuz",
    "category": "SCENIC_POINT",
    "region": "Alps",
    "country": "Europe",
    "lat": 46.6958049,
    "lng": 13.9202045,
    "nearest_airport": "SZG",
    "description": "Auto-imported SCENIC_POINT. Altitude: 1852m"
  },
  "wetterlucke": {
    "name": "Wetterlücke",
    "slug": "wetterlucke",
    "category": "MOUNTAIN_PASS",
    "region": "Alps",
    "country": "Europe",
    "lat": 46.4769644,
    "lng": 7.8579431,
    "nearest_airport": "MXP",
    "description": "Auto-imported MOUNTAIN_PASS. Altitude: 3169m"
  },
  "wetterlucke-1472": {
    "name": "Wetterlücke",
    "slug": "wetterlucke-1472",
    "category": "MOUNTAIN_PASS",
    "region": "Alps",
    "country": "",
    "lat": 46.4769644,
    "lng": 7.8579431,
    "nearest_airport": "",
    "description": "Verified Location."
  },
  "wettersteingebirgs-blick": {
    "name": "Wettersteingebirgs-Blick",
    "slug": "wettersteingebirgs-blick",
    "category": "SCENIC_POINT",
    "region": "Alps",
    "country": "Europe",
    "lat": 47.3657114,
    "lng": 11.2681062,
    "nearest_airport": "INN",
    "description": "Auto-imported SCENIC_POINT. Altitude: N/Am"
  },
  "wetterturm": {
    "name": "Wetterturm",
    "slug": "wetterturm",
    "category": "SCENIC_POINT",
    "region": "Alps",
    "country": "Europe",
    "lat": 47.1832136,
    "lng": 15.7097359,
    "nearest_airport": "VIE",
    "description": "Auto-imported SCENIC_POINT. Altitude: N/Am"
  }
}