{
  "zwanghoger": {
    "name": "Zwanghoger",
    "slug": "zwanghoger",
    "category": "SCENIC_POINT",
    "region": "Alps",
    "country": "Europe",
    "lat": 47.1066419,
    "lng": 7.8140201,
    "nearest_airport": "ZRH",
    "description": "Auto-imported SCENIC_POINT. Altitude: N/Am"
  },
  "zwei-birken": {
    "name": "Zwei Birken",
    "slug": "zwei-birken",
    "category": "SCENIC_POINT",
    "region": "Alps",
    "country": "Europe",
    "lat": 47.9706038,
    "lng": 7.8767176,
    "nearest_airport": "ZRH",
    "description": "Auto-imported SCENIC_POINT. Altitude: 669m"
  },
  "zwei-seen-steg": {
    "name": "Zwei-Seen-Steg",
    "slug": "zwei-seen-steg",
    "category": "SCENIC_POINT",
    "region": "Alps",
    "country": "Europe",
    "lat": 46.6971529,
    "lng": 7.8516214,
    "nearest_airport": "ZRH",
    "description": "Auto-imported SCENIC_POINT. Altitude: N/Am"
  },
  "zweiseenblick": {
    "name": "Zweiseenblick",
    "slug": "zweiseenblick",
    "category": "SCENIC_POINT",
    "region": "Alps",
    "country": "Europe",
    "lat": 47.8550199,
    "lng": 8.0742857,
    "nearest_airport": "ZRH",
    "description": "Auto-imported SCENIC_POINT. Altitude: 1295m"
  },
  "zweiseentorl": {
    "name": "Zweiseentörl",
    "slug": "zweiseentorl",
    "category": "MOUNTAIN_PASS",
    "region": "Alps",
    "country": "Europe",
    "lat": 46.8012131,
    "lng": 13.142198,
    "nearest_airport": "SZG",
    "description": "Auto-imported MOUNTAIN_PASS. Altitude: 2370m"
  },
  "zweiseentorl-2644": {
    "name": "Zweiseentörl",
    "slug": "zweiseentorl-2644",
    "category": "MOUNTAIN_PASS",
    "region": "Alps",
    "country": "",
    "lat": 46.8012131,
    "lng": 13.142198,
    "nearest_airport": "",
    "description": "Verified Location."
  },
  "zwenberger-torl": {
    "name": "Zwenberger Törl",
    "slug": "zwenberger-torl",
    "category": "MOUNTAIN_PASS",
    "region": "Alps",
    "country": "Europe",
    "lat": 46.9632314,
    "lng": 13.3119364,
    "nearest_airport": "SZG",
    "description": "Auto-imported MOUNTAIN_PASS. Altitude: 2766m"
  },
  "zwenberger-torl-3090": {
    "name": "Zwenberger Törl",
    "slug": "zwenberger-torl-3090",
    "category": "MOUNTAIN_PASS",
    "region": "Alps",
    "country": "",
    "lat": 46.9632314,
    "lng": 13.3119364,
    "nearest_airport": "",
    "description": "Verified Location."
  },
  "zwiesel": {
    "name": "Zwiesel",
    "slug": "zwiesel",
    "category": "SCENIC_POINT",
    "region": "Alps",
    "country": "Europe",
    "lat": 47.7235563,
    "lng": 11.4885004,
    "nearest_airport": "INN",
    "description": "Auto-imported SCENIC_POINT. Altitude: N/Am"
  },
  "zwieselbachjoch": {
    "name": "Zwieselbachjoch",
    "slug": "zwieselbachjoch",
    "category": "MOUNTAIN_PASS",
    "region": "Alps",
    "country": "Europe",
    "lat": 47.1059147,
    "lng": 11.0403878,
    "nearest_airport": "INN",
    "description": "Auto-imported MOUNTAIN_PASS. Altitude: 2868m"
  },
  "zwieselbachjoch-333": {
    "name": "Zwieselbachjoch",
    "slug": "zwieselbachjoch-333",
    "category": "MOUNTAIN_PASS",
    "region": "Alps",
    "country": "",
    "lat": 47.1059147,
    "lng": 11.0403878,
    "nearest_airport": "",
    "description": "Verified Location."
  },
  "zwinglipass": {
    "name": "Zwinglipass",
    "slug": "zwinglipass",
    "category": "MOUNTAIN_PASS",
    "region": "Alps",
    "country": "Europe",
    "lat": 47.2358367,
    "lng": 9.3788306,
    "nearest_airport": "ZRH",
    "description": "Auto-imported MOUNTAIN_PASS. Altitude: 2011m"
  },
  "zwinglipass-1428": {
    "name": "Zwinglipass",
    "slug": "zwinglipass-1428",
    "category": "MOUNTAIN_PASS",
    "region": "Alps",
    "country": "",
    "lat": 47.2358367,
    "lng": 9.3788306,
    "nearest_airport": "",
    "description": "Verified Location."
  },
  "zwischbergenpass": {
    "name": "Zwischbergenpass",
    "slug": "zwischbergenpass",
    "category": "MOUNTAIN_PASS",
    "region": "Alps",
    "country": "Europe",
    "lat": 46.1148034,
    "lng": 8.0201931,
    "nearest_airport": "MXP",
    "description": "Auto-imported MOUNTAIN_PASS. Altitude: 3271m"
  },
  "zwischbergenpass-906": {
    "name": "Zwischbergenpass",
    "slug": "zwischbergenpass-906",
    "category": "MOUNTAIN_PASS",
    "region": "Alps",
    "country": "",
    "lat": 46.1148034,
    "lng": 8.0201931,
    "nearest_airport": "",
    "description": "Verified Location."
  },
  "zwischbergenpass-s": {
    "name": "Zwischbergenpass S",
    "slug": "zwischbergenpass-s",
    "category": "MOUNTAIN_PASS",
    "region": "Alps",
    "country": "Europe",
    "lat": 46.1133415,
    "lng": 8.0220681,
    "nearest_airport": "MXP",
    "description": "Auto-imported MOUNTAIN_PASS. Altitude: 3242m"
  },
  "zwischbergenpass-s-921": {
    "name": "Zwischbergenpass S",
    "slug": "zwischbergenpass-s-921",
    "category": "MOUNTAIN_PASS",
    "region": "Alps",
    "country": "",
    "lat": 46.1133415,
    "lng": 8.0220681,
    "nearest_airport": "",
    "description": "Verified Location."
  },
  "zwischenelendscharte": {
    "name": "Zwischenelendscharte",
    "slug": "zwischenelendscharte",
    "category": "MOUNTAIN_PASS",
    "region": "Alps",
    "country": "Europe",
    "lat": 47.0605185,
    "lng": 13.2761489,
    "nearest_airport": "SZG",
    "description": "Auto-imported MOUNTAIN_PASS. Altitude: 2676m"
  },
  "zwischenelendscharte-3102": {
    "name": "Zwischenelendscharte",
    "slug": "zwischenelendscharte-3102",
    "category": "MOUNTAIN_PASS",
    "region": "Alps",
    "country": "",
    "lat": 47.0605185,
    "lng": 13.2761489,
    "nearest_airport": "",
    "description": "Verified Location."
  },
  "zwischengrat": {
    "name": "Zwischengrat",
    "slug": "zwischengrat",
    "category": "MOUNTAIN_PASS",
    "region": "Alps",
    "country": "Europe",
    "lat": 47.032875,
    "lng": 10.2366824,
    "nearest_airport": "INN",
    "description": "Auto-imported MOUNTAIN_PASS. Altitude: 2770m"
  },
  "zwischengrat-3812": {
    "name": "Zwischengrat",
    "slug": "zwischengrat-3812",
    "category": "MOUNTAIN_PASS",
    "region": "Alps",
    "country": "",
    "lat": 47.032875,
    "lng": 10.2366824,
    "nearest_airport": "",
    "description": "Verified Location."
  },
  "zwischenwanden": {
    "name": "Zwischenwänden",
    "slug": "zwischenwanden",
    "category": "MOUNTAIN_PASS",
    "region": "Alps",
    "country": "Europe",
    "lat": 47.6491568,
    "lng": 14.2235479,
    "nearest_airport": "SZG",
    "description": "Auto-imported MOUNTAIN_PASS. Altitude: 2004m"
  },
  "zwischenwanden-697": {
    "name": "Zwischenwänden",
    "slug": "zwischenwanden-697",
    "category": "MOUNTAIN_PASS",
    "region": "Alps",
    "country": "",
    "lat": 47.6491568,
    "lng": 14.2235479,
    "nearest_airport": "",
    "description": "Verified Location."
  },
  "zwolferjoch": {
    "name": "Zwölferjoch",
    "slug": "zwolferjoch",
    "category": "MOUNTAIN_PASS",
    "region": "Alps",
    "country": "Europe",
    "lat": 47.111266,
    "lng": 9.7949781,
    "nearest_airport": "ZRH",
    "description": "Auto-imported MOUNTAIN_PASS. Altitude: N/Am"
  },
  "zwolferkogel": {
    "name": "Zwölferkogel",
    "slug": "zwolferkogel",
    "category": "SCENIC_POINT",
    "region": "Alps",
    "country": "Europe",
    "lat": 47.2353669,
    "lng": 12.5249444,
    "nearest_airport": "SZG",
    "description": "Auto-imported SCENIC_POINT. Altitude: 2446m"
  },
  "zwolfernieder": {
    "name": "Zwölfernieder",
    "slug": "zwolfernieder",
    "category": "MOUNTAIN_PASS",
    "region": "Alps",
    "country": "Europe",
    "lat": 47.0790103,
    "lng": 11.3064902,
    "nearest_airport": "INN",
    "description": "Auto-imported MOUNTAIN_PASS. Altitude: 2335m"
  },
  "zwolfernieder-1690": {
    "name": "Zwölfernieder",
    "slug": "zwolfernieder-1690",
    "category": "MOUNTAIN_PASS",
    "region": "Alps",
    "country": "",
    "lat": 47.0790103,
    "lng": 11.3064902,
    "nearest_airport": "",
    "description": "Verified Location."
  },
  "zwolferwand": {
    "name": "Zwölferwand",
    "slug": "zwolferwand",
    "category": "SCENIC_POINT",
    "region": "Alps",
    "country": "Europe",
    "lat": 46.5991388,
    "lng": 14.3920476,
    "nearest_airport": "SZG",
    "description": "Auto-imported SCENIC_POINT. Altitude: N/Am"
  },
  "zwurms-aussicht": {
    "name": "Zwurms-Aussicht",
    "slug": "zwurms-aussicht",
    "category": "SCENIC_POINT",
    "region": "Alps",
    "country": "Europe",
    "lat": 47.3294276,
    "lng": 9.6503446,
    "nearest_airport": "ZRH",
    "description": "Auto-imported SCENIC_POINT. Altitude: 745m"
  },
  "zwuschet-mythen": {
    "name": "Zwüschet Mythen",
    "slug": "zwuschet-mythen",
    "category": "MOUNTAIN_PASS",
    "region": "Alps",
    "country": "Europe",
    "lat": 47.034043,
    "lng": 8.6831605,
    "nearest_airport": "ZRH",
    "description": "Auto-imported MOUNTAIN_PASS. Altitude: N/Am"
  }
}